~Version Information
VERS  .          2.0                              :CWLS Log Ascii Standard - Version 2.0
WRAP  .          NO                               :One line per depth step
~Well Information Block
#MNEM.UNIT       Data Type                        Information
#---------       ---------                        -------------------------------
STRT  .F         9346.00000                       :START DEPTH
STOP  .F         2030.00000                       :STOP DEPTH
STEP  .F         -0.50000                         :INCREMENT
NULL  .          -999.25                          :NULL DATA VALUE
COMP  .          ************                     :COMPANY
WELL  .          ********                         :WELL
FLD   .          ******                           :FIELD
LOC   .                                           :LOCATION
PROV  .                                           :PROVINCE
STAT  .                                           :STATE
CNTY  .                                           :COUNTY
CTRY  .          ************                     :COUNTRY
DATE  .                                           :DATE
UWI   .          ********                         :UNIQUE WELL UWI
LIC   .                                           :LICENSE NUMBER
API   .                                           :API NUMBER
SRVC  .          *****                            :SERVICE COMPANY
~Parameter Information Block
#MNEM.UNIT       Value                            Description
#---------       ---------                        -------------
~Curve Information Block
#MNEM.UNIT       API Code            Curve    Description
#--------        --------------      -----    -------------------
DEPT  .F                             :0       Index
CAL   .                              :1       Calibration Curve             
ASN   .OHMM                          :2       Amplified Short Normal        
I6FR  .OHMM                          :3       I6FR - Deep Induction Log - PDVSA
DPHI  .V/V                           :4       Density Porosity              
GR    .GAPI                          :5       Gamma Ray                     
NPHI  .V/V                           :6       Thermal Neutron Porosity (original Ratio Method) in Selected Lithology
SP    .MV                            :7       Spontaneous Potential         
~Ascii Data Section
# ...
   8849.00000      11.85400      10.00000       7.90000       0.17820      81.80041       0.26800    -999.25000 
   8848.50000      11.91800      10.70000       9.85000       0.17070      78.08554       0.28330    -999.25000 
   8848.00000      11.99800      11.40000      11.80000       0.16020      75.12857       0.30880    -999.25000 
   8847.50000      12.07500      11.80000      12.40000       0.14820      74.14949       0.34240    -999.25000 
   8847.00000      12.15000      12.20000      13.00000       0.13520      72.63585       0.38140    -999.25000 
   8846.50000      12.25200      12.20000      13.60000       0.12520      69.36090       0.40690    -999.25000 
   8846.00000      12.37200      12.20000      14.20000       0.11720      65.86598       0.42340    -999.25000 
   8845.50000      12.42000      11.60000      13.30000       0.10740      61.41643       0.43030    -999.25000 
   8845.00000      12.42000      11.00000      12.40000       0.09640      58.99124       0.43080    -999.25000 
   8844.50000      12.38400      10.50000      11.70000       0.09080      68.66945       0.42620    -999.25000 
   8844.00000      12.32400      10.00000      11.00000       0.08880      77.55316       0.41820    -999.25000 
   8843.50000      12.28800       8.55000       8.15000       0.08440      79.11731       0.39040    -999.25000 
   8843.00000      12.26800       7.10000       5.30000       0.07840      80.62037       0.34940    -999.25000 
   8842.50000      12.21500       7.20000       5.10000       0.08140      81.01143       0.31560    -999.25000 
   8842.00000      12.14000       7.30000       4.90000       0.09040      81.40652       0.28660    -999.25000 
   8841.50000      12.08600       7.50000       5.00000       0.10300      82.18859       0.26750    -999.25000 
   8841.00000      12.04600       7.70000       5.10000       0.11800      82.97067       0.25500    -999.25000 
   8840.50000      12.01803       8.25000       6.10000       0.13238      75.70774       0.25269    -999.25000 
   8840.00000      11.99804       8.80000       7.10000       0.14637      68.13136       0.25719    -999.25000 
   8839.50000      11.99000       9.20000       7.50000       0.15678      63.96029       0.27096    -999.25000 
   8839.00000      11.99000       9.60000       7.90000       0.16478      60.09173       0.29096    -999.25000 
   8838.50000      12.02587      10.20000       8.95000       0.16292      57.89328       0.31604    -999.25000 
   8838.00000      12.08587      10.80000      10.00000       0.15442      55.93808       0.34454    -999.25000 
   8837.50000      12.15484      10.80000      11.40000       0.14771      54.14460       0.37125    -999.25000 
   8837.00000      12.22984      10.80000      12.80000       0.14221      52.38493       0.39675    -999.25000 
   8836.50000      12.33175      10.45000      13.20000       0.13970      51.69325       0.41477    -999.25000 
   8836.00000      12.45175      10.10000      13.60000       0.13920      51.30061       0.42777    -999.25000 
   8835.50000      12.50000       9.45000      12.10000       0.12854      53.24836       0.43629    -999.25000 
   8835.00000      12.50000       8.80000      10.60000       0.11104      55.99836       0.44179    -999.25000 
   8834.50000      12.50000       8.15000       9.90000       0.10041      61.91043       0.44370    -999.25000 
   8834.00000      12.50000       7.50000       9.20000       0.09441      69.13535       0.44320    -999.25000 
   8833.50000      12.55979       6.70000       7.65000       0.09678      73.71278       0.44719    -999.25000 
   8833.00000      12.65979       5.90000       6.10000       0.10478      77.00112       0.45419    -999.25000 
   8832.50000      12.64021       5.60000       5.20000       0.10979      80.91319       0.46178    -999.25000 
   8832.00000      12.54021       5.30000       4.30000       0.11279      85.18853       0.46978    -999.25000 
   8831.50000      12.40433       5.10000       3.80000       0.11729      85.86932       0.47091    -999.25000 
   8831.00000      12.24433       4.90000       3.30000       0.12279      84.15154       0.46741    -999.25000 
   8830.50000      12.17103       4.90000       3.30000       0.12500      86.35399       0.45105    -999.25000 
   8830.00000      12.15603       4.90000       3.30000       0.12500      91.61137       0.42605    -999.25000 
   8829.50000      12.17093       5.00000       3.30000       0.11902      93.16871       0.38431    -999.25000 
   8829.00000      12.20593       5.10000       3.30000       0.10902      91.40184       0.33131    -999.25000 
   8828.50000      12.23196       5.40000       3.50000       0.10679      88.11629       0.31807    -999.25000 
   8828.00000      12.25196       5.70000       3.70000       0.10979      83.25215       0.33157    -999.25000 
   8827.50000      12.27196       6.00000       4.00000       0.11160      81.91513       0.34238    -999.25000 
   8827.00000      12.29196       6.30000       4.30000       0.11260      84.81084       0.35138    -999.25000 
   8826.50000      12.30000       6.50000       4.50000       0.11031      87.31967       0.35440    -999.25000 
   8826.00000      12.30000       6.70000       4.70000       0.10581      89.28528       0.35340    -999.25000 
   8825.50000      12.30000       6.80000       5.20000       0.09922      89.45215       0.35180    -999.25000 
   8825.00000      12.30000       6.90000       5.70000       0.09122      86.70368       0.34980    -999.25000 
   8824.50000      12.30000       6.90000       5.70000       0.09099      85.71148       0.34751    -999.25000 
   8824.00000      12.30000       6.90000       5.70000       0.09599      88.07056       0.34501    -999.25000 
   8823.50000      12.30000       7.00000       5.60000       0.09381      89.70000       0.34490    -999.25000 
   8823.00000      12.30000       7.10000       5.50000       0.08681      89.70000       0.34640    -999.25000 
   8822.50000      12.28804       7.00000       5.40000       0.08908      88.90971       0.35806    -999.25000 
   8822.00000      12.26804       6.90000       5.30000       0.09758      86.01401       0.37656    -999.25000 
   8821.50000      12.26000       6.70000       5.10000       0.10040      84.01953       0.39118    -999.25000 
   8821.00000      12.26000       6.50000       4.90000       0.09940      84.95246       0.40317    -999.25000 
   8820.50000      12.26000       6.40000       4.70000       0.09900      85.77853       0.38647    -999.25000 
   8820.00000      12.26000       6.30000       4.50000       0.09900      86.17117       0.35047    -999.25000 
   8819.50000      12.26000       6.40000       4.40000       0.10259      86.25276       0.32882    -999.25000 
   8819.00000      12.26000       6.50000       4.30000       0.10859      84.73083       0.31683    -999.25000 
   8818.50000      12.23608       6.80000       4.40000       0.11339      83.42495       0.30781    -999.25000 
   8818.00000      12.19608       7.10000       4.50000       0.11739      83.62128       0.30081    -999.25000 
   8817.50000      12.15907       7.50000       4.90000       0.12408      83.50102       0.29800    -999.25000 
   8817.00000      12.12407       7.90000       5.30000       0.13258      80.16312       0.29800    -999.25000 
   8816.50000      12.12196       8.15000       6.20000       0.14377      77.10634       0.30876    -999.25000 
   8816.00000      12.14196       8.40000       7.10000       0.15677      79.06953       0.32676    -999.25000 
   8815.50000      12.20680       8.80000       7.60000       0.14855      81.00328       0.34536    -999.25000 
   8815.00000      12.30180       9.20000       8.10000       0.12605      81.20000       0.36436    -999.25000 
   8814.50000      12.32804       9.20000       8.65000       0.10713      81.39632       0.37170    -999.25000 
   8814.00000      12.30807       9.20000       9.20000       0.09065      81.01472       0.37120    -999.25000 
