~VERSION INFORMATION 
VERS  .    2.0                                     :CWLS Log ASCII Standard - VERSION 2.0
WRAP  .    NO                                      :One Line per Depth step
#--------------------------------------------------
~WELL INFORMATION 
#MNEM           .UNIT                      DATA            :DESCRIPTION
#----            ------          --------------            -----------------------------
STRT            .ft                   7364.0000            :START DEPTH
STOP            .ft                   8538.0000            :STOP DEPTH
STEP            .ft                         0.5            :STEP
NULL            .                     -999.0000            :NULL VALUE
COMP            .                         PDVSA            :COMPANY
WELL            .                        Well-2            :WELL NAME
FLD             .                       GUAFITA            :FIELD NAME
SRVC            .                       UNKNOWN            :SERVICE COMPANY
DATE            .                       UNKNOWN            :LOG DATE(Composite Date for Composite LAP) (MM/DD/YYYY)
CNTY            .                       UNKNOWN            :COUNTY
STAT            .                       BARINAS            :STATE or PROVINCE
PROV            .                       BARINAS            :STATE or PROVINCE
CTRY            .                     VENEZUELA            :COUNTRY
API             .                                          :API NUMBER
UWI             .                                          :UNIQUE WELL ID
LOC             .                       GUAFITA            :FIELD LOCATION
#--------------------------------------------------
~CURVE INFORMATION
#MNEM           .UNIT                  API CODE            :DESCRIPTION
#----            ------          --------------            -----------------------------
DEPTH           .ft                                        : Depth Index
RHOB            .g/cm3                                     : Density
DTSM            .us/ft                                     : Delta-T Shear
DTCO            .us/ft                                     : Delta-T Compressional
VSH             .v/v                                       : Shale Volume
SW              .v/v                                       : Water Saturation
NPHI            .fraction                                  : Neutron Porosity
#--------------------------------------------------
~PARAMETER INFORMATION
#MNEM           .UNIT                  VALUE               :DESCRIPTION
#----           -------          --------------            -----------------------------
EKB             .ft                   487.00000            :Elevation of Depth Reference (Kelly Bushing)
EGL             .ft                   457.00000            :Elevation of Ground Level
#-------------------------------------------------------------
#  DEPTH             RHOB           DTSM           DTCO             VSH             SW              PHI
~ASCII
# ...
 7814.0000          2.4152        187.9081         94.5462       -999.0000       -999.0000       -999.0000
 7814.5000          2.4102        187.9363         94.0586       -999.0000       -999.0000       -999.0000
 7815.0005          2.4385        187.2042         93.5725       -999.0000       -999.0000       -999.0000
 7815.5000          2.4850        184.7722         92.2630       -999.0000       -999.0000       -999.0000
 7816.0000          2.5143        182.5472         90.9422       -999.0000       -999.0000       -999.0000
 7816.5000          2.5160        182.0534         90.7484       -999.0000       -999.0000       -999.0000
 7816.9995          2.5035        181.2117         89.3825       -999.0000       -999.0000       -999.0000
 7817.5000          2.4924        178.2196         88.3849       -999.0000       -999.0000       -999.0000
 7818.0000          2.4913        171.7185         87.6489       -999.0000       -999.0000       -999.0000
 7818.5000          2.5041        169.9008         85.6560       -999.0000       -999.0000       -999.0000
 7819.0005          2.5250        166.8092         87.5114       -999.0000       -999.0000       -999.0000
 7819.5000          2.5403        166.6567         83.5037       -999.0000       -999.0000       -999.0000
 7820.0000          2.5436        166.6825         82.9814       -999.0000       -999.0000       -999.0000
 7820.5000          2.5368        166.0693         83.4911       -999.0000       -999.0000       -999.0000
 7820.9995          2.5238        166.7126         84.9952       -999.0000       -999.0000       -999.0000
 7821.5000          2.5094        166.9639         85.7859       -999.0000       -999.0000       -999.0000
 7822.0000          2.4976        167.1843         86.3811       -999.0000       -999.0000       -999.0000
 7822.5000          2.4940        168.9373         87.3490       -999.0000       -999.0000       -999.0000
 7823.0005          2.4976        166.5085         85.4988       -999.0000       -999.0000       -999.0000
 7823.5000          2.4950        169.2740         86.1487       -999.0000       -999.0000       -999.0000
 7824.0000          2.4811        166.6143         86.5145       -999.0000       -999.0000       -999.0000
 7824.5000          2.4701        167.0191         86.5977       -999.0000       -999.0000       -999.0000
 7824.9995          2.4707        167.5322         87.5494       -999.0000       -999.0000       -999.0000
 7825.5000          2.4702        168.1125         87.8505       -999.0000       -999.0000       -999.0000
 7826.0000          2.4562        169.7860         87.3446       -999.0000       -999.0000       -999.0000
 7826.5000          2.4385        171.1213         88.7907       -999.0000       -999.0000       -999.0000
 7827.0005          2.4332        174.6105         88.6022       -999.0000       -999.0000       -999.0000
 7827.5000          2.4407        175.6002         90.5745       -999.0000       -999.0000       -999.0000
 7828.0000          2.4540        175.4998         91.8863       -999.0000       -999.0000       -999.0000
 7828.5000          2.4606        173.9016         92.0622       -999.0000       -999.0000       -999.0000
 7828.9995          2.4547        172.0269         90.4329       -999.0000       -999.0000       -999.0000
 7829.5000          2.4495        168.1468         91.5650       -999.0000       -999.0000       -999.0000
 7830.0000          2.4456        167.7616         91.5342       -999.0000       -999.0000       -999.0000
 7830.5000          2.4123        168.8442         92.2166       -999.0000       -999.0000       -999.0000
 7831.0005          2.3371        172.3389         93.2773       -999.0000       -999.0000       -999.0000
 7831.5000          2.2529        180.3734         94.0506       -999.0000       -999.0000       -999.0000
 7832.0000          2.2023        183.0816         96.4617       -999.0000       -999.0000       -999.0000
 7832.5000          2.1812        191.7372         97.2230       -999.0000       -999.0000       -999.0000
 7832.9995          2.1675        199.0964         98.3723       -999.0000       -999.0000       -999.0000
 7833.5000          2.1563        199.2676        101.2580       -999.0000       -999.0000       -999.0000
 7834.0000          2.1564        201.2911        101.9779       -999.0000       -999.0000       -999.0000
 7834.5000          2.1672        201.5347        102.1974       -999.0000       -999.0000       -999.0000
 7835.0005          2.1744        201.2049        101.6729       -999.0000       -999.0000       -999.0000
 7835.5000          2.1713        201.7799        100.9377       -999.0000       -999.0000       -999.0000
 7836.0000          2.1710        203.3710        100.9941       -999.0000       -999.0000       -999.0000
 7836.5000          2.1937        201.3466        101.1690       -999.0000       -999.0000       -999.0000
 7836.9995          2.2498        194.1004         99.3943       -999.0000       -999.0000       -999.0000
 7837.5000          2.3348        190.0427         96.3611       -999.0000       -999.0000       -999.0000
 7838.0000          2.4180        181.7360         91.7919       -999.0000       -999.0000       -999.0000
 7838.5000          2.4669        180.6752         91.1815       -999.0000       -999.0000       -999.0000
 7839.0005          2.4761        170.8911         88.1837       -999.0000       -999.0000       -999.0000
 7839.5000          2.4667        169.7235         87.8325       -999.0000       -999.0000       -999.0000
 7840.0000          2.4582        169.8667         89.4870       -999.0000       -999.0000       -999.0000
 7840.5000          2.4503        175.9284         89.8398       -999.0000       -999.0000       -999.0000
 7840.9995          2.4547        177.1383         90.1170       -999.0000       -999.0000       -999.0000
 7841.5000          2.4746        177.9085         91.6182       -999.0000       -999.0000       -999.0000
 7842.0000          2.4960        179.1109         89.9369       -999.0000       -999.0000       -999.0000
 7842.5000          2.5057        178.0414         84.7405       -999.0000       -999.0000       -999.0000
 7843.0005          2.5055        177.3633         84.7828       -999.0000       -999.0000       -999.0000
 7843.5000          2.5017        176.5610         85.5842       -999.0000       -999.0000       -999.0000
 7844.0000          2.5017        177.0614         86.1656       -999.0000       -999.0000       -999.0000
 7844.5000          2.5133        178.2382         86.5877       -999.0000       -999.0000       -999.0000
 7844.9995          2.5360        181.7519         87.6437       -999.0000       -999.0000       -999.0000
 7845.5000          2.5574        182.3210         89.7923       -999.0000       -999.0000       -999.0000
 7846.0000          2.5642        188.1742         90.1304       -999.0000       -999.0000       -999.0000
 7846.5000          2.5514        194.0366         92.5082       -999.0000       -999.0000       -999.0000
 7847.0005          2.5277        197.1994         95.1264       -999.0000       -999.0000       -999.0000
 7847.5000          2.5085        203.1367         95.2185       -999.0000       -999.0000       -999.0000
 7848.0000          2.5019        203.1230         94.1072       -999.0000       -999.0000       -999.0000
 7848.5000          2.5004        200.5956         91.9301       -999.0000       -999.0000       -999.0000
 7848.9995          2.4910        198.3710         90.7944       -999.0000       -999.0000       -999.0000
 7849.5000          2.4773        197.6761         89.9999       -999.0000       -999.0000       -999.0000
 7850.0000          2.4708        195.7832         94.0620       -999.0000       -999.0000       -999.0000
 7850.5000          2.4702        198.3638         97.1762       -999.0000       -999.0000       -999.0000
 7851.0005          2.4743        200.4432         97.2789       -999.0000       -999.0000       -999.0000
