~VERSION INFORMATION 
VERS  .    2.0                                     :CWLS Log ASCII Standard - VERSION 2.0
WRAP  .    NO                                      :One Line per Depth step
#--------------------------------------------------
~WELL INFORMATION 
#MNEM           .UNIT                      DATA            :DESCRIPTION
#----            ------          --------------            -----------------------------
STRT            .ft                   6530.5000            :START DEPTH
STOP            .ft                   7560.0000            :STOP DEPTH
STEP            .ft                         0.5            :STEP
NULL            .                     -999.0000            :NULL VALUE
COMP            .                         PDVSA            :COMPANY
WELL            .                        Well-1            :WELL NAME
FLD             .                       GUAFITA            :FIELD NAME
SRVC            .                       UNKNOWN            :SERVICE COMPANY
DATE            .                       UNKNOWN            :LOG DATE(Composite Date for Composite LAP) (MM/DD/YYYY)
CNTY            .                       UNKNOWN            :COUNTY
STAT            .                       BARINAS            :STATE or PROVINCE
PROV            .                       BARINAS            :STATE or PROVINCE
CTRY            .                     VENEZUELA            :COUNTRY
API             .                                          :API NUMBER
UWI             .                                          :UNIQUE WELL ID
LOC             .                       GUAFITA            :FIELD LOCATION
#--------------------------------------------------
~CURVE INFORMATION
#MNEM           .UNIT                  API CODE            :DESCRIPTION
#----           -------          --------------            -----------------------------
DEPTH           .ft                                        : Depth Index
RHOB            .g/cm3                                     : Density
DTSM            .us/ft                                     : Delta-T Shear
DTCO            .us/ft                                     : Delta-T Compressional
SW              .v/v                                       : Water Saturation
NPHI            .fraction                                  : Neutron Porosity
VSH             .v/v                                       : Shale Volume
#--------------------------------------------------
~PARAMETER INFORMATION
#MNEM           .UNIT                  VALUE               :DESCRIPTION
#----           -------          --------------            -----------------------------
EKB             .ft                   481.00000            :Elevation of Depth Reference (Kelly Bushing)
EGL             .ft                   451.00000            :Elevation of Ground Level
#-------------------------------------------------------------
#  DEPTH             RHOB           DTSM           DTCO             SW              PHI            VSH
~ASCII
# ...
 7123.0005          2.1360       -999.0000       -999.0000          0.9361          0.3092          0.0000
 7123.2495       -999.0000        151.3158         92.8769       -999.0000       -999.0000       -999.0000
 7123.5000          2.1530        152.0903         93.2433          0.9547          0.2995          0.0000
 7123.7505       -999.0000        152.8294         93.9390       -999.0000       -999.0000       -999.0000
 7124.0000          2.1720        153.7500         94.8666          0.9500          0.2986          0.0000
 7124.2495       -999.0000        154.9824         95.8720       -999.0000       -999.0000       -999.0000
 7124.5000          2.1590        156.4866         96.7564          0.9479          0.3018          0.0000
 7124.7505       -999.0000        158.0690         97.3317       -999.0000       -999.0000       -999.0000
 7124.9995          2.1430       -999.0000       -999.0000          0.9701          0.3114          0.0000
 7125.0000       -999.0000        159.3826         97.4828       -999.0000       -999.0000       -999.0000
 7125.2495       -999.0000        160.1692         97.2096       -999.0000       -999.0000       -999.0000
 7125.5000          2.1240        160.4370         96.6642          1.0000          0.3392          0.0000
 7125.7505       -999.0000        160.4037         96.1026       -999.0000       -999.0000       -999.0000
 7126.0000          2.0940        160.3950         95.7458          0.9981          0.3712          0.0307
 7126.2495       -999.0000        160.6653         95.6921       -999.0000       -999.0000       -999.0000
 7126.5000          2.0760        161.1812         95.8116          1.0000          0.3713          0.0782
 7126.7505       -999.0000        161.6037         95.7550       -999.0000       -999.0000       -999.0000
 7127.0000       -999.0000        161.4331         95.1396       -999.0000       -999.0000       -999.0000
 7127.0005          2.1320       -999.0000       -999.0000          1.0000          0.2918          0.1477
 7127.2495       -999.0000        160.2365         93.6732       -999.0000       -999.0000       -999.0000
 7127.5000          2.2370        157.9134         91.3224          1.0000          0.1868          0.2437
 7127.7505       -999.0000        154.8158         88.3647       -999.0000       -999.0000       -999.0000
 7128.0000          2.3260        151.6709         85.2545          1.0000          0.1253          0.3120
 7128.2495       -999.0000        149.2122         82.4896       -999.0000       -999.0000       -999.0000
 7128.5000          2.5020        147.8426         80.4232          1.0000          0.0913          0.3549
 7128.7505       -999.0000        147.4913         79.1663       -999.0000       -999.0000       -999.0000
 7128.9995          2.4970       -999.0000       -999.0000          1.0000          0.0923          0.3839
 7129.0000       -999.0000        147.5727         78.6171       -999.0000       -999.0000       -999.0000
 7129.2495       -999.0000        147.5223         78.5412       -999.0000       -999.0000       -999.0000
 7129.5000          2.5130        147.1165         78.6985          0.9803          0.0898          0.4181
 7129.7505       -999.0000        146.4632         78.9241       -999.0000       -999.0000       -999.0000
 7130.0000          2.5250        146.0795         79.1415          1.0000          0.0909          0.4091
 7130.2495       -999.0000        146.3144         79.3407       -999.0000       -999.0000       -999.0000
 7130.5000          2.5400        147.1279         79.5357          0.9782          0.0866          0.4311
 7130.7505       -999.0000        148.2778         79.7278       -999.0000       -999.0000       -999.0000
 7131.0000       -999.0000        149.2837         79.9072       -999.0000       -999.0000       -999.0000
 7131.0005          2.5580       -999.0000       -999.0000          0.9355          0.0797          0.4590
 7131.2495       -999.0000        149.7834         80.0588       -999.0000       -999.0000       -999.0000
 7131.5000          2.5820        149.6871         80.1652          0.9306          0.0737          0.4671
 7131.7505       -999.0000        149.0060         80.2171       -999.0000       -999.0000       -999.0000
 7132.0000          2.6110        147.8748         80.2057          0.9120          0.0708          0.4758
 7132.2495       -999.0000        146.4913         80.1216       -999.0000       -999.0000       -999.0000
 7132.5000          2.6390        145.0445         79.9597          0.9165          0.0763          0.4607
 7132.7505       -999.0000        143.7508         79.7242       -999.0000       -999.0000       -999.0000
 7132.9995          2.6360       -999.0000       -999.0000          0.8879          0.0912          0.4572
 7133.0000       -999.0000        142.8021         79.4324       -999.0000       -999.0000       -999.0000
 7133.2495       -999.0000        142.3133         79.1125       -999.0000       -999.0000       -999.0000
 7133.5000          2.6290        142.2821         78.8017          0.8811          0.0945          0.4445
 7133.7505       -999.0000        142.6143         78.5390       -999.0000       -999.0000       -999.0000
 7134.0000          2.6320        143.1844         78.3638          0.9274          0.0984          0.4016
 7134.2495       -999.0000        143.8531         78.3180       -999.0000       -999.0000       -999.0000
 7134.5000          2.6300        144.5836         78.4378          0.9245          0.0985          0.3958
 7134.7505       -999.0000        145.3831         78.7485       -999.0000       -999.0000       -999.0000
 7135.0000       -999.0000        146.2469         79.2634       -999.0000       -999.0000       -999.0000
 7135.0005          2.6020       -999.0000       -999.0000          0.8608          0.0959          0.4404
 7135.2495       -999.0000        147.1564         79.9790       -999.0000       -999.0000       -999.0000
 7135.5000          2.5650        147.9238         80.8886          0.8544          0.1015          0.4578
 7135.7505       -999.0000        148.3436         81.9922       -999.0000       -999.0000       -999.0000
 7136.0000          2.4930        148.2771         83.2899          0.8949          0.1218          0.4265
 7136.2495       -999.0000        147.7012         84.7791       -999.0000       -999.0000       -999.0000
 7136.5000          2.4280        146.8784         86.4285          0.9134          0.1329          0.3999
 7136.7505       -999.0000        146.1139         88.1205       -999.0000       -999.0000       -999.0000
 7136.9995          2.4160       -999.0000       -999.0000          0.9682          0.1432          0.3604
 7137.0000       -999.0000        145.6656         89.6417       -999.0000       -999.0000       -999.0000
 7137.2495       -999.0000        145.6001         90.7019       -999.0000       -999.0000       -999.0000
 7137.5000          2.4420        145.5421         90.9647          1.0000          0.1389          0.3390
 7137.7505       -999.0000        145.0503         90.2155       -999.0000       -999.0000       -999.0000
 7138.0000          2.4990        143.6838         88.4556          1.0000          0.1298          0.3286
 7138.2495       -999.0000        141.3860         85.8983       -999.0000       -999.0000       -999.0000
 7138.5000          2.5510        138.8275         82.9886          1.0000          0.1136          0.3529
 7138.7505       -999.0000        136.8713         80.2523       -999.0000       -999.0000       -999.0000
 7139.0000       -999.0000        136.4494         78.1123       -999.0000       -999.0000       -999.0000
 7139.0005          2.5660       -999.0000       -999.0000          0.9439          0.0992          0.3772
 7139.2495       -999.0000        137.8703         76.8476       -999.0000       -999.0000       -999.0000
 7139.5000          2.5910        140.6173         76.5171          0.9372          0.0953          0.3726
