~Version Information
VERS  .          2.0                              :CWLS Log Ascii Standard - Version 2.0
WRAP  .          NO                               :One line per depth step
~Well Information Block
#MNEM.UNIT       Data Type                        Information
#---------       ---------                        -------------------------------
STRT  .F         9850.00000                       :START DEPTH
STOP  .F         1453.50000                       :STOP DEPTH
STEP  .F         -0.50000                         :INCREMENT
NULL  .          -999.25                          :NULL DATA VALUE
COMP  .          ************                     :COMPANY
WELL  .          *******                          :WELL
FLD   .          ******                           :FIELD
LOC   .                                           :LOCATION
PROV  .                                           :PROVINCE
STAT  .                                           :STATE
CNTY  .                                           :COUNTY
CTRY  .                                           :COUNTRY
DATE  .                                           :DATE
UWI   .          ********                         :UNIQUE WELL UWI
LIC   .                                           :LICENSE NUMBER
API   .                                           :API NUMBER
SRVC  .          *****                            :SERVICE COMPANY
~Parameter Information Block
#MNEM.UNIT       Value                            Description
#---------       ---------                        -------------
~Curve Information Block
#MNEM.UNIT       API Code            Curve    Description
#--------        --------------      -----    -------------------
DEPT  .F                             :0       Index
CAL   .                              :1       Calibration Curve             
GR    .GAPI                          :2       Gamma Ray                     
NPHI  .V/V                           :3       Thermal Neutron Porosity (original Ratio Method) in Selected Lithology
RESD  .                              :4       Added by gf35 using QCTool    
RESS  .OHMM                          :5       Added by conefrem using QCTool 
RHOB  .G/C3                          :6       Bulk Density                  
SP    .MV                            :7       Spontaneous Potential         
~Ascii Data Section
# ...
   9246.50000      10.14269      61.28350       0.31431      10.90000       9.79500       2.51059     -96.40000 
   9246.00000      10.05283      61.28350       0.30917      11.10000      10.51000       2.50805     -96.80000 
   9245.50000       9.99271      61.28350       0.28319      12.45000      11.44500       2.49565     -97.20000 
   9245.00000       9.94271      61.28350       0.25011      13.80000      12.38000       2.47990     -97.60000 
   9244.50000       9.91881      61.28350       0.23697      14.60000      13.62000       2.46505     -98.00000 
   9244.00000       9.90381      61.28350       0.23062      15.40000      14.86000       2.45050     -98.40000 
   9243.50000       9.94102      61.28350       0.22820      15.25000      15.42500       2.45094     -98.40000 
   9243.00000       9.99602      61.28350       0.22712      15.10000      15.99000       2.45649     -98.40000 
   9242.50000      10.02492      61.28350       0.23078      14.80000      15.29000       2.47159     -98.40000 
   9242.00000      10.04492      53.12208       0.23605      14.50000      14.59000       2.48994     -98.40000 
   9241.50000      10.02390      53.12208       0.23936      14.40000      15.58500       2.48927     -98.00000 
   9241.00000       9.98895      61.28350       0.24199      14.30000      16.58000       2.48213     -97.60000 
   9240.50000       9.96141      61.28350       0.24026      13.90000      16.00000       2.46591     -97.60000 
   9240.00000       9.93641      62.94914       0.23702      13.50000      15.42000       2.44656     -97.60000 
   9239.50000       9.95975      62.94914       0.23280      13.05000      14.49500       2.44796     -96.80000 
   9239.00000       9.99975      62.94914       0.22825      12.60000      13.57000       2.45651     -96.00000 
   9238.50000      10.11412      62.94914       0.22405      12.05000      12.64500       2.49146     -96.00000 
   9238.00000      10.25412      62.94914       0.21998      11.50000      11.72000       2.53551     -96.00000 
   9237.50000      10.29372      62.94914       0.21991      10.45000      11.46000       2.55643     -95.60000 
   9237.00000      10.29872      62.94914       0.22123       9.40000      11.20000       2.56938     -95.20000 
   9236.50000      10.33719      62.94914       0.22621       8.65000      10.76000       2.56649     -95.20000 
   9236.00000      10.38711      61.28350       0.23243       7.90000      10.32000       2.55815     -95.20000 
   9235.50000      10.43708      53.12208       0.23928       7.65000       9.15500       2.55170     -95.20000 
   9235.00000      10.48708      36.40455       0.24635       7.40000       7.99000       2.54590     -95.20000 
   9234.50000      10.40358      36.40455       0.24569       6.95000       7.14500       2.50717     -96.39999 
   9234.00000      10.27358      27.62294       0.24233       6.50000       6.30000       2.45697     -97.60000 
   9233.50000      10.15471      27.62294       0.23347       6.50000       6.30000       2.40703     -98.39999 
   9233.00000      10.03971      27.62294       0.22268       6.50000       6.30000       2.35718     -99.20000 
   9232.50000       9.96550      27.62294       0.21856       6.70000       6.47500       2.32613     -99.60000 
   9232.00000       9.90550      27.62294       0.21676       6.90000       6.65000       2.30163    -100.00000 
   9231.50000       9.88629      27.62294       0.21674       7.00000       7.32000       2.29411    -100.75000 
   9231.00000       9.88130      27.62294       0.21734       7.10000       7.99000       2.29252    -101.50000 
   9230.50000       9.87630      27.62294       0.21484       7.15000       8.06000       2.29284    -101.50000 
   9230.00000       9.87130      31.32243       0.21124       7.20000       8.13000       2.29384    -101.50000 
   9229.50000       9.87740      31.32243       0.21270       7.10000       7.64500       2.28852    -101.50000 
   9229.00000       9.88740      31.32243       0.21593       7.00000       7.16000       2.28097    -101.50000 
   9228.50000       9.89000      27.62294       0.22342       7.00000       6.84500       2.26987    -101.90000 
   9228.00000       9.89000      27.62294       0.23241       7.00000       6.53000       2.25752    -102.30000 
   9227.50000       9.89000      27.62294       0.24796       7.00000       6.59000       2.25593    -102.30000 
   9227.00000       9.89000      27.62294       0.26582       7.00000       6.65000       2.25813    -102.30000 
   9226.50000       9.89000      27.62294       0.26196       6.95000       7.17500       2.27253    -102.30000 
   9226.00000       9.89000      27.62294       0.25047       6.90000       7.70000       2.29120    -102.30000 
   9225.50000       9.89000      27.62294       0.23659       6.75000       8.14500       2.30289    -102.30000 
   9225.00000       9.89000      27.62294       0.22184       6.60000       8.59000       2.31209    -102.30000 
   9224.50000       9.89000      27.62294       0.22098       6.50000       7.74500       2.30624    -101.90000 
   9224.00000       9.89000      27.62294       0.22506       6.40000       6.90000       2.29504    -101.50000 
   9223.50000       9.90106      27.62294       0.23001       6.15000       6.54000       2.28506    -101.50000 
   9223.00000       9.91606      27.62294       0.23529       5.90000       6.18000       2.27551    -101.50000 
   9222.50000       9.90156      27.62294       0.23685       5.85000       6.12500       2.27315    -101.10000 
   9222.00000       9.87656      27.62294       0.23709       5.80000       6.07000       2.27335    -100.70000 
   9221.50000       9.87737      27.62294       0.23397       5.85000       6.12500       2.27384    -100.70000 
   9221.00000       9.88736      27.62294       0.22966       5.90000       6.18000       2.27444    -100.70000 
   9220.50000       9.89000      27.62294       0.23522       6.10000       6.30000       2.27666    -101.10000 
   9220.00000       9.89000      27.62294       0.24433       6.30000       6.42000       2.27946    -101.50000 
   9219.50000       9.90103      27.62294       0.25097       6.50000       6.60000       2.28285    -101.50000 
   9219.00000       9.91603      27.62294       0.25672       6.70000       6.78000       2.28645    -101.50000 
   9218.50000       9.90897      27.62294       0.26309       6.85000       7.03500       2.29148    -101.50000 
   9218.00000       9.89397      27.62294       0.26968       7.00000       7.29000       2.29703    -101.50000 
   9217.50000       9.89000      27.62294       0.26490       7.00000       7.42500       2.30306    -101.90000 
   9217.00000       9.89000      27.62294       0.25604       7.00000       7.56000       2.30926    -102.30000 
   9216.50000       9.89735      27.62294       0.26004       6.95000       7.56000       2.30899    -102.30000 
   9216.00000       9.90734      27.62294       0.26865       6.90000       7.56000       2.30639    -102.30000 
   9215.50000       9.90267      27.62294       0.27789       6.90000       7.49000       2.29752    -101.90000 
   9215.00000       9.89267      27.62294       0.28736       6.90000       7.42000       2.28637    -101.50000 
   9214.50000       9.88633      27.62294       0.28470       6.80000       7.29000       2.27592    -101.10000 
   9214.00000       9.88133      27.62294       0.27763       6.70000       7.16000       2.26572    -100.70000 
   9213.50000       9.88733      27.62294       0.26458       6.70000       7.03000       2.26315    -100.70000 
   9213.00000       9.89733      27.62294       0.24936       6.70000       6.90000       2.26335    -100.70000 
   9212.50000       9.90733      27.62294       0.24934       6.65000       6.84000       2.27176    -100.35000 
   9212.00000       9.91733      27.62294       0.25486       6.60000       6.78000       2.28316    -100.00000 
   9211.50000       9.90536      27.62294       0.26220       6.60000       6.84000       2.29012    -100.00000 
