~VERSION INFORMATION 
VERS  .    2.0                                     :CWLS Log ASCII Standard - VERSION 2.0
WRAP  .    NO                                      :One Line per Depth step
#--------------------------------------------------
~WELL INFORMATION 
#MNEM           .UNIT                      DATA            :DESCRIPTION
#----            ------          --------------            -----------------------------
STRT            .ft                   6530.5000            :START DEPTH
STOP            .ft                   7560.0000            :STOP DEPTH
STEP            .ft                         0.5            :STEP
NULL            .                     -999.0000            :NULL VALUE
COMP            .                         PDVSA            :COMPANY
WELL            .                        Well-1            :WELL NAME
FLD             .                       GUAFITA            :FIELD NAME
SRVC            .                       UNKNOWN            :SERVICE COMPANY
DATE            .                       UNKNOWN            :LOG DATE(Composite Date for Composite LAP) (MM/DD/YYYY)
CNTY            .                       UNKNOWN            :COUNTY
STAT            .                       BARINAS            :STATE or PROVINCE
PROV            .                       BARINAS            :STATE or PROVINCE
CTRY            .                     VENEZUELA            :COUNTRY
API             .                                          :API NUMBER
UWI             .                                          :UNIQUE WELL ID
LOC             .                       GUAFITA            :FIELD LOCATION
#--------------------------------------------------
~CURVE INFORMATION
#MNEM           .UNIT                  API CODE            :DESCRIPTION
#----           -------          --------------            -----------------------------
DEPTH           .ft                                        : Depth Index
RHOB            .g/cm3                                     : Density
DTSM            .us/ft                                     : Delta-T Shear
DTCO            .us/ft                                     : Delta-T Compressional
SW              .v/v                                       : Water Saturation
NPHI            .fraction                                  : Neutron Porosity
VSH             .v/v                                       : Shale Volume
#--------------------------------------------------
~PARAMETER INFORMATION
#MNEM           .UNIT                  VALUE               :DESCRIPTION
#----           -------          --------------            -----------------------------
EKB             .ft                   481.00000            :Elevation of Depth Reference (Kelly Bushing)
EGL             .ft                   451.00000            :Elevation of Ground Level
#-------------------------------------------------------------
#  DEPTH             RHOB           DTSM           DTCO             SW              PHI            VSH
~ASCII
# ...
 7389.7505       -999.0000        172.3355         97.4902       -999.0000       -999.0000       -999.0000
 7390.0000          2.1780        174.1118         97.3308          0.1078          0.2978          0.0501
 7390.2495       -999.0000        175.4601         97.1470       -999.0000       -999.0000       -999.0000
 7390.5000          2.1790        176.0339         96.9357          0.0677          0.2902          0.0698
 7390.7505       -999.0000        175.8790         96.7056       -999.0000       -999.0000       -999.0000
 7391.0000       -999.0000        175.2211         96.4825       -999.0000       -999.0000       -999.0000
 7391.0005          2.1590       -999.0000       -999.0000          0.0491          0.2879          0.0767
 7391.2495       -999.0000        174.3775         96.3104       -999.0000       -999.0000       -999.0000
 7391.5000          2.1650        173.5207         96.2428          0.0275          0.2841          0.0956
 7391.7505       -999.0000        172.4734         96.3201       -999.0000       -999.0000       -999.0000
 7392.0000          2.1530        171.0847         96.5460          0.0158          0.2914          0.0933
 7392.2495       -999.0000        169.2965         96.8764       -999.0000       -999.0000       -999.0000
 7392.5000          2.1380        167.1828         97.2246          0.0079          0.2970          0.0828
 7392.7505       -999.0000        165.1599         97.4920       -999.0000       -999.0000       -999.0000
 7392.9995          2.1130       -999.0000       -999.0000          0.0042          0.3065          0.0846
 7393.0000       -999.0000        163.5623         97.6122       -999.0000       -999.0000       -999.0000
 7393.2495       -999.0000        162.6241         97.5792       -999.0000       -999.0000       -999.0000
 7393.5000          2.1150        162.5068         97.4577          0.0091          0.3013          0.0672
 7393.7505       -999.0000        163.1586         97.3553       -999.0000       -999.0000       -999.0000
 7394.0000          2.1210        164.5150         97.3766          0.0211          0.2975          0.0660
 7394.2495       -999.0000        166.4752         97.5865       -999.0000       -999.0000       -999.0000
 7394.5000          2.1360        168.8895         97.9857          0.0376          0.2896          0.0631
 7394.7505       -999.0000        171.5183         98.5241       -999.0000       -999.0000       -999.0000
 7395.0000       -999.0000        174.1351         99.1252       -999.0000       -999.0000       -999.0000
 7395.0005          2.1630       -999.0000       -999.0000          0.0401          0.2775          0.0793
 7395.2495       -999.0000        176.5575         99.7072       -999.0000       -999.0000       -999.0000
 7395.5000          2.1690        178.5213        100.1982          0.0459          0.2783          0.0741
 7395.7505       -999.0000        179.7852        100.5331       -999.0000       -999.0000       -999.0000
 7396.0000          2.1460        179.9659        100.6536          0.0481          0.2935          0.0695
 7396.2495       -999.0000        178.5446        100.5162       -999.0000       -999.0000       -999.0000
 7396.5000          2.1270        175.4338        100.1076          0.0618          0.3154          0.0504
 7396.7505       -999.0000        170.9903         99.4570       -999.0000       -999.0000       -999.0000
 7396.9995          2.1090       -999.0000       -999.0000          0.0690          0.3294          0.0434
 7397.0000       -999.0000        166.0530         98.6425       -999.0000       -999.0000       -999.0000
 7397.2495       -999.0000        161.9237         97.7886       -999.0000       -999.0000       -999.0000
 7397.5000          2.0860        159.4297         97.0398          0.0629          0.3291          0.0504
 7397.7505       -999.0000        158.8584         96.5409       -999.0000       -999.0000       -999.0000
 7398.0000          2.0890        160.0014         96.3977          0.0544          0.3211          0.0620
 7398.2495       -999.0000        162.1129         96.6433       -999.0000       -999.0000       -999.0000
 7398.5000          2.1050        164.6671         97.2331          0.0483          0.3029          0.0689
 7398.7505       -999.0000        167.3550         98.0504       -999.0000       -999.0000       -999.0000
 7399.0000       -999.0000        170.0061         98.9468       -999.0000       -999.0000       -999.0000
 7399.0005          2.1440       -999.0000       -999.0000          0.0417          0.2971          0.0660
 7399.2495       -999.0000        172.7144         99.7820       -999.0000       -999.0000       -999.0000
 7399.5000          2.1280        175.4532        100.4531          0.0334          0.3066          0.0533
 7399.7505       -999.0000        178.1016        100.9070       -999.0000       -999.0000       -999.0000
 7400.0000          2.1160        180.5631        101.1342          0.0237          0.3164          0.0428
 7400.2495       -999.0000        182.5936        101.1593       -999.0000       -999.0000       -999.0000
 7400.5000          2.1410        184.0299        101.0214          0.0257          0.3293          0.0344
 7400.7505       -999.0000        184.8069        100.7653       -999.0000       -999.0000       -999.0000
 7400.9995          2.1210       -999.0000       -999.0000          0.0312          0.3334          0.0460
 7401.0000       -999.0000        184.8876        100.4303       -999.0000       -999.0000       -999.0000
 7401.2495       -999.0000        184.4247        100.0486       -999.0000       -999.0000       -999.0000
 7401.5000          2.1180        183.6248         99.6534          0.0442          0.3237          0.0524
 7401.7505       -999.0000        182.7045         99.2770       -999.0000       -999.0000       -999.0000
 7402.0000          2.1280        181.8896         98.9532          0.0514          0.3061          0.0654
 7402.2495       -999.0000        181.3213         98.7100       -999.0000       -999.0000       -999.0000
 7402.5000          2.1300        181.0774         98.5652          0.0667          0.3028          0.0643
 7402.7505       -999.0000        181.2299         98.5288       -999.0000       -999.0000       -999.0000
 7403.0000       -999.0000        181.7567         98.6047       -999.0000       -999.0000       -999.0000
 7403.0005          2.1310       -999.0000       -999.0000          0.0808          0.2931          0.0605
 7403.2495       -999.0000        182.5584         98.7921       -999.0000       -999.0000       -999.0000
 7403.5000          2.1590        183.4890         99.0754          0.0792          0.2930          0.0651
 7403.7505       -999.0000        184.2877         99.4096       -999.0000       -999.0000       -999.0000
 7404.0000          2.1350        184.7718         99.7209          0.0868          0.3090          0.0582
 7404.2495       -999.0000        184.8462         99.9125       -999.0000       -999.0000       -999.0000
 7404.5000          2.1240        184.4921         99.8902          0.0789          0.3149          0.0585
 7404.7505       -999.0000        183.8224         99.5977       -999.0000       -999.0000       -999.0000
 7404.9995          2.1210       -999.0000       -999.0000          0.0879          0.3177          0.0585
 7405.0000       -999.0000        182.9653         99.0218       -999.0000       -999.0000       -999.0000
 7405.2495       -999.0000        182.0776         98.1989       -999.0000       -999.0000       -999.0000
 7405.5000          2.1250        181.2882         97.1971          0.1070          0.3137          0.0765
 7405.7505       -999.0000        180.6606         96.0791       -999.0000       -999.0000       -999.0000
 7406.0000          2.1060        180.1617         94.9039          0.1439          0.3133          0.1014
 7406.2495       -999.0000        179.6246         93.7139       -999.0000       -999.0000       -999.0000
