~Version Information
VERS  .          2.0                              :CWLS Log Ascii Standard - Version 2.0
WRAP  .          NO                               :One line per depth step
~Well Information Block
#MNEM.UNIT       Data Type                        Information
#---------       ---------                        -------------------------------
STRT  .F         9346.00000                       :START DEPTH
STOP  .F         2030.00000                       :STOP DEPTH
STEP  .F         -0.50000                         :INCREMENT
NULL  .          -999.25                          :NULL DATA VALUE
COMP  .          ************                     :COMPANY
WELL  .          ********                         :WELL
FLD   .          ******                           :FIELD
LOC   .                                           :LOCATION
PROV  .                                           :PROVINCE
STAT  .                                           :STATE
CNTY  .                                           :COUNTY
CTRY  .          ************                     :COUNTRY
DATE  .                                           :DATE
UWI   .          ********                         :UNIQUE WELL UWI
LIC   .                                           :LICENSE NUMBER
API   .                                           :API NUMBER
SRVC  .          *****                            :SERVICE COMPANY
~Parameter Information Block
#MNEM.UNIT       Value                            Description
#---------       ---------                        -------------
~Curve Information Block
#MNEM.UNIT       API Code            Curve    Description
#--------        --------------      -----    -------------------
DEPT  .F                             :0       Index
CAL   .                              :1       Calibration Curve             
ASN   .OHMM                          :2       Amplified Short Normal        
I6FR  .OHMM                          :3       I6FR - Deep Induction Log - PDVSA
DPHI  .V/V                           :4       Density Porosity              
GR    .GAPI                          :5       Gamma Ray                     
NPHI  .V/V                           :6       Thermal Neutron Porosity (original Ratio Method) in Selected Lithology
SP    .MV                            :7       Spontaneous Potential         
~Ascii Data Section
# ...
   8032.50000      12.16000       7.70000       9.00000       0.20315      71.33274       0.33382    -999.25000 
   8032.00000      12.20535       8.30000       9.70000       0.18250      68.60590       0.32487    -999.25000 
   8031.50000      12.27360       8.60000      10.50000       0.15919      72.92133       0.32316    -999.25000 
   8031.00000      12.28000       8.90000      11.30000       0.14205      75.80173       0.31269    -999.25000 
   8030.50000      12.28000       9.00000      11.10000       0.12918      74.13939       0.30123    -999.25000 
   8030.00000      12.28000       9.10000      10.90000       0.13715      72.16566       0.28928    -999.25000 
   8029.50000      12.28000       9.10000      10.60000       0.14667      69.51445       0.28089    -999.25000 
   8029.00000      12.28000       9.10000      10.30000       0.15861      67.73766       0.27805    -999.25000 
   8028.50000      12.30877       9.00000      10.10000       0.16444      67.32207       0.27880    -999.25000 
   8028.00000      12.35427       8.90000       9.90000       0.16671      65.74399       0.28164    -999.25000 
   8027.50000      12.39976       8.80000       9.70000       0.15805      62.83334       0.28349    -999.25000 
   8027.00000      12.44000       8.70000       9.50000       0.14821      62.06277       0.28434    -999.25000 
   8026.50000      12.44000       8.70000       9.30000       0.14138      63.10173       0.27865    -999.25000 
   8026.00000      12.44000       8.70000       9.10000       0.13659      62.85861       0.27439    -999.25000 
   8025.50000      12.44000       8.60000       9.00000       0.13545      61.81926       0.27268    -999.25000 
   8025.00000      12.44000       8.50000       8.90000       0.13602      59.08902       0.27336    -999.25000 
   8024.50000      12.44000       8.30000       8.80000       0.13773      55.60849       0.27564    -999.25000 
   8024.00000      12.45915       8.10000       8.70000       0.13656      55.27909       0.28270    -999.25000 
   8023.50000      12.48000       8.00000       8.70000       0.13488      55.90260       0.29129    -999.25000 
   8023.00000      12.48000       7.90000       8.70000       0.13344      56.35065       0.30668    -999.25000 
   8022.50000      12.48000       7.00000       8.40000       0.13205      56.76623       0.32145    -999.25000 
   8022.00000      12.44446       6.10000       8.10000       0.13778      58.47226       0.33399    -999.25000 
   8021.50000      12.40754       6.00000       7.50000       0.14378      60.29053       0.34646    -999.25000 
   8021.00000      12.37062       5.90000       6.90000       0.13765      64.22749       0.40189    -999.25000 
   8020.50000      12.33369       4.80000       6.30000       0.12842      69.04930       0.46835    -999.25000 
   8020.00000      12.23869       3.70000       5.70000       0.12732      85.51875       0.51739    -999.25000 
   8019.50000      12.10946       3.10000       4.00000       0.13102      99.93333       0.55616    -999.25000 
   8019.00000      12.00585       2.50000       2.30000       0.14068     102.21905       0.58020    -999.25000 
   8018.50000      11.93200       2.30000       2.00000       0.15730     104.32121       0.58713    -999.25000 
   8018.00000      11.88546       2.10000       1.70000       0.16900     105.77617       0.59227    -999.25000 
   8017.50000      11.90392       2.10000       1.60000       0.16900     107.04674       0.59320    -999.25000 
   8017.00000      11.92477       2.10000       1.50000       0.16191     107.87786       0.59400    -999.25000 
   8016.50000      11.96169       2.10000       1.40000       0.10698     108.24538       0.59400    -999.25000 
   8016.00000      11.99862       2.10000       1.30000       0.05206     107.82966       0.59400    -999.25000 
   8015.50000      12.01777       2.20000       1.40000       0.08110     107.41385       0.59311    -999.25000 
   8015.00000      12.03623       2.30000       1.50000       0.11340     106.99827       0.59219    -999.25000 
   8014.50000      12.04000       2.20000       1.50000       0.13983     106.58269       0.59200    -999.25000 
   8014.00000      12.04000       2.10000       1.50000       0.16476     106.16685       0.59200    -999.25000 
   8013.50000      12.04000       2.10000       1.50000       0.18300     103.88420       0.59258    -999.25000 
   8013.00000      12.04000       2.10000       1.50000       0.19731     100.35173       0.59350    -999.25000 
   8012.50000      12.02292       2.00000       1.40000       0.20692      97.83458       0.59336    -999.25000 
   8012.00000      11.98600       1.90000       1.30000       0.21108      95.80704       0.59197    -999.25000 
   8011.50000      11.96000       1.80000       1.30000       0.21100      93.89740       0.58486    -999.25000 
   8011.00000      11.96000       1.70000       1.30000       0.20084      92.02727       0.56409    -999.25000 
   8010.50000      11.95523       1.80000       1.40000       0.19295      92.55714       0.54666    -999.25000 
   8010.00000      11.91831       1.90000       1.50000       0.20034      93.59707       0.55173    -999.25000 
   8009.50000      11.88138       2.00000       1.60000       0.20772      90.89156       0.55681    -999.25000 
   8009.00000      11.86223       2.10000       1.70000       0.19067      87.77467       0.57255    -999.25000 
   8008.50000      11.84377       2.30000       2.20000       0.17267      78.87746       0.58870    -999.25000 
   8008.00000      11.86938       2.50000       2.70000       0.18516      70.09438       0.56115    -999.25000 
   8007.50000      11.90631       3.30000       4.00000       0.20547      66.14632       0.52238    -999.25000 
   8007.00000      11.95485       4.10000       5.30000       0.23100      62.17846       0.46706    -999.25000 
   8006.50000      12.01023       5.50000       6.20000       0.25962      58.07457       0.40198    -999.25000 
   8006.00000      12.04000       6.90000       7.10000       0.28418      53.84366       0.34352    -999.25000 
   8005.50000      12.04000       8.80000       8.60000       0.30402      49.11250       0.29275    -999.25000 
   8005.00000      12.05092      10.70000      10.10000       0.32469      45.70000       0.25017    -999.25000 
   8004.50000      12.08785      10.90000      11.30000       0.34731      45.70000       0.22710    -999.25000 
   8004.00000      12.12000      11.10000      12.50000       0.36289      45.84691       0.20956    -999.25000 
   8003.50000      12.12000      10.85000      12.20000       0.33099      46.26277       0.22944    -999.25000 
   8003.00000      12.12000      10.60000      11.90000       0.29800      46.50000       0.25000    -999.25000 
   8002.50000      12.14000      10.35000      11.30000       0.28700      46.50000       0.26050    -999.25000 
   8002.00000      12.16000      10.10000      10.70000       0.27600      47.45854       0.27100    -999.25000 
   8001.50000      12.16000       9.50000       9.70000       0.27900      49.60854       0.27350    -999.25000 
   8001.00000      12.16000       8.90000       8.70000       0.28200      50.71083       0.27600    -999.25000 
   8000.50000      12.22000       8.00000       7.60000       0.25150      50.51083       0.30100    -999.25000 
   8000.00000      12.28000       7.10000       6.50000       0.22100      50.93500       0.32600    -999.25000 
   7999.50000      12.28000       6.60000       6.30000       0.18950      52.13500       0.34600    -999.25000 
   7999.00000      12.28000       6.10000       6.10000       0.15800      55.54187       0.36600    -999.25000 
   7998.50000      12.28000       5.70000       5.70000       0.15200      61.69187       0.35950    -999.25000 
   7998.00000      12.28000       5.30000       5.30000       0.14600      68.55521       0.35300    -999.25000 
   7997.50000      12.28000       4.60000       4.90000       0.14900      76.30521       0.35550    -999.25000 
