~Version Information
VERS  .          2.0                              :CWLS Log Ascii Standard - Version 2.0
WRAP  .          NO                               :One line per depth step
~Well Information Block
#MNEM.UNIT       Data Type                        Information
#---------       ---------                        -------------------------------
STRT  .F         9346.00000                       :START DEPTH
STOP  .F         2030.00000                       :STOP DEPTH
STEP  .F         -0.50000                         :INCREMENT
NULL  .          -999.25                          :NULL DATA VALUE
COMP  .          ************                     :COMPANY
WELL  .          ********                         :WELL
FLD   .          ******                           :FIELD
LOC   .                                           :LOCATION
PROV  .                                           :PROVINCE
STAT  .                                           :STATE
CNTY  .                                           :COUNTY
CTRY  .          ************                     :COUNTRY
DATE  .                                           :DATE
UWI   .          ********                         :UNIQUE WELL UWI
LIC   .                                           :LICENSE NUMBER
API   .                                           :API NUMBER
SRVC  .          *****                            :SERVICE COMPANY
~Parameter Information Block
#MNEM.UNIT       Value                            Description
#---------       ---------                        -------------
~Curve Information Block
#MNEM.UNIT       API Code            Curve    Description
#--------        --------------      -----    -------------------
DEPT  .F                             :0       Index
CAL   .                              :1       Calibration Curve             
ASN   .OHMM                          :2       Amplified Short Normal        
I6FR  .OHMM                          :3       I6FR - Deep Induction Log - PDVSA
DPHI  .V/V                           :4       Density Porosity              
GR    .GAPI                          :5       Gamma Ray                     
NPHI  .V/V                           :6       Thermal Neutron Porosity (original Ratio Method) in Selected Lithology
SP    .MV                            :7       Spontaneous Potential         
~Ascii Data Section
# ...
   7819.50000      12.86000       5.40000       5.20000       0.06250      51.04667       0.39300    -999.25000 
   7819.00000      12.78000       5.70000       5.50000       0.06500      49.02000       0.37500    -999.25000 
   7818.50000      12.76000       5.90000       5.80000       0.06800      47.22000       0.36300    -999.25000 
   7818.00000      12.74000       6.10000       6.10000       0.07100      44.90000       0.35100    -999.25000 
   7817.50000      12.74000       6.30000       6.30000       0.09050      41.90000       0.34850    -999.25000 
   7817.00000      12.74000       6.50000       6.50000       0.11000      37.96833       0.34600    -999.25000 
   7816.50000      12.72000       6.70000       6.80000       0.11650      32.81833       0.34800    -999.25000 
   7816.00000      12.70000       6.90000       7.10000       0.12300      27.90667       0.35000    -999.25000 
   7815.50000      12.70000       7.10000       7.50000       0.14350      23.30667       0.34850    -999.25000 
   7815.00000      12.70000       7.30000       7.90000       0.16400      20.13667       0.34700    -999.25000 
   7814.50000      12.70000       7.50000       8.10000       0.18050      18.83667       0.34750    -999.25000 
   7814.00000      12.70000       7.70000       8.30000       0.19700      17.79667       0.34800    -999.25000 
   7813.50000      12.62000       7.70000       8.50000       0.20050      17.09667       0.34100    -999.25000 
   7813.00000      12.54000       7.70000       8.70000       0.20400      18.52000       0.33400    -999.25000 
   7812.50000      12.54000       7.70000       8.80000       0.20200      22.72000       0.33100    -999.25000 
   7812.00000      12.54000       7.70000       8.90000       0.20000      24.32000       0.32800    -999.25000 
   7811.50000      12.54000       7.70000       9.00000       0.19200      22.52000       0.32850    -999.25000 
   7811.00000      12.54000       7.70000       9.10000       0.18400      20.98000       0.32900    -999.25000 
   7810.50000      12.52000       7.70000       9.10000       0.18100      19.78000       0.33050    -999.25000 
   7810.00000      12.50000       7.70000       9.10000       0.17800      18.84000       0.33200    -999.25000 
   7809.50000      12.50000       7.60000       9.00000       0.17250      18.24000       0.32900    -999.25000 
   7809.00000      12.50000       7.50000       8.90000       0.16700      21.54000       0.32600    -999.25000 
   7808.50000      12.54000       7.20000       8.80000       0.16800      29.94000       0.32150    -999.25000 
   7808.00000      12.58000       6.90000       8.70000       0.16900      34.09333       0.31700    -999.25000 
   7807.50000      12.60000       6.80000       8.30000       0.16800      32.69333       0.31650    -999.25000 
   7807.00000      12.62000       6.70000       7.90000       0.16700      31.55333       0.31600    -999.25000 
   7806.50000      12.62000       6.40000       7.40000       0.15950      30.75333       0.31500    -999.25000 
   7806.00000      12.62000       6.10000       6.90000       0.15200      30.90667       0.31400    -999.25000 
   7805.50000      12.66000       5.70000       6.50000       0.14900      32.30603       0.30800    -999.25000 
   7805.00000      12.70000       5.30000       6.10000       0.14600      34.11588       0.30200    -999.25000 
   7804.50000      12.78000       5.00000       5.70000       0.14300      36.46589       0.29850    -999.25000 
   7804.00000      12.86000       4.70000       5.30000       0.14000      40.22083       0.29500    -999.25000 
   7803.50000      12.86000       4.30000       4.70000       0.12950      45.82084       0.29000    -999.25000 
   7803.00000      12.86000       3.90000       4.10000       0.11900      49.77813       0.28500    -999.25000 
   7802.50000      12.86000       3.70000       3.60000       0.12050      51.57812       0.31350    -999.25000 
   7802.00000      12.86000       3.50000       3.10000       0.12200      52.77291       0.34200    -999.25000 
   7801.50000      12.93500       3.50000       2.90000       0.12550      53.17292       0.37250    -999.25000 
   7801.00000      13.01000       3.50000       2.70000       0.12900      52.01667       0.40300    -999.25000 
   7800.50000      13.01000       3.50000       2.50000       0.13350      48.81667       0.42700    -999.25000 
   7800.00000      13.01000       3.50000       2.30000       0.13800      45.87604       0.45100    -999.25000 
   7799.50000    -999.25000       3.20000       2.30000    -999.25000      43.27604    -999.25000    -999.25000 
   7799.00000    -999.25000       2.90000       2.30000    -999.25000      41.97292    -999.25000    -999.25000 
   7798.50000    -999.25000       2.90000       2.30000    -999.25000      42.37291    -999.25000    -999.25000 
   7798.00000    -999.25000       2.90000       2.30000    -999.25000      43.72396    -999.25000    -999.25000 
   7797.50000    -999.25000       2.90000       2.30000    -999.25000      46.32396    -999.25000    -999.25000 
   7797.00000    -999.25000       2.90000       2.30000    -999.25000      48.92396    -999.25000    -999.25000 
   7796.50000    -999.25000       2.90000       2.20000    -999.25000      51.52396    -999.25000    -999.25000 
   7796.00000    -999.25000       2.90000       2.10000    -999.25000      52.22187    -999.25000    -999.25000 
   7795.50000    -999.25000       2.80000       2.00000    -999.25000      50.42188    -999.25000    -999.25000 
   7795.00000    -999.25000       2.70000       1.90000    -999.25000      48.88125    -999.25000    -999.25000 
   7794.50000    -999.25000       2.60000       1.70000    -999.25000      47.68125    -999.25000    -999.25000 
   7794.00000    -999.25000       2.50000       1.50000    -999.25000      50.35026    -999.25000    -999.25000 
   7793.50000    -999.25000       2.50000       1.50000    -999.25000      58.10026    -999.25000    -999.25000 
   7793.00000    -999.25000       2.50000       1.50000    -999.25000      61.65703    -999.25000    -999.25000 
   7792.50000    -999.25000       2.50000       1.50000    -999.25000      59.70703    -999.25000    -999.25000 
   7792.00000    -999.25000       2.50000       1.50000    -999.25000      57.73542    -999.25000    -999.25000 
   7791.50000    -999.25000       2.50000       1.60000    -999.25000      55.73542    -999.25000    -999.25000 
   7791.00000    -999.25000       2.50000       1.70000    -999.25000      51.40104    -999.25000    -999.25000 
   7790.50000    -999.25000       2.60000       2.00000    -999.25000      44.00104    -999.25000    -999.25000 
   7790.00000    -999.25000       2.70000       2.30000    -999.25000      37.83512    -999.25000    -999.25000 
   7789.50000    -999.25000       2.90000       3.00000    -999.25000      33.28781    -999.25000    -999.25000 
   7789.00000    -999.25000       3.10000       3.70000    -999.25000      28.54375    -999.25000    -999.25000 
   7788.50000    -999.25000       3.50000       4.30000    -999.25000      23.54375    -999.25000    -999.25000 
   7788.00000    -999.25000       3.90000       4.90000    -999.25000      20.26875    -999.25000    -999.25000 
   7787.50000    -999.25000       4.20000       5.70000    -999.25000      19.26875    -999.25000    -999.25000 
   7787.00000    -999.25000       4.50000       6.50000    -999.25000      21.54625    -999.25000    -999.25000 
   7786.50000    -999.25000       5.00000       6.60000    -999.25000      28.14625    -999.25000    -999.25000 
   7786.00000    -999.25000       5.50000       6.70000    -999.25000      32.65469    -999.25000    -999.25000 
   7785.50000    -999.25000       5.70000       6.70000    -999.25000      34.40469    -999.25000    -999.25000 
   7785.00000    -999.25000       5.90000       6.70000    -999.25000      34.30031    -999.25000    -999.25000 
   7784.50000    -999.25000       6.00000       6.70000    -999.25000      31.75031    -999.25000    -999.25000 
