~Version Information
VERS  .          2.0                              :CWLS Log Ascii Standard - Version 2.0
WRAP  .          NO                               :One line per depth step
~Well Information Block
#MNEM.UNIT       Data Type                        Information
#---------       ---------                        -------------------------------
STRT  .F         9346.00000                       :START DEPTH
STOP  .F         2030.00000                       :STOP DEPTH
STEP  .F         -0.50000                         :INCREMENT
NULL  .          -999.25                          :NULL DATA VALUE
COMP  .          ************                     :COMPANY
WELL  .          ********                         :WELL
FLD   .          ******                           :FIELD
LOC   .                                           :LOCATION
PROV  .                                           :PROVINCE
STAT  .                                           :STATE
CNTY  .                                           :COUNTY
CTRY  .          ************                     :COUNTRY
DATE  .                                           :DATE
UWI   .          ********                         :UNIQUE WELL UWI
LIC   .                                           :LICENSE NUMBER
API   .                                           :API NUMBER
SRVC  .          *****                            :SERVICE COMPANY
~Parameter Information Block
#MNEM.UNIT       Value                            Description
#---------       ---------                        -------------
~Curve Information Block
#MNEM.UNIT       API Code            Curve    Description
#--------        --------------      -----    -------------------
DEPT  .F                             :0       Index
CAL   .                              :1       Calibration Curve             
ASN   .OHMM                          :2       Amplified Short Normal        
I6FR  .OHMM                          :3       I6FR - Deep Induction Log - PDVSA
DPHI  .V/V                           :4       Density Porosity              
GR    .GAPI                          :5       Gamma Ray                     
NPHI  .V/V                           :6       Thermal Neutron Porosity (original Ratio Method) in Selected Lithology
SP    .MV                            :7       Spontaneous Potential         
~Ascii Data Section
# ...
   8529.50000      12.72550       4.60000       3.40000       0.14200      87.45908       0.46263    -999.25000 
   8529.00000      12.66554       4.30000       3.30000       0.14200      91.84538       0.47762    -999.25000 
   8528.50000      12.67444       4.30000       3.30000       0.14659      94.34274       0.48802    -999.25000 
   8528.00000      12.73444       4.30000       3.30000       0.15459      93.94424       0.49502    -999.25000 
   8527.50000      12.63660       4.40000       3.40000       0.15398      91.86510       0.48824    -999.25000 
   8527.00000      12.42160       4.50000       3.50000       0.14698      87.12991       0.47124    -999.25000 
   8526.50000      12.24965       4.50000       3.60000       0.14343      83.66792       0.44075    -999.25000 
   8526.00000      12.10965       4.50000       3.70000       0.14243      82.27228       0.40025    -999.25000 
   8525.50000      12.03852       4.70000       3.80000       0.14946      80.65311       0.37095    -999.25000 
   8525.00000      12.01852       4.90000       3.90000       0.16246      78.66064       0.34995    -999.25000 
   8524.50000      11.99852       5.30000       4.30000       0.16197      77.18006       0.34617    -999.25000 
   8524.00000      11.97852       5.70000       4.70000       0.15147      76.58193       0.35517    -999.25000 
   8523.50000      11.93556       5.90000       5.10000       0.15102      75.76760       0.36359    -999.25000 
   8523.00000      11.87556       6.10000       5.50000       0.15802      74.57178       0.37159    -999.25000 
   8522.50000      11.86148       6.50000       5.80000       0.16559      75.75951       0.36381    -999.25000 
   8522.00000      11.88148       6.90000       6.10000       0.17359      81.29221       0.34431    -999.25000 
   8521.50000      11.92444       7.00000       6.60000       0.17470      84.63988       0.32825    -999.25000 
   8521.00000      11.98444       7.10000       7.10000       0.17070      83.89221       0.31475    -999.25000 
   8520.50000      12.04444       7.80000       7.40000       0.16728      82.03759       0.31072    -999.25000 
   8520.00000      12.10444       8.50000       7.70000       0.16428      78.05145       0.31372    -999.25000 
   8519.50000      12.16444       8.50000       7.80000       0.15841      73.68333       0.32992    -999.25000 
   8519.00000      12.22444       8.50000       7.90000       0.15041      68.54938       0.35592    -999.25000 
   8518.50000      12.21556       8.50000       7.80000       0.14270      67.24252       0.37733    -999.25000 
   8518.00000      12.15556       8.50000       7.70000       0.13520      73.77211       0.39533    -999.25000 
   8517.50000      12.16444       7.60000       7.10000       0.13774      79.46613       0.41017    -999.25000 
   8517.00000      12.22444       6.70000       6.50000       0.14774      83.40103       0.42267    -999.25000 
   8516.50000      12.20408       6.20000       5.70000       0.14970      86.66448       0.42657    -999.25000 
   8516.00000      12.12413       5.70000       4.90000       0.14571      88.45887       0.42407    -999.25000 
   8515.50000      12.06708       5.20000       4.30000       0.13970      90.56064       0.41584    -999.25000 
   8515.00000      12.02708       4.70000       3.70000       0.13220      93.35192       0.40334    -999.25000 
   8514.50000      12.03292       4.90000       3.90000       0.13330      93.73569       0.38224    -999.25000 
   8514.00000      12.07292       5.10000       4.10000       0.14080      88.55566       0.35474    -999.25000 
   8513.50000      12.09000       5.20000       4.20000       0.14142      85.07632       0.33670    -999.25000 
   8513.00000      12.09000       5.30000       4.30000       0.13692      85.67445       0.32570    -999.25000 
   8512.50000      12.13583       5.80000       4.60000       0.13042      86.73281       0.32358    -999.25000 
   8512.00000      12.21583       6.30000       4.90000       0.12242      88.92596       0.32808    -999.25000 
   8511.50000      12.27292       6.30000       5.20000       0.11556      89.88154       0.33544    -999.25000 
   8511.00000      12.31292       6.30000       5.50000       0.10956      87.69003       0.34494    -999.25000 
   8510.50000      12.33000       6.30000       5.50000       0.11388      86.70312       0.35444    -999.25000 
   8510.00000      12.33000       6.30000       5.50000       0.12587      88.89626       0.36394    -999.25000 
   8509.50000      12.35005       6.20000       5.40000       0.13644      91.55826       0.36943    -999.25000 
   8509.00000      12.38505       6.10000       5.30000       0.14594      95.49487       0.37193    -999.25000 
   8508.50000      12.43437       5.90000       5.10000       0.14628      96.74491       0.37902    -999.25000 
   8508.00000      12.49438       5.70000       4.90000       0.13978      90.41470       0.38952    -999.25000 
   8507.50000      12.50854       5.60000       4.80000       0.13213      86.20882       0.39944    -999.25000 
   8507.00000      12.48854       5.50000       4.70000       0.12363      88.20259       0.40894    -999.25000 
   8506.50000      12.49146       5.40000       4.50000       0.12115      90.44454       0.41615    -999.25000 
   8506.00000      12.51146       5.30000       4.30000       0.12315      93.43443       0.42165    -999.25000 
   8505.50000      12.58875       5.20000       4.20000       0.12629      95.21817       0.42457    -999.25000 
   8505.00000      12.70875       5.10000       4.10000       0.13029      93.22440       0.42557    -999.25000 
   8504.50000      12.87172       5.10000       3.80000       0.14088      91.46532       0.42371    -999.25000 
   8504.00000      13.06672       5.10000       3.50000       0.15638      90.46843       0.41971    -999.25000 
   8503.50000      13.13854       5.10000       3.50000       0.16987      90.33900       0.41399    -999.25000 
   8503.00000      13.11854       5.10000       3.50000       0.18188      93.12804       0.40699    -999.25000 
   8502.50000      12.84673       5.20000       3.50000       0.18586      95.81979       0.38941    -999.25000 
   8502.00000      12.38694       5.30000       3.50000       0.18386      98.16246       0.36392    -999.25000 
   8501.50000      12.14425       5.40000       3.70000       0.18900      99.10794       0.33813    -999.25000 
   8501.00000      12.06425       5.50000       3.90000       0.19950      94.97087       0.31213    -999.25000 
   8500.50000      12.00998       6.30000       5.60000       0.21000      90.25088       0.29614    -999.25000 
   8500.00000      11.97498       7.10000       7.30000       0.22050      83.32825       0.28764    -999.25000 
   8499.50000      11.93713       8.10000       7.90000       0.22815      76.64165       0.28429    -999.25000 
   8499.00000      11.89713       9.10000       8.50000       0.23365      70.90955       0.28479    -999.25000 
   8498.50000      11.88000       9.10000       8.80000       0.22628      66.18287       0.29158    -999.25000 
   8498.00000      11.88000       9.10000       9.10000       0.20928      65.58485       0.30308    -999.25000 
   8497.50000      11.92289       8.80000       8.40000       0.19342      66.40628       0.32773    -999.25000 
   8497.00000      11.99789       8.50000       7.70000       0.17842      73.33463       0.36223    -999.25000 
   8496.50000      12.09862       8.10000       7.00000       0.16428      78.39123       0.38272    -999.25000 
   8496.00000      12.21863       7.70000       6.30000       0.15078      75.05167       0.39272    -999.25000 
   8495.50000      12.28144       7.50000       5.90000       0.13957      72.50182       0.38814    -999.25000 
   8495.00000      12.30144       7.30000       5.50000       0.13007      73.64803       0.37264    -999.25000 
   8494.50000      12.28713       7.40000       5.70000       0.12114      74.03645       0.36400    -999.25000 
