~Version Information
VERS  .          2.0                              :CWLS Log Ascii Standard - Version 2.0
WRAP  .          NO                               :One line per depth step
~Well Information Block
#MNEM.UNIT       Data Type                        Information
#---------       ---------                        -------------------------------
STRT  .F         9850.00000                       :START DEPTH
STOP  .F         1453.50000                       :STOP DEPTH
STEP  .F         -0.50000                         :INCREMENT
NULL  .          -999.25                          :NULL DATA VALUE
COMP  .          ************                     :COMPANY
WELL  .          *******                          :WELL
FLD   .          ******                           :FIELD
LOC   .                                           :LOCATION
PROV  .                                           :PROVINCE
STAT  .                                           :STATE
CNTY  .                                           :COUNTY
CTRY  .                                           :COUNTRY
DATE  .                                           :DATE
UWI   .          ********                         :UNIQUE WELL UWI
LIC   .                                           :LICENSE NUMBER
API   .                                           :API NUMBER
SRVC  .          *****                            :SERVICE COMPANY
~Parameter Information Block
#MNEM.UNIT       Value                            Description
#---------       ---------                        -------------
~Curve Information Block
#MNEM.UNIT       API Code            Curve    Description
#--------        --------------      -----    -------------------
DEPT  .F                             :0       Index
CAL   .                              :1       Calibration Curve             
GR    .GAPI                          :2       Gamma Ray                     
NPHI  .V/V                           :3       Thermal Neutron Porosity (original Ratio Method) in Selected Lithology
RESD  .                              :4       Added by gf35 using QCTool    
RESS  .OHMM                          :5       Added by conefrem using QCTool 
RHOB  .G/C3                          :6       Bulk Density                  
SP    .MV                            :7       Spontaneous Potential         
~Ascii Data Section
# ...
   9388.50000       9.69388      27.62294       0.24574      11.50000      10.90500       2.32274    -105.90000 
   9388.00000       9.67387      27.62294       0.23796      11.30000      10.51000       2.31274    -106.30000 
   9387.50000       9.67000      27.62294       0.24031      10.90000      10.14000       2.31370    -106.70000 
   9387.00000       9.67000      27.62294       0.24510      10.50000       9.77000       2.31730    -107.10000 
   9386.50000       9.67000      27.62294       0.23831      10.50000       9.26000       2.32010    -107.49995 
   9386.00000       9.67000      27.62294       0.22873      10.50000       8.75000       2.32270    -107.89990 
   9385.50000       9.67000      27.62294       0.22070      10.70000       8.75000       2.31449    -107.69995 
   9385.00000       9.67000      27.62294       0.21304      10.90000       8.75000       2.30369    -107.50000 
   9384.50000       9.67000      27.62294       0.21906      12.85000       9.92500       2.29504    -108.10000 
   9384.00000       9.67000      27.62294       0.22840      14.80000      11.10000       2.28690    -108.70000 
   9383.50000       9.65794      27.62294       0.23639      15.80000      12.21000       2.28434    -108.70000 
   9383.00000       9.64294      27.62294       0.24405      16.80000      13.32000       2.28314    -108.70000 
   9382.50000       9.64000      27.62294       0.24545      19.30000      15.10500       2.28515    -108.29995 
   9382.00000       9.64000      36.40455       0.24533      21.80000      16.89000       2.28795    -107.89990 
   9381.50000       9.69629      36.40455       0.25060      18.05000      15.87500       2.29618    -107.89990 
   9381.00000       9.76629      36.40455       0.25719      14.30000      14.86000       2.30573    -107.89990 
   9380.50000       9.95290      36.40455       0.27754      13.10000      13.73500       2.31994    -107.89990 
   9380.00000      10.16790      53.12208       0.30124      11.90000      12.61000       2.33529    -107.89990 
   9379.50000      10.27019      53.12208       0.31933      14.70000      11.01000       2.35194    -108.69995 
   9379.00000      10.34516      53.12208       0.33608      17.50000       9.41000       2.36894    -109.50000 
   9378.50000      10.22365      53.12208       0.31626      19.65000       9.59000       2.38349    -109.90000 
   9378.00000      10.05365      36.40455       0.28741      21.80000       9.77000       2.39744    -110.30000 
   9377.50000       9.93979      36.40455       0.26624      32.70000      13.97000       2.40293    -110.30000 
   9377.00000       9.83979      36.40455       0.24697      43.60000      18.17000       2.40633    -110.30000 
   9376.50000       9.78792      36.40455       0.25823      43.60000      25.38500       2.38683    -109.50000 
   9376.00000       9.74792      36.40455       0.27702      43.60000      32.60000       2.36168    -108.70000 
   9375.50000       9.72396      36.40455       0.28122      42.80000      32.60000       2.34294    -108.70000 
   9375.00000       9.70396      36.40455       0.28182      42.00000      32.60000       2.32579    -108.70000 
   9374.50000       9.70000      36.40455       0.28472      38.85000      32.30500       2.33036    -108.70000 
   9374.00000       9.70000      36.40455       0.28819      35.70000      32.01000       2.34031    -108.70000 
   9373.50000       9.70000      36.40455       0.27183      32.70000      31.43500       2.35238    -108.70000 
   9373.00000       9.70000      36.40455       0.25053      29.70000      30.86000       2.36498    -108.70000 
   9372.50000       9.70000      36.40455       0.24023      25.15000      30.86000       2.37130    -107.50000 
   9372.00000       9.70000      36.40455       0.23269      20.60000      30.86000       2.37605    -106.30000 
   9371.50000       9.70000      36.40455       0.22458      17.45000      26.33500       2.37224    -104.70000 
   9371.00000       9.70000      36.40455       0.21632      14.30000      21.81000       2.36629    -103.10000 
   9370.50000       9.71200      36.40455       0.21773      12.70000      18.07000       2.36890    -103.49995 
   9370.00000       9.72697      36.40455       0.22155      11.10000      14.33000       2.37364    -103.89990 
   9369.50000       9.75793      36.40455       0.23837       9.90000      12.14000       2.36682    -104.29995 
   9369.00000       9.79293      36.40455       0.25848       8.70000       9.95000       2.35707    -104.70000 
   9368.50000       9.77207      36.40455       0.25089       8.55000       9.43000       2.35079    -104.70000 
   9368.00000       9.73707      36.40455       0.23629       8.40000       8.91000       2.34539    -104.70000 
   9367.50000       9.70606      36.40455       0.21825       8.70000       9.16000       2.34366    -104.29995 
   9367.00000       9.67606      36.40455       0.19933       9.00000       9.41000       2.34286    -103.89990 
   9366.50000       9.68197      36.40455       0.18768       9.85000      10.56500       2.34557    -103.49995 
   9366.00000       9.69697      36.40455       0.17786      10.70000      11.72000       2.34917    -103.10000 
   9365.50000       9.70000      36.40455       0.18648      10.40000      11.83000       2.35373    -102.70000 
   9365.00000       9.70000      36.40455       0.19975      10.10000      11.94000       2.35852    -102.30000 
   9364.50000       9.71194      27.62294       0.21455       9.65000      10.94500       2.36014    -101.50000 
   9364.00000       9.72694      27.62294       0.22976       9.20000       9.95000       2.36094    -100.70000 
   9363.50000       9.74592      27.62294       0.25487       8.85000       9.68000       2.34427    -101.10000 
   9363.00000       9.76592      27.62294       0.28252       8.50000       9.41000       2.32312    -101.50000 
   9362.50000       9.82173      27.62294       0.26377       8.35000       8.92500       2.31402    -102.30000 
   9362.00000       9.88673      27.62294       0.23313       8.20000       8.44000       2.30802    -103.10000 
   9361.50000       9.84827      36.40455       0.22887       8.30000       8.28500       2.30362    -104.30000 
   9361.00000       9.78327      36.40455       0.23139       8.40000       8.13000       2.29962    -105.50000 
   9360.50000       9.75408      36.40455       0.22028       8.65000       8.20500       2.30978    -105.90000 
   9360.00000       9.73412      36.40455       0.20570       8.90000       8.28000       2.32356    -106.30000 
   9359.50000       9.73794      36.40455       0.20241       8.95000       9.20500       2.33366    -106.30000 
   9359.00000       9.74794      36.40455       0.20205       9.00000      10.13000       2.34281    -106.30000 
   9358.50000       9.74603      36.40455       0.19799       8.85000      10.13000       2.34359    -105.90000 
   9358.00000       9.74103      36.40455       0.19296       8.70000      10.13000       2.34219    -105.50000 
   9357.50000       9.73603      36.40455       0.19031       8.60000      10.04000       2.34381    -105.50000 
   9357.00000       9.73103      36.40455       0.18827       8.50000       9.95000       2.34620    -105.50000 
   9356.50000       9.74191      36.40455       0.19013       8.70000       9.77000       2.34940    -105.90000 
   9356.00000       9.75691      36.40455       0.19300       8.90000       9.59000       2.35280    -106.30000 
   9355.50000       9.76000      36.40455       0.20186       9.05000       9.59000       2.35318    -106.30000 
   9355.00000       9.76000      36.40455       0.21226       9.20000       9.59000       2.35278    -106.30000 
   9354.50000       9.76792      36.40455       0.21869      10.05000      10.05000       2.35207    -106.30000 
   9354.00000       9.77792      36.40455       0.22408      10.90000      10.51000       2.35127    -106.30000 
   9353.50000       9.78000      36.40455       0.22406      11.50000      11.33500       2.34857    -106.30000 
