~Version Information
VERS  .          2.0                              :CWLS Log Ascii Standard - Version 2.0
WRAP  .          NO                               :One line per depth step
~Well Information Block
#MNEM.UNIT       Data Type                        Information
#---------       ---------                        -------------------------------
STRT  .F         9346.00000                       :START DEPTH
STOP  .F         2030.00000                       :STOP DEPTH
STEP  .F         -0.50000                         :INCREMENT
NULL  .          -999.25                          :NULL DATA VALUE
COMP  .          ************                     :COMPANY
WELL  .          ********                         :WELL
FLD   .          ******                           :FIELD
LOC   .                                           :LOCATION
PROV  .                                           :PROVINCE
STAT  .                                           :STATE
CNTY  .                                           :COUNTY
CTRY  .          ************                     :COUNTRY
DATE  .                                           :DATE
UWI   .          ********                         :UNIQUE WELL UWI
LIC   .                                           :LICENSE NUMBER
API   .                                           :API NUMBER
SRVC  .          *****                            :SERVICE COMPANY
~Parameter Information Block
#MNEM.UNIT       Value                            Description
#---------       ---------                        -------------
~Curve Information Block
#MNEM.UNIT       API Code            Curve    Description
#--------        --------------      -----    -------------------
DEPT  .F                             :0       Index
CAL   .                              :1       Calibration Curve             
ASN   .OHMM                          :2       Amplified Short Normal        
I6FR  .OHMM                          :3       I6FR - Deep Induction Log - PDVSA
DPHI  .V/V                           :4       Density Porosity              
GR    .GAPI                          :5       Gamma Ray                     
NPHI  .V/V                           :6       Thermal Neutron Porosity (original Ratio Method) in Selected Lithology
SP    .MV                            :7       Spontaneous Potential         
~Ascii Data Section
# ...
   8139.00000      13.13000       4.90000       4.50000       0.12831      97.93940       0.43391    -999.25000 
   8138.50000      13.13000       4.90000       4.60000       0.13671      96.96677       0.42937    -999.25000 
   8138.00000      13.13000       4.90000       4.70000       0.13033      97.71211       0.41571    -999.25000 
   8137.50000      13.13000       5.00000       4.90000       0.12396      98.41532       0.40206    -999.25000 
   8137.00000      13.14546       5.10000       5.10000       0.12184      98.61407       0.39381    -999.25000 
   8136.50000      13.16367       5.10000       5.20000       0.12047      98.65160       0.38653    -999.25000 
   8136.00000      13.13437       5.10000       5.30000       0.11911      96.31620       0.37836    -999.25000 
   8135.50000      13.07974       5.10000       5.30000       0.11774      94.01884       0.36971    -999.25000 
   8135.00000      13.03549       5.10000       5.30000       0.12073      92.42886       0.36707    -999.25000 
   8134.50000      13.00361       5.20000       5.40000       0.12893      90.82547       0.37163    -999.25000 
   8134.00000      12.97528       5.30000       5.50000       0.13771      88.83789       0.37712    -999.25000 
   8133.50000      12.95708       5.30000       5.40000       0.14818      86.88013       0.38532    -999.25000 
   8133.00000      12.94000       5.30000       5.30000       0.15791      86.08511       0.39283    -999.25000 
   8132.50000      12.94000       5.10000       5.10000       0.15655      85.28691       0.39010    -999.25000 
   8132.00000      12.94000       4.90000       4.90000       0.15518      84.14405       0.38737    -999.25000 
   8131.50000      12.94000       4.80000       4.80000       0.14821      83.00119       0.38381    -999.25000 
   8131.00000      12.94000       4.70000       4.70000       0.13968      83.19855       0.37979    -999.25000 
   8130.50000      12.94000       4.40000       4.50000       0.13841      83.39710       0.38355    -999.25000 
   8130.00000      12.94000       4.10000       4.30000       0.13893      84.13448       0.38920    -999.25000 
   8129.50000      12.94000       3.90000       4.20000       0.13768      84.87981       0.40278    -999.25000 
   8129.00000      12.94000       3.70000       4.10000       0.13614      86.83375       0.41767    -999.25000 
   8128.50000      12.94000       3.60000       4.00000       0.13740      88.81934       0.42740    -999.25000 
   8128.00000      12.94000       3.50000       3.90000       0.13894      90.80683       0.43664    -999.25000 
   8127.50000      12.92026       3.40000       3.80000       0.14048      92.79441       0.44983    -999.25000 
   8127.00000      12.89972       3.30000       3.70000       0.14207      91.39441       0.46305    -999.25000 
   8126.50000      12.87919       3.30000       3.70000       0.14720      89.80589       0.46664    -999.25000 
   8126.00000      12.86133       3.30000       3.70000       0.15210      89.51450       0.46960    -999.25000 
   8125.50000      12.88186       3.30000       3.70000       0.15364      89.31573       0.46344    -999.25000 
   8125.00000      12.89760       3.30000       3.70000       0.15566      91.13023       0.45914    -999.25000 
   8124.50000      12.87707       3.50000       3.90000       0.16131      93.11781       0.46889    -999.25000 
   8124.00000      12.86346       3.70000       4.10000       0.16453      92.75894       0.47838    -999.25000 
   8123.50000      12.88398       3.80000       4.20000       0.15581      92.16273       0.48659    -999.25000 
   8123.00000      12.90000       3.90000       4.30000       0.14753      91.03291       0.49323    -999.25000 
   8122.50000      12.90000       4.00000       4.40000       0.14086      89.84037       0.49425    -999.25000 
   8122.00000      12.88885       4.10000       4.50000       0.14018      90.40073       0.49333    -999.25000 
   8121.50000      12.84781       4.30000       4.60000       0.15557      91.19566       0.48717    -999.25000 
   8121.00000      12.80674       4.50000       4.70000       0.16285      92.85404       0.47786    -999.25000 
   8120.50000      12.76567       4.60000       4.70000       0.15310      94.64286       0.46195    -999.25000 
   8120.00000      12.72460       4.70000       4.70000       0.14469      94.72999       0.44545    -999.25000 
   8119.50000      12.68355       4.70000       4.60000       0.13853      94.53127       0.42801    -999.25000 
   8119.00000      12.64250       4.70000       4.50000       0.13150      96.13307       0.42128    -999.25000 
   8118.50000      12.60143       4.50000       4.30000       0.12329      98.07096       0.42898    -999.25000 
   8118.00000      12.57018       4.30000       4.10000       0.12121      97.12250       0.43079    -999.25000 
   8117.50000      12.54966       4.10000       3.90000       0.12583      95.58241       0.42617    -999.25000 
   8117.00000      12.55087       3.90000       3.70000       0.13072      96.11160       0.42889    -999.25000 
   8116.50000      12.57140       3.80000       3.70000       0.13585      97.10538       0.43813    -999.25000 
   8116.00000      12.58000       3.70000       3.70000       0.14337      95.86298       0.44797    -999.25000 
   8115.50000      12.58000       3.60000       3.60000       0.15261      94.07453       0.45824    -999.25000 
   8115.00000      12.59299       3.50000       3.50000       0.15600      93.85714       0.46752    -999.25000 
   8114.50000      12.61352       3.50000       3.50000       0.15600      94.05590       0.47625    -999.25000 
   8114.00000      12.67621       3.50000       3.50000       0.16127      91.47353       0.47970    -999.25000 
   8113.50000      12.75835       3.50000       3.40000       0.16897      88.09544       0.48073    -999.25000 
   8113.00000      12.76488       3.50000       3.30000       0.16457      93.03676       0.48781    -999.25000 
   8112.50000      12.74436       3.40000       3.20000       0.15585     100.53986       0.49704    -999.25000 
   8112.00000      12.77234       3.30000       3.10000       0.16168      99.89617       0.49900    -999.25000 
   8111.50000      12.81341       3.30000       3.00000       0.17144      96.56954       0.49900    -999.25000 
   8111.00000      12.83724       3.30000       2.90000       0.15533      96.14037       0.50159    -999.25000 
   8110.50000      12.85776       3.30000       2.90000       0.13430      96.73665       0.50466    -999.25000 
   8110.00000      12.86000       3.30000       2.90000       0.12651      98.30699       0.51689    -999.25000 
   8109.50000      12.86000       3.30000       2.80000       0.12035     100.24344       0.53024    -999.25000 
   8109.00000      12.82128       3.30000       2.70000       0.13791      99.41926       0.52810    -999.25000 
   8108.50000      12.78021       3.30000       2.70000       0.15690      97.48137       0.52502    -999.25000 
   8108.00000      12.78000       3.30000       2.70000       0.16057      97.42174       0.51939    -999.25000 
   8107.50000      12.78000       3.30000       2.70000       0.16266      98.16655       0.51447    -999.25000 
   8107.00000      12.78000       3.30000       2.70000       0.13340      97.61548       0.52474    -999.25000 
   8106.50000      12.77799       3.40000       2.70000       0.10826      96.47262       0.53285    -999.25000 
   8106.00000      12.75748       3.50000       2.70000       0.12108      95.43023       0.52105    -999.25000 
   8105.50000      12.73694       3.60000       2.90000       0.13353      94.43713       0.50932    -999.25000 
   8105.00000      12.71641       3.70000       3.10000       0.14380      91.73727       0.49802    -999.25000 
   8104.50000      12.70000       4.00000       3.40000       0.15386      88.15963       0.48828    -999.25000 
   8104.00000      12.70000       4.30000       3.70000       0.16310      84.74297       0.48468    -999.25000 
