~VERSION INFORMATION 
VERS  .    2.0                                     :CWLS Log ASCII Standard - VERSION 2.0
WRAP  .    NO                                      :One Line per Depth step
#--------------------------------------------------
~WELL INFORMATION 
#MNEM           .UNIT                      DATA            :DESCRIPTION
#----            ------          --------------            -----------------------------
STRT            .ft                   6530.5000            :START DEPTH
STOP            .ft                   7560.0000            :STOP DEPTH
STEP            .ft                         0.5            :STEP
NULL            .                     -999.0000            :NULL VALUE
COMP            .                         PDVSA            :COMPANY
WELL            .                        Well-1            :WELL NAME
FLD             .                       GUAFITA            :FIELD NAME
SRVC            .                       UNKNOWN            :SERVICE COMPANY
DATE            .                       UNKNOWN            :LOG DATE(Composite Date for Composite LAP) (MM/DD/YYYY)
CNTY            .                       UNKNOWN            :COUNTY
STAT            .                       BARINAS            :STATE or PROVINCE
PROV            .                       BARINAS            :STATE or PROVINCE
CTRY            .                     VENEZUELA            :COUNTRY
API             .                                          :API NUMBER
UWI             .                                          :UNIQUE WELL ID
LOC             .                       GUAFITA            :FIELD LOCATION
#--------------------------------------------------
~CURVE INFORMATION
#MNEM           .UNIT                  API CODE            :DESCRIPTION
#----           -------          --------------            -----------------------------
DEPTH           .ft                                        : Depth Index
RHOB            .g/cm3                                     : Density
DTSM            .us/ft                                     : Delta-T Shear
DTCO            .us/ft                                     : Delta-T Compressional
SW              .v/v                                       : Water Saturation
NPHI            .fraction                                  : Neutron Porosity
VSH             .v/v                                       : Shale Volume
#--------------------------------------------------
~PARAMETER INFORMATION
#MNEM           .UNIT                  VALUE               :DESCRIPTION
#----           -------          --------------            -----------------------------
EKB             .ft                   481.00000            :Elevation of Depth Reference (Kelly Bushing)
EGL             .ft                   451.00000            :Elevation of Ground Level
#-------------------------------------------------------------
#  DEPTH             RHOB           DTSM           DTCO             SW              PHI            VSH
~ASCII
# ...
 7173.0000       -999.0000        164.6580         96.4576       -999.0000       -999.0000       -999.0000
 7173.2495       -999.0000        162.4380         95.2667       -999.0000       -999.0000       -999.0000
 7173.5000          2.6840        160.4468         94.7948          0.9973          0.0547          0.7337
 7173.7505       -999.0000        158.9815         94.9255       -999.0000       -999.0000       -999.0000
 7174.0000          2.6430        158.2577         95.5132          1.0000          0.0554          0.7401
 7174.2495       -999.0000        158.2375         96.3934       -999.0000       -999.0000       -999.0000
 7174.5000          2.6320        158.6887         97.5361          1.0000          0.0604          0.7302
 7174.7505       -999.0000        159.4596         98.8584       -999.0000       -999.0000       -999.0000
 7175.0000       -999.0000        160.4892        100.2858       -999.0000       -999.0000       -999.0000
 7175.0005          2.5540       -999.0000       -999.0000          1.0000          0.0598          0.7615
 7175.2495       -999.0000        161.7640        101.7561       -999.0000       -999.0000       -999.0000
 7175.5000          2.4830        163.2799        103.1631          1.0000          0.0476          0.8276
 7175.7505       -999.0000        164.6069        104.5256       -999.0000       -999.0000       -999.0000
 7176.0000          2.4260        165.1845        105.8701          1.0000          0.0393          0.8725
 7176.2495       -999.0000        164.6084        107.1999       -999.0000       -999.0000       -999.0000
 7176.5000          2.3730        162.7497        108.4733          1.0000          0.0328          0.8968
 7176.7505       -999.0000        160.2614        109.4792       -999.0000       -999.0000       -999.0000
 7176.9995          2.3690       -999.0000       -999.0000          1.0000          0.0345          0.8945
 7177.0000       -999.0000        158.0063        109.9452       -999.0000       -999.0000       -999.0000
 7177.2495       -999.0000        156.7600        109.5941       -999.0000       -999.0000       -999.0000
 7177.5000          2.3450        157.0393        108.1796          1.0000          0.0603          0.8180
 7177.7505       -999.0000        158.5168        105.7072       -999.0000       -999.0000       -999.0000
 7178.0000          2.3620        160.3501        102.4006          1.0000          0.0800          0.7467
 7178.2495       -999.0000        161.5951         98.6599       -999.0000       -999.0000       -999.0000
 7178.5000          2.3820        161.3662         95.0682          1.0000          0.0903          0.6699
 7178.7505       -999.0000        159.5661         92.0374       -999.0000       -999.0000       -999.0000
 7179.0000       -999.0000        156.8141         89.7660       -999.0000       -999.0000       -999.0000
 7179.0005          2.4230       -999.0000       -999.0000          0.7874          0.0900          0.6352
 7179.2495       -999.0000        153.8966         88.2538       -999.0000       -999.0000       -999.0000
 7179.5000          2.4320        151.5938         87.2540          0.6337          0.0875          0.6073
 7179.7505       -999.0000        150.0495         86.5618       -999.0000       -999.0000       -999.0000
 7180.0000          2.4590        148.9192         86.0308          0.5333          0.0853          0.6097
 7180.2495       -999.0000        147.8372         85.5513       -999.0000       -999.0000       -999.0000
 7180.5000          2.4660        146.5728         85.1114          0.4579          0.0756          0.6462
 7180.7505       -999.0000        145.3388         84.7105       -999.0000       -999.0000       -999.0000
 7180.9995          2.4610       -999.0000       -999.0000          0.4392          0.0781          0.6438
 7181.0000       -999.0000        144.5724         84.4581       -999.0000       -999.0000       -999.0000
 7181.2495       -999.0000        144.6066         84.5834       -999.0000       -999.0000       -999.0000
 7181.5000          2.4740        145.5907         85.3111          0.4269          0.0746          0.6543
 7181.7505       -999.0000        147.4067         86.7881       -999.0000       -999.0000       -999.0000
 7182.0000          2.4630        149.7725         88.8845          0.3786          0.0551          0.7563
 7182.2495       -999.0000        152.4137         91.2138       -999.0000       -999.0000       -999.0000
 7182.5000          2.4350        155.0868         93.3377          0.3482          0.0151          0.9394
 7182.7505       -999.0000        157.6227         94.8955       -999.0000       -999.0000       -999.0000
 7183.0000       -999.0000        159.9649         95.7697       -999.0000       -999.0000       -999.0000
 7183.0005          2.4160       -999.0000       -999.0000          1.0000          0.0000          1.0000
 7183.2495       -999.0000        162.1433         96.0770       -999.0000       -999.0000       -999.0000
 7183.5000          2.3990        164.2675         95.9944          1.0000          0.0000          1.0000
 7183.7505       -999.0000        166.3425         95.6819       -999.0000       -999.0000       -999.0000
 7184.0000          2.3950        168.1863         95.2321          1.0000          0.0000          1.0000
 7184.2495       -999.0000        169.4653         94.6799       -999.0000       -999.0000       -999.0000
 7184.5000          2.3950        169.7022         94.0687          1.0000          0.0000          1.0000
 7184.7505       -999.0000        168.6174         93.4443       -999.0000       -999.0000       -999.0000
 7184.9995          2.3840       -999.0000       -999.0000          1.0000          0.0000          1.0000
 7185.0000       -999.0000        166.2659         92.8309       -999.0000       -999.0000       -999.0000
 7185.2495       -999.0000        162.8926         92.1919       -999.0000       -999.0000       -999.0000
 7185.5000          2.4330        158.9958         91.4338          1.0000          0.0000          1.0000
 7185.7505       -999.0000        155.0442         90.4575       -999.0000       -999.0000       -999.0000
 7186.0000          2.4860        151.3388         89.1971          1.0000          0.0000          1.0000
 7186.2495       -999.0000        148.1825         87.6654       -999.0000       -999.0000       -999.0000
 7186.5000          2.5030        145.7083         85.9483          1.0000          0.0000          1.0000
 7186.7505       -999.0000        143.9662         84.1616       -999.0000       -999.0000       -999.0000
 7187.0000       -999.0000        142.8955         82.4603       -999.0000       -999.0000       -999.0000
 7187.0005          2.4590       -999.0000       -999.0000          1.0000          0.0000          1.0000
 7187.2495       -999.0000        142.2220         81.0344       -999.0000       -999.0000       -999.0000
 7187.5000          2.4070        141.6497         80.0923          0.3145          0.0345          0.8661
 7187.7505       -999.0000        141.0412         79.8482       -999.0000       -999.0000       -999.0000
 7188.0000          2.3690        140.5835         80.4361          0.2865          0.0599          0.7627
 7188.2495       -999.0000        140.8275         81.8442       -999.0000       -999.0000       -999.0000
 7188.5000          2.3250        142.5368         83.9157          0.2921          0.1076          0.5923
 7188.7505       -999.0000        146.0232         86.3927       -999.0000       -999.0000       -999.0000
 7188.9995          2.2620       -999.0000       -999.0000          0.3168          0.1584          0.4381
 7189.0000       -999.0000        151.0234         89.0049       -999.0000       -999.0000       -999.0000
 7189.2495       -999.0000        156.6714         91.5490       -999.0000       -999.0000       -999.0000
 7189.5000          2.2080        161.5987         93.9060          0.3707          0.2010          0.3094
