~VERSION INFORMATION 
VERS  .    2.0                                     :CWLS Log ASCII Standard - VERSION 2.0
WRAP  .    NO                                      :One Line per Depth step
#--------------------------------------------------
~WELL INFORMATION 
#MNEM           .UNIT                      DATA            :DESCRIPTION
#----            ------          --------------            -----------------------------
STRT            .ft                   6530.5000            :START DEPTH
STOP            .ft                   7560.0000            :STOP DEPTH
STEP            .ft                         0.5            :STEP
NULL            .                     -999.0000            :NULL VALUE
COMP            .                         PDVSA            :COMPANY
WELL            .                        Well-1            :WELL NAME
FLD             .                       GUAFITA            :FIELD NAME
SRVC            .                       UNKNOWN            :SERVICE COMPANY
DATE            .                       UNKNOWN            :LOG DATE(Composite Date for Composite LAP) (MM/DD/YYYY)
CNTY            .                       UNKNOWN            :COUNTY
STAT            .                       BARINAS            :STATE or PROVINCE
PROV            .                       BARINAS            :STATE or PROVINCE
CTRY            .                     VENEZUELA            :COUNTRY
API             .                                          :API NUMBER
UWI             .                                          :UNIQUE WELL ID
LOC             .                       GUAFITA            :FIELD LOCATION
#--------------------------------------------------
~CURVE INFORMATION
#MNEM           .UNIT                  API CODE            :DESCRIPTION
#----           -------          --------------            -----------------------------
DEPTH           .ft                                        : Depth Index
RHOB            .g/cm3                                     : Density
DTSM            .us/ft                                     : Delta-T Shear
DTCO            .us/ft                                     : Delta-T Compressional
SW              .v/v                                       : Water Saturation
NPHI            .fraction                                  : Neutron Porosity
VSH             .v/v                                       : Shale Volume
#--------------------------------------------------
~PARAMETER INFORMATION
#MNEM           .UNIT                  VALUE               :DESCRIPTION
#----           -------          --------------            -----------------------------
EKB             .ft                   481.00000            :Elevation of Depth Reference (Kelly Bushing)
EGL             .ft                   451.00000            :Elevation of Ground Level
#-------------------------------------------------------------
#  DEPTH             RHOB           DTSM           DTCO             SW              PHI            VSH
~ASCII
# ...
 7039.7505       -999.0000        157.6007         92.8214       -999.0000       -999.0000       -999.0000
 7040.0000          2.2150        156.2718         92.8963          0.9244          0.2763          0.0481
 7040.2495       -999.0000        154.7607         92.7428       -999.0000       -999.0000       -999.0000
 7040.5000          2.2380        153.2695         92.1791          0.8991          0.2602          0.0678
 7040.7505       -999.0000        152.1322         91.1547       -999.0000       -999.0000       -999.0000
 7040.9995          2.2910       -999.0000       -999.0000          0.8493          0.2314          0.1002
 7041.0000       -999.0000        151.6105         89.7705       -999.0000       -999.0000       -999.0000
 7041.2495       -999.0000        151.8645         88.2570       -999.0000       -999.0000       -999.0000
 7041.5000          2.3040        152.8452         86.9089          0.8623          0.2127          0.1112
 7041.7505       -999.0000        154.2140         86.0056       -999.0000       -999.0000       -999.0000
 7042.0000          2.3110        155.6198         85.7467          0.8181          0.2060          0.1263
 7042.2495       -999.0000        156.8179         86.1923       -999.0000       -999.0000       -999.0000
 7042.5000          2.2580        157.8132         87.2663          0.7932          0.2247          0.1141
 7042.7505       -999.0000        158.8874         88.7806       -999.0000       -999.0000       -999.0000
 7043.0000       -999.0000        160.3246         90.4806       -999.0000       -999.0000       -999.0000
 7043.0005          2.2210       -999.0000       -999.0000          0.8525          0.2593          0.0654
 7043.2495       -999.0000        162.1579         92.1083       -999.0000       -999.0000       -999.0000
 7043.5000          2.1780        164.1114         93.4295          0.9248          0.2804          0.0260
 7043.7505       -999.0000        165.6238         94.2780       -999.0000       -999.0000       -999.0000
 7044.0000          2.1810        166.0888         94.5738          0.9458          0.2958          0.0104
 7044.2495       -999.0000        165.2803         94.3280       -999.0000       -999.0000       -999.0000
 7044.5000          2.1670        163.3847         93.6578          0.9352          0.3019          0.0127
 7044.7505       -999.0000        161.0011         92.7396       -999.0000       -999.0000       -999.0000
 7044.9995          2.1730       -999.0000       -999.0000          0.9684          0.2924          0.0156
 7045.0000       -999.0000        158.9630         91.7588       -999.0000       -999.0000       -999.0000
 7045.2495       -999.0000        157.8492         90.8647       -999.0000       -999.0000       -999.0000
 7045.5000          2.1910        157.8993         90.1158          0.9443          0.2716          0.0394
 7045.7505       -999.0000        158.9221         89.4922       -999.0000       -999.0000       -999.0000
 7046.0000          2.2380        160.3491         88.9359          0.7916          0.2293          0.1089
 7046.2495       -999.0000        161.6695         88.3963       -999.0000       -999.0000       -999.0000
 7046.5000          2.2770        162.5196         87.8788          0.7434          0.2106          0.1431
 7046.7505       -999.0000        162.8170         87.4487       -999.0000       -999.0000       -999.0000
 7047.0000       -999.0000        162.8573         87.2054       -999.0000       -999.0000       -999.0000
 7047.0005          2.2940       -999.0000       -999.0000          0.7524          0.2150          0.1477
 7047.2495       -999.0000        162.9613         87.2399       -999.0000       -999.0000       -999.0000
 7047.5000          2.2620        163.3951         87.5949          0.7488          0.2370          0.1361
 7047.7505       -999.0000        164.2748         88.2532       -999.0000       -999.0000       -999.0000
 7048.0000          2.2080        165.3944         89.1426          0.7730          0.2628          0.1031
 7048.2495       -999.0000        166.4847         90.1573       -999.0000       -999.0000       -999.0000
 7048.5000          2.1770        167.3168         91.1872          0.8357          0.2850          0.0625
 7048.7505       -999.0000        167.7186         92.1305       -999.0000       -999.0000       -999.0000
 7048.9995          2.1600       -999.0000       -999.0000          0.9048          0.2929          0.0370
 7049.0000       -999.0000        167.6972         92.9009       -999.0000       -999.0000       -999.0000
 7049.2495       -999.0000        167.3081         93.4340       -999.0000       -999.0000       -999.0000
 7049.5000          2.1510        166.5636         93.6845          0.9164          0.2943          0.0353
 7049.7505       -999.0000        165.5130         93.6330       -999.0000       -999.0000       -999.0000
 7050.0000          2.1590        164.2248         93.3031          0.9415          0.2915          0.0307
 7050.2495       -999.0000        162.8164         92.7676       -999.0000       -999.0000       -999.0000
 7050.5000          2.1520        161.4887         92.1466          1.0000          0.3027          0.0040
 7050.7505       -999.0000        160.4046         91.5900       -999.0000       -999.0000       -999.0000
 7051.0000       -999.0000        159.6289         91.2313       -999.0000       -999.0000       -999.0000
 7051.0005          2.1540       -999.0000       -999.0000          0.9643          0.3111          0.0000
 7051.2495       -999.0000        159.1259         91.1455       -999.0000       -999.0000       -999.0000
 7051.5000          2.1490        158.7625         91.3197          0.9361          0.3077          0.0000
 7051.7505       -999.0000        158.3787         91.6569       -999.0000       -999.0000       -999.0000
 7052.0000          2.1610        157.8642         92.0110          0.9103          0.3079          0.0000
 7052.2495       -999.0000        157.1642         92.2434       -999.0000       -999.0000       -999.0000
 7052.5000          2.1610        156.2759         92.2768          0.9144          0.3067          0.0000
 7052.7505       -999.0000        155.2481         92.1093       -999.0000       -999.0000       -999.0000
 7052.9995          2.1630       -999.0000       -999.0000          0.9331          0.3043          0.0000
 7053.0000       -999.0000        154.1688         91.8112       -999.0000       -999.0000       -999.0000
 7053.2495       -999.0000        153.1624         91.4840       -999.0000       -999.0000       -999.0000
 7053.5000          2.1610        152.3909         91.2139          0.9380          0.3036          0.0000
 7053.7505       -999.0000        151.9949         91.0620       -999.0000       -999.0000       -999.0000
 7054.0000          2.1530        152.0400         91.0528          0.9414          0.3018          0.0000
 7054.2495       -999.0000        152.5228         91.1945       -999.0000       -999.0000       -999.0000
 7054.5000          2.1400        153.3528         91.4985          0.9584          0.2959          0.0000
 7054.7505       -999.0000        154.4652         91.9680       -999.0000       -999.0000       -999.0000
 7055.0000       -999.0000        155.8436         92.5952       -999.0000       -999.0000       -999.0000
 7055.0005          2.1450       -999.0000       -999.0000          0.9579          0.2953          0.0000
 7055.2495       -999.0000        157.4680         93.3445       -999.0000       -999.0000       -999.0000
 7055.5000          2.1350        159.3269         94.1418          0.9394          0.3018          0.0000
 7055.7505       -999.0000        161.2719         94.8869       -999.0000       -999.0000       -999.0000
 7056.0000          2.1170        163.0615         95.4725          0.9291          0.3073          0.0000
 7056.2495       -999.0000        164.4465         95.8095       -999.0000       -999.0000       -999.0000
