~VERSION INFORMATION 
VERS  .    2.0                                     :CWLS Log ASCII Standard - VERSION 2.0
WRAP  .    NO                                      :One Line per Depth step
#--------------------------------------------------
~WELL INFORMATION 
#MNEM           .UNIT                      DATA            :DESCRIPTION
#----            ------          --------------            -----------------------------
STRT            .ft                   6530.5000            :START DEPTH
STOP            .ft                   7560.0000            :STOP DEPTH
STEP            .ft                         0.5            :STEP
NULL            .                     -999.0000            :NULL VALUE
COMP            .                         PDVSA            :COMPANY
WELL            .                        Well-1            :WELL NAME
FLD             .                       GUAFITA            :FIELD NAME
SRVC            .                       UNKNOWN            :SERVICE COMPANY
DATE            .                       UNKNOWN            :LOG DATE(Composite Date for Composite LAP) (MM/DD/YYYY)
CNTY            .                       UNKNOWN            :COUNTY
STAT            .                       BARINAS            :STATE or PROVINCE
PROV            .                       BARINAS            :STATE or PROVINCE
CTRY            .                     VENEZUELA            :COUNTRY
API             .                                          :API NUMBER
UWI             .                                          :UNIQUE WELL ID
LOC             .                       GUAFITA            :FIELD LOCATION
#--------------------------------------------------
~CURVE INFORMATION
#MNEM           .UNIT                  API CODE            :DESCRIPTION
#----           -------          --------------            -----------------------------
DEPTH           .ft                                        : Depth Index
RHOB            .g/cm3                                     : Density
DTSM            .us/ft                                     : Delta-T Shear
DTCO            .us/ft                                     : Delta-T Compressional
SW              .v/v                                       : Water Saturation
NPHI            .fraction                                  : Neutron Porosity
VSH             .v/v                                       : Shale Volume
#--------------------------------------------------
~PARAMETER INFORMATION
#MNEM           .UNIT                  VALUE               :DESCRIPTION
#----           -------          --------------            -----------------------------
EKB             .ft                   481.00000            :Elevation of Depth Reference (Kelly Bushing)
EGL             .ft                   451.00000            :Elevation of Ground Level
#-------------------------------------------------------------
#  DEPTH             RHOB           DTSM           DTCO             SW              PHI            VSH
~ASCII
# ...
 6989.7505       -999.0000        162.5175         88.2064       -999.0000       -999.0000       -999.0000
 6990.0000          2.5230        164.9210         89.4010          1.0000          0.1035          0.5117
 6990.2495       -999.0000        166.1514         90.3793       -999.0000       -999.0000       -999.0000
 6990.5000          2.5360        165.9759         91.0326          1.0000          0.1117          0.4891
 6990.7505       -999.0000        164.4196         91.2872       -999.0000       -999.0000       -999.0000
 6991.0000       -999.0000        161.7589         91.1318       -999.0000       -999.0000       -999.0000
 6991.0005          2.5420       -999.0000       -999.0000          1.0000          0.1101          0.4874
 6991.2495       -999.0000        158.4126         90.6070       -999.0000       -999.0000       -999.0000
 6991.5000          2.5490        154.8797         89.8058          1.0000          0.1075          0.4972
 6991.7505       -999.0000        151.7137         88.8568       -999.0000       -999.0000       -999.0000
 6992.0000          2.5550        149.4084         87.8916          1.0000          0.0964          0.5134
 6992.2495       -999.0000        148.2991         87.0307       -999.0000       -999.0000       -999.0000
 6992.5000          2.5830        148.4741         86.3502          1.0000          0.0961          0.5105
 6992.7505       -999.0000        149.6827         85.8730       -999.0000       -999.0000       -999.0000
 6992.9995          2.5710       -999.0000       -999.0000          1.0000          0.0934          0.5332
 6993.0000       -999.0000        151.4047         85.5755       -999.0000       -999.0000       -999.0000
 6993.2495       -999.0000        153.0313         85.3967       -999.0000       -999.0000       -999.0000
 6993.5000          2.5480        154.0120         85.2670          1.0000          0.0867          0.5511
 6993.7505       -999.0000        154.0439         85.1330       -999.0000       -999.0000       -999.0000
 6994.0000          2.5540        153.1176         84.9706          1.0000          0.0846          0.5401
 6994.2495       -999.0000        151.4022         84.7898       -999.0000       -999.0000       -999.0000
 6994.5000          2.5470        149.1715         84.6279          1.0000          0.0915          0.4984
 6994.7505       -999.0000        146.6789         84.5255       -999.0000       -999.0000       -999.0000
 6995.0000       -999.0000        144.1388         84.5105       -999.0000       -999.0000       -999.0000
 6995.0005          2.5460       -999.0000       -999.0000          1.0000          0.0882          0.5175
 6995.2495       -999.0000        141.7482         84.5868       -999.0000       -999.0000       -999.0000
 6995.5000          2.5460        139.6904         84.7256          1.0000          0.0898          0.4868
 6995.7505       -999.0000        138.1088         84.8831       -999.0000       -999.0000       -999.0000
 6996.0000          2.5530        136.9778         85.0140          1.0000          0.0901          0.4642
 6996.2495       -999.0000        136.1919         85.0858       -999.0000       -999.0000       -999.0000
 6996.5000          2.5680        135.5694         85.0968          1.0000          0.0919          0.4642
 6996.7505       -999.0000        134.9117         85.0721       -999.0000       -999.0000       -999.0000
 6996.9995          2.5430       -999.0000       -999.0000          1.0000          0.1002          0.4526
 6997.0000       -999.0000        134.1906         85.0477       -999.0000       -999.0000       -999.0000
 6997.2495       -999.0000        133.3751         85.0582       -999.0000       -999.0000       -999.0000
 6997.5000          2.5240        132.4233         85.1194          1.0000          0.1085          0.4358
 6997.7505       -999.0000        131.3452         85.2235       -999.0000       -999.0000       -999.0000
 6998.0000          2.5190        130.1081         85.3556          1.0000          0.1113          0.4294
 6998.2495       -999.0000        128.7830         85.4996       -999.0000       -999.0000       -999.0000
 6998.5000          2.5110        127.6004         85.6433          1.0000          0.1101          0.4393
 6998.7505       -999.0000        126.8297         85.7811       -999.0000       -999.0000       -999.0000
 6999.0000       -999.0000        126.7461         85.9058       -999.0000       -999.0000       -999.0000
 6999.0005          2.5080       -999.0000       -999.0000          1.0000          0.1091          0.4335
 6999.2495       -999.0000        127.5412         86.0066       -999.0000       -999.0000       -999.0000
 6999.5000          2.5250        129.1686         86.0747          1.0000          0.1002          0.4427
 6999.7505       -999.0000        131.3687         86.1033       -999.0000       -999.0000       -999.0000
 7000.0000          2.5540        133.7527         86.0874          1.0000          0.0985          0.4410
 7000.2495       -999.0000        135.8895         86.0281       -999.0000       -999.0000       -999.0000
 7000.5000          2.5450        137.5013         85.9278          1.0000          0.1021          0.4613
 7000.7505       -999.0000        138.4989         85.7929       -999.0000       -999.0000       -999.0000
 7000.9995          2.5250       -999.0000       -999.0000          1.0000          0.1054          0.4694
 7001.0000       -999.0000        138.9590         85.6372       -999.0000       -999.0000       -999.0000
 7001.2495       -999.0000        139.0541         85.4762       -999.0000       -999.0000       -999.0000
 7001.5000          2.5040        138.9803         85.3293          1.0000          0.1094          0.4700
 7001.7505       -999.0000        138.9917         85.2165       -999.0000       -999.0000       -999.0000
 7002.0000          2.5000        139.2762         85.1529          1.0000          0.1140          0.4439
 7002.2495       -999.0000        139.9733         85.1517       -999.0000       -999.0000       -999.0000
 7002.5000          2.4820        141.1296         85.2181          1.0000          0.1133          0.4248
 7002.7505       -999.0000        142.5919         85.3501       -999.0000       -999.0000       -999.0000
 7003.0000       -999.0000        144.2176         85.5396       -999.0000       -999.0000       -999.0000
 7003.0005          2.4930       -999.0000       -999.0000          1.0000          0.1089          0.3999
 7003.2495       -999.0000        145.8852         85.7665       -999.0000       -999.0000       -999.0000
 7003.5000          2.5310        147.4742         86.0051          1.0000          0.0982          0.4254
 7003.7505       -999.0000        148.9977         86.2268       -999.0000       -999.0000       -999.0000
 7004.0000          2.5460        150.4866         86.4003          1.0000          0.0965          0.4555
 7004.2495       -999.0000        151.9861         86.5089       -999.0000       -999.0000       -999.0000
 7004.5000          2.5270        153.6035         86.5494          1.0000          0.1034          0.4462
 7004.7505       -999.0000        155.3506         86.5269       -999.0000       -999.0000       -999.0000
 7004.9995          2.5080       -999.0000       -999.0000          1.0000          0.1093          0.4451
 7005.0000       -999.0000        157.1115         86.4602       -999.0000       -999.0000       -999.0000
 7005.2495       -999.0000        158.6714         86.3614       -999.0000       -999.0000       -999.0000
 7005.5000          2.4820        159.8062         86.2368          1.0000          0.1200          0.4404
 7005.7505       -999.0000        160.4262         86.0957       -999.0000       -999.0000       -999.0000
 7006.0000          2.4640        160.6584         85.9461          1.0000          0.1252          0.4375
 7006.2495       -999.0000        160.7458         85.8058       -999.0000       -999.0000       -999.0000
