~VERSION INFORMATION 
VERS  .    2.0                                     :CWLS Log ASCII Standard - VERSION 2.0
WRAP  .    NO                                      :One Line per Depth step
#--------------------------------------------------
~WELL INFORMATION 
#MNEM           .UNIT                      DATA            :DESCRIPTION
#----            ------          --------------            -----------------------------
STRT            .ft                   6530.5000            :START DEPTH
STOP            .ft                   7560.0000            :STOP DEPTH
STEP            .ft                         0.5            :STEP
NULL            .                     -999.0000            :NULL VALUE
COMP            .                         PDVSA            :COMPANY
WELL            .                        Well-1            :WELL NAME
FLD             .                       GUAFITA            :FIELD NAME
SRVC            .                       UNKNOWN            :SERVICE COMPANY
DATE            .                       UNKNOWN            :LOG DATE(Composite Date for Composite LAP) (MM/DD/YYYY)
CNTY            .                       UNKNOWN            :COUNTY
STAT            .                       BARINAS            :STATE or PROVINCE
PROV            .                       BARINAS            :STATE or PROVINCE
CTRY            .                     VENEZUELA            :COUNTRY
API             .                                          :API NUMBER
UWI             .                                          :UNIQUE WELL ID
LOC             .                       GUAFITA            :FIELD LOCATION
#--------------------------------------------------
~CURVE INFORMATION
#MNEM           .UNIT                  API CODE            :DESCRIPTION
#----           -------          --------------            -----------------------------
DEPTH           .ft                                        : Depth Index
RHOB            .g/cm3                                     : Density
DTSM            .us/ft                                     : Delta-T Shear
DTCO            .us/ft                                     : Delta-T Compressional
SW              .v/v                                       : Water Saturation
NPHI            .fraction                                  : Neutron Porosity
VSH             .v/v                                       : Shale Volume
#--------------------------------------------------
~PARAMETER INFORMATION
#MNEM           .UNIT                  VALUE               :DESCRIPTION
#----           -------          --------------            -----------------------------
EKB             .ft                   481.00000            :Elevation of Depth Reference (Kelly Bushing)
EGL             .ft                   451.00000            :Elevation of Ground Level
#-------------------------------------------------------------
#  DEPTH             RHOB           DTSM           DTCO             SW              PHI            VSH
~ASCII
# ...
 7206.5000          2.1340        172.8453         95.9652          0.5569          0.2771          0.1367
 7206.7505       -999.0000        171.6599         95.7495       -999.0000       -999.0000       -999.0000
 7207.0000       -999.0000        170.1945         95.5092       -999.0000       -999.0000       -999.0000
 7207.0005          2.1370       -999.0000       -999.0000          0.5302          0.2767          0.1489
 7207.2495       -999.0000        168.5655         95.3244       -999.0000       -999.0000       -999.0000
 7207.5000          2.1310        166.9452         95.2577          0.5532          0.2836          0.1338
 7207.7505       -999.0000        165.5363         95.3292       -999.0000       -999.0000       -999.0000
 7208.0000          2.1300        164.4512         95.5084          0.6244          0.2877          0.0996
 7208.2495       -999.0000        163.8939         95.7269       -999.0000       -999.0000       -999.0000
 7208.5000          2.1580        163.9607         95.8961          0.6410          0.2829          0.0938
 7208.7505       -999.0000        164.6213         95.9487       -999.0000       -999.0000       -999.0000
 7208.9995          2.1600       -999.0000       -999.0000          0.7274          0.2881          0.0614
 7209.0000       -999.0000        165.7383         95.8632       -999.0000       -999.0000       -999.0000
 7209.2495       -999.0000        166.9891         95.6583       -999.0000       -999.0000       -999.0000
 7209.5000          2.1710        168.0044         95.3822          0.7267          0.2816          0.0614
 7209.7505       -999.0000        168.4608         95.0873       -999.0000       -999.0000       -999.0000
 7210.0000          2.1900        168.2567         94.8147          0.6648          0.2794          0.0767
 7210.2495       -999.0000        167.5077         94.6055       -999.0000       -999.0000       -999.0000
 7210.5000          2.1660        166.5104         94.5074          0.6926          0.2870          0.0623
 7210.7505       -999.0000        165.6657         94.5697       -999.0000       -999.0000       -999.0000
 7211.0000       -999.0000        165.2213         94.8301       -999.0000       -999.0000       -999.0000
 7211.0005          2.1470       -999.0000       -999.0000          0.6850          0.2958          0.0617
 7211.2495       -999.0000        165.2637         95.2877       -999.0000       -999.0000       -999.0000
 7211.5000          2.1300        165.7110         95.8940          0.7526          0.3124          0.0350
 7211.7505       -999.0000        166.2732         96.5762       -999.0000       -999.0000       -999.0000
 7212.0000          2.1130        166.7025         97.2666          0.7597          0.3251          0.0269
 7212.2495       -999.0000        166.8435         97.9359       -999.0000       -999.0000       -999.0000
 7212.5000          2.1020        166.6387         98.5986          0.7569          0.3239          0.0289
 7212.7505       -999.0000        166.2277         99.2804       -999.0000       -999.0000       -999.0000
 7212.9995          2.1200       -999.0000       -999.0000          0.8138          0.3245          0.0139
 7213.0000       -999.0000        165.7559         99.9888       -999.0000       -999.0000       -999.0000
 7213.2495       -999.0000        165.3368        100.6892       -999.0000       -999.0000       -999.0000
 7213.5000          2.1250        165.0534        101.3029          0.7901          0.3208          0.0254
 7213.7505       -999.0000        164.9530        101.7456       -999.0000       -999.0000       -999.0000
 7214.0000          2.1220        165.1206        101.9593          0.7535          0.3142          0.0440
 7214.2495       -999.0000        165.6075        101.9385       -999.0000       -999.0000       -999.0000
 7214.5000          2.1160        166.4091        101.7452          0.7493          0.3170          0.0463
 7214.7505       -999.0000        167.3880        101.4878       -999.0000       -999.0000       -999.0000
 7215.0000       -999.0000        168.3214        101.2833       -999.0000       -999.0000       -999.0000
 7215.0005          2.1200       -999.0000       -999.0000          0.7112          0.3108          0.0602
 7215.2495       -999.0000        169.0360        101.2222       -999.0000       -999.0000       -999.0000
 7215.5000          2.1210        169.4895        101.3342          0.6215          0.2977          0.0967
 7215.7505       -999.0000        169.7758        101.5800       -999.0000       -999.0000       -999.0000
 7216.0000          2.1430        169.9903        101.8791          0.4936          0.2755          0.1721
 7216.2495       -999.0000        170.2097        102.1411       -999.0000       -999.0000       -999.0000
 7216.5000          2.1460        170.3602        102.2948          0.5038          0.2762          0.1790
 7216.7505       -999.0000        170.3331        102.3030       -999.0000       -999.0000       -999.0000
 7216.9995          2.1580       -999.0000       -999.0000          0.5048          0.2680          0.1883
 7217.0000       -999.0000        170.1474        102.1554       -999.0000       -999.0000       -999.0000
 7217.2495       -999.0000        169.8637        101.8550       -999.0000       -999.0000       -999.0000
 7217.5000          2.1660        169.6956        101.4173          0.4425          0.2601          0.2231
 7217.7505       -999.0000        169.8224        100.8769       -999.0000       -999.0000       -999.0000
 7218.0000          2.1330        170.2834        100.2953          0.4485          0.2659          0.2034
 7218.2495       -999.0000        171.0218         99.7581       -999.0000       -999.0000       -999.0000
 7218.5000          2.1170        171.8215         99.3569          0.4854          0.2791          0.1732
 7218.7505       -999.0000        172.5062         99.1556       -999.0000       -999.0000       -999.0000
 7219.0000       -999.0000        172.9743         99.1606       -999.0000       -999.0000       -999.0000
 7219.0005          2.1040       -999.0000       -999.0000          0.4805          0.2846          0.1814
 7219.2495       -999.0000        173.2002         99.3204       -999.0000       -999.0000       -999.0000
 7219.5000          2.0900        173.2567         99.5386          0.5018          0.2959          0.1709
 7219.7505       -999.0000        173.1479         99.7114       -999.0000       -999.0000       -999.0000
 7220.0000          2.0950        172.8132         99.7702          0.5204          0.2932          0.1616
 7220.2495       -999.0000        172.1539         99.6947       -999.0000       -999.0000       -999.0000
 7220.5000          2.1140        171.0612         99.5121          0.4950          0.2774          0.1790
 7220.7505       -999.0000        169.6005         99.2778       -999.0000       -999.0000       -999.0000
 7220.9995          2.1200       -999.0000       -999.0000          0.5089          0.2739          0.1709
 7221.0000       -999.0000        167.9628         99.0419       -999.0000       -999.0000       -999.0000
 7221.2495       -999.0000        166.3839         98.8352       -999.0000       -999.0000       -999.0000
 7221.5000          2.1260        165.1165         98.6669          0.4619          0.2621          0.2034
 7221.7505       -999.0000        164.2359         98.5319       -999.0000       -999.0000       -999.0000
 7222.0000          2.1170        163.7349         98.4285          0.4525          0.2662          0.2092
 7222.2495       -999.0000        163.6716         98.3631       -999.0000       -999.0000       -999.0000
 7222.5000          2.1090        164.0893         98.3473          0.4898          0.2833          0.1837
 7222.7505       -999.0000        165.0819         98.3891       -999.0000       -999.0000       -999.0000
 7223.0000       -999.0000        166.6821         98.4789       -999.0000       -999.0000       -999.0000
