~VERSION INFORMATION 
VERS  .    2.0                                     :CWLS Log ASCII Standard - VERSION 2.0
WRAP  .    NO                                      :One Line per Depth step
#--------------------------------------------------
~WELL INFORMATION 
#MNEM           .UNIT                      DATA            :DESCRIPTION
#----            ------          --------------            -----------------------------
STRT            .ft                   7364.0000            :START DEPTH
STOP            .ft                   8538.0000            :STOP DEPTH
STEP            .ft                         0.5            :STEP
NULL            .                     -999.0000            :NULL VALUE
COMP            .                         PDVSA            :COMPANY
WELL            .                        Well-2            :WELL NAME
FLD             .                       GUAFITA            :FIELD NAME
SRVC            .                       UNKNOWN            :SERVICE COMPANY
DATE            .                       UNKNOWN            :LOG DATE(Composite Date for Composite LAP) (MM/DD/YYYY)
CNTY            .                       UNKNOWN            :COUNTY
STAT            .                       BARINAS            :STATE or PROVINCE
PROV            .                       BARINAS            :STATE or PROVINCE
CTRY            .                     VENEZUELA            :COUNTRY
API             .                                          :API NUMBER
UWI             .                                          :UNIQUE WELL ID
LOC             .                       GUAFITA            :FIELD LOCATION
#--------------------------------------------------
~CURVE INFORMATION
#MNEM           .UNIT                  API CODE            :DESCRIPTION
#----            ------          --------------            -----------------------------
DEPTH           .ft                                        : Depth Index
RHOB            .g/cm3                                     : Density
DTSM            .us/ft                                     : Delta-T Shear
DTCO            .us/ft                                     : Delta-T Compressional
VSH             .v/v                                       : Shale Volume
SW              .v/v                                       : Water Saturation
NPHI            .fraction                                  : Neutron Porosity
#--------------------------------------------------
~PARAMETER INFORMATION
#MNEM           .UNIT                  VALUE               :DESCRIPTION
#----           -------          --------------            -----------------------------
EKB             .ft                   487.00000            :Elevation of Depth Reference (Kelly Bushing)
EGL             .ft                   457.00000            :Elevation of Ground Level
#-------------------------------------------------------------
#  DEPTH             RHOB           DTSM           DTCO             VSH             SW              PHI
~ASCII
# ...
 8264.0000          2.1261        171.4798         94.0051          0.1945          0.4359          0.2219
 8264.5000          2.1192        177.7634         94.2777          0.2039          0.4286          0.2165
 8265.0000          2.1265        179.7604         95.1519          0.2133          0.4214          0.2112
 8265.5000          2.1439        180.5636         95.9692          0.2436          0.3808          0.2026
 8266.0000          2.1601        178.1236         96.3748          0.2738          0.3401          0.1940
 8266.5000          2.1683        177.9065         95.7997          0.3134          0.2889          0.1753
 8267.0000          2.1729        177.6692         94.8026          0.3530          0.2377          0.1566
 8267.5000          2.1761        178.2442         95.0953          0.3823          0.2170          0.1559
 8268.0000          2.1805        176.6521         94.3395          0.4115          0.1963          0.1552
 8268.5000          2.1884        176.7566         92.5902          0.4649          0.2022          0.1387
 8269.0000          2.2035        176.0726         91.6911          0.5182          0.2081          0.1221
 8269.5000          2.2349        169.5718         92.5412          0.5941          0.2340          0.1013
 8270.0000          2.2868        170.6644         90.1980          0.6700          0.2598          0.0804
 8270.5000          2.3440        170.1943         89.0900          0.7103          0.3584          0.0781
 8271.0000          2.3813        159.8944         82.9910          0.7507          0.4571          0.0757
 8271.5000          2.3807        167.0717         84.8363          0.6792          0.4383          0.0892
 8272.0000          2.3501        167.3866         85.7484          0.6077          0.4194          0.1028
 8272.5000          2.3214        164.6675         87.3608          0.6210          0.3871          0.0963
 8273.0000          2.3228        165.2760         91.1605          0.6343          0.3547          0.0898
 8273.5000          2.3562        166.2068         89.1509          0.7413          0.4349          0.0635
 8274.0000          2.3907        169.9854         90.4558          0.8484          0.5150          0.0372
 8274.5000          2.3972        172.1961         92.1508          0.9211          0.4230          0.0197
 8275.0000          2.3829        182.3491         93.4826          0.9938          0.3310          0.0022
 8275.5000          2.3774        183.8254         95.3779          0.9969          0.6655          0.0011
 8276.0000          2.3924        183.2560         96.6066          1.0000          1.0000          0.0000
 8276.5000          2.4151        188.3397        100.5623          1.0000          1.0000          0.0000
 8277.0000          2.4310        188.4189        101.3105          1.0000          1.0000          0.0000
 8277.5000          2.4364        197.6423        101.6966          1.0000          1.0000          0.0000
 8278.0000          2.4347        198.2769        100.2257          1.0000          1.0000          0.0000
 8278.5000          2.4292        196.9025        100.2994          1.0000          1.0000          0.0000
 8279.0000          2.4294        196.8973        100.3705          1.0000          1.0000          0.0000
 8279.5000          2.4332        193.2980         99.8400          1.0000          1.0000          0.0000
 8280.0000          2.4250        205.1902        101.5550          1.0000          1.0000          0.0000
 8280.5000          2.4036        206.1132        102.7287          0.9718          1.0000          0.0124
 8281.0000          2.3796        202.5518        105.1042          0.9436          1.0000          0.0248
 8281.5000          2.3651        217.7702        106.1931          0.9526          1.0000          0.0215
 8282.0000          2.3646        218.7281        104.2043          0.9616          1.0000          0.0182
 8282.5000          2.3737        211.0888        105.5353          0.9733          1.0000          0.0122
 8283.0000          2.3899        211.1206        104.9306          0.9851          1.0000          0.0062
 8283.5000          2.4168        206.1221        104.9743          0.9926          1.0000          0.0031
 8284.0000          2.4531        203.7958        103.9264          1.0000          1.0000          0.0000
 8284.5000          2.4834        193.4346         98.2508          0.9365          0.9935          0.0179
 8285.0000          2.4925        187.5387         97.2757          0.8730          0.9870          0.0358
 8285.5000          2.4789        187.1088         98.1690          0.8518          0.9935          0.0470
 8286.0000          2.4567        185.2172         98.5220          0.8305          1.0000          0.0582
 8286.5000          2.4414        198.0198         98.7812          0.9087          1.0000          0.0319
 8287.0000          2.4482        200.1571        100.2415          0.9869          1.0000          0.0056
 8287.5000          2.4716        199.8553        100.7052          0.9934          1.0000          0.0028
 8288.0000          2.4764        199.4051         98.7033          1.0000          1.0000          0.0000
 8288.5000          2.4572        199.8658         96.3880          0.9552          1.0000          0.0167
 8289.0000          2.4708        196.9710         98.4688          0.9103          1.0000          0.0334
 8289.5000          2.5851        197.2380         94.7122          0.7912          1.0000          0.0796
 8290.0000          2.7542        194.6690         94.6646          0.6721          1.0000          0.1259
 8290.5000          2.8567        196.7685         96.1123          0.6708          1.0000          0.1328
 8291.0000          2.7931        196.7788         97.0733          0.6695          1.0000          0.1397
 8291.5000          2.6387        198.9406         97.5105          0.7843          1.0000          0.0899
 8292.0000          2.5143        200.9957        102.1734          0.8992          1.0000          0.0400
 8292.5000          2.4687        208.1040        102.5723          0.9066          1.0000          0.0382
 8293.0000          2.4577        212.3399        103.6414          0.9140          1.0000          0.0365
 8293.5000          2.4482        218.6240        107.7844          0.9178          1.0000          0.0353
 8294.0000          2.4470        210.6917        107.6645          0.9216          1.0000          0.0341
 8294.5000          2.4587        208.4705        108.8544          0.9607          1.0000          0.0171
 8295.0000          2.4756        203.3679        109.1800          0.9997          1.0000          0.0001
 8295.5000          2.4867        197.3607        107.0348          0.8776          0.8987          0.0386
 8296.0000          2.4774        189.5407        102.1460          0.7555          0.7974          0.0772
 8296.5000          2.4476        170.6068        101.2744          0.6730          0.6301          0.0878
 8297.0000          2.4171        165.8654         86.7034          0.5905          0.4627          0.0983
 8297.5000          2.3977        162.8296         86.2477          0.6346          0.3823          0.0925
 8298.0000          2.3802        162.6479         86.3858          0.6787          0.3019          0.0866
 8298.5000          2.3644        161.7971         86.7930          0.7020          0.2741          0.0861
 8299.0000          2.3589        162.1672         88.2566          0.7253          0.2463          0.0857
 8299.5000          2.3605        163.3481         88.7791          0.7267          0.3066          0.0861
 8300.0000          2.3597        163.3173         89.7632          0.7281          0.3669          0.0866
 8300.5000          2.3524        164.8845         91.0291          0.7612          0.3605          0.0781
 8301.0000          2.3412        165.9062         92.6493          0.7942          0.3541          0.0697
