~Version Information
VERS  .          2.0                              :CWLS Log Ascii Standard - Version 2.0
WRAP  .          NO                               :One line per depth step
~Well Information Block
#MNEM.UNIT       Data Type                        Information
#---------       ---------                        -------------------------------
STRT  .F         9346.00000                       :START DEPTH
STOP  .F         2030.00000                       :STOP DEPTH
STEP  .F         -0.50000                         :INCREMENT
NULL  .          -999.25                          :NULL DATA VALUE
COMP  .          ************                     :COMPANY
WELL  .          ********                         :WELL
FLD   .          ******                           :FIELD
LOC   .                                           :LOCATION
PROV  .                                           :PROVINCE
STAT  .                                           :STATE
CNTY  .                                           :COUNTY
CTRY  .          ************                     :COUNTRY
DATE  .                                           :DATE
UWI   .          ********                         :UNIQUE WELL UWI
LIC   .                                           :LICENSE NUMBER
API   .                                           :API NUMBER
SRVC  .          *****                            :SERVICE COMPANY
~Parameter Information Block
#MNEM.UNIT       Value                            Description
#---------       ---------                        -------------
~Curve Information Block
#MNEM.UNIT       API Code            Curve    Description
#--------        --------------      -----    -------------------
DEPT  .F                             :0       Index
CAL   .                              :1       Calibration Curve             
ASN   .OHMM                          :2       Amplified Short Normal        
I6FR  .OHMM                          :3       I6FR - Deep Induction Log - PDVSA
DPHI  .V/V                           :4       Density Porosity              
GR    .GAPI                          :5       Gamma Ray                     
NPHI  .V/V                           :6       Thermal Neutron Porosity (original Ratio Method) in Selected Lithology
SP    .MV                            :7       Spontaneous Potential         
~Ascii Data Section
# ...
   8316.50000      13.09458       3.70000       3.30000       0.18882      89.49223       0.42321    -999.25000 
   8316.00000      13.17458       3.70000       3.30000       0.21182      88.88731       0.41821    -999.25000 
   8315.50000      13.36047       3.80000       3.50000       0.22479      88.16579       0.41767    -999.25000 
   8315.00000      13.63047       3.90000       3.70000       0.22979      86.95698       0.42067    -999.25000 
   8314.50000      13.87539       4.00000       3.80000       0.23228      86.58762       0.42256    -999.25000 
   8314.00000      14.10039       4.10000       3.90000       0.23278      89.40883       0.42356    -999.25000 
   8313.50000      14.01331       4.10000       3.90000       0.22687      92.23169       0.42874    -999.25000 
   8313.00000      13.67831       4.10000       3.90000       0.21587      95.05225       0.43724    -999.25000 
   8312.50000      13.58573       4.10000       3.90000       0.21908      95.85435       0.44741    -999.25000 
   8312.00000      13.68573       4.10000       3.90000       0.23358      90.21176       0.45891    -999.25000 
   8311.50000      13.68542       4.10000       3.80000       0.23861      86.51207       0.46233    -999.25000 
   8311.00000      13.60542       4.10000       3.70000       0.23611      88.52676       0.45933    -999.25000 
   8310.50000      13.43625       3.90000       3.50000       0.23611      89.72928       0.45605    -999.25000 
   8310.00000      13.19625       3.70000       3.30000       0.23811      88.72193       0.45255    -999.25000 
   8309.50000      13.10115       3.60000       3.10000       0.25015      88.51429       0.46521    -999.25000 
   8309.00000      13.12115       3.50000       2.90000       0.27015      90.32886       0.49071    -999.25000 
   8308.50000      13.25260       3.50000       2.80000       0.28792      92.74438       0.50284    -999.25000 
   8308.00000      13.47260       3.50000       2.70000       0.30392      96.57230       0.50434    -999.25000 
   8307.50000      13.53656       3.50000       2.70000       0.29512      97.62077       0.49998    -999.25000 
   8307.00000      13.47656       3.50000       2.70000       0.26662      92.58235       0.49098    -999.25000 
   8306.50000      13.33854       3.50000       2.80000       0.24453      89.33263       0.48143    -999.25000 
   8306.00000      13.13854       3.50000       2.90000       0.22753      89.73557       0.47143    -999.25000 
   8305.50000      12.93018       3.70000       3.10000       0.21080      90.62330       0.46087    -999.25000 
   8305.00000      12.71518       3.90000       3.30000       0.19430      92.43719       0.44987    -999.25000 
   8304.50000      12.54198       4.00000       3.50000       0.18226      92.15194       0.42884    -999.25000 
   8304.00000      12.40206       4.10000       3.70000       0.17377      88.12256       0.39986    -999.25000 
   8303.50000      12.29550       4.20000       3.70000       0.17612      85.24213       0.39618    -999.25000 
   8303.00000      12.21550       4.30000       3.70000       0.18712      84.28515       0.41268    -999.25000 
   8302.50000      12.41641       4.40000       3.70000       0.20313      85.32600       0.42612    -999.25000 
   8302.00000      12.84141       4.50000       3.70000       0.22313      89.50912       0.43712    -999.25000 
   8301.50000      13.13013       4.50000       3.60000       0.23784      92.00000       0.44812    -999.25000 
   8301.00000      13.31013       4.50000       3.50000       0.24834      92.00000       0.45912    -999.25000 
   8300.50000      13.52350       4.40000       3.40000       0.24243      91.07198       0.46650    -999.25000 
   8300.00000      13.76350       4.30000       3.30000       0.22343      88.85484       0.47100    -999.25000 
   8299.50000      13.70312       4.30000       3.40000       0.21222      87.07492       0.47578    -999.25000 
   8299.00000      13.40312       4.30000       3.50000       0.20722      85.86610       0.48078    -999.25000 
   8298.50000      13.07253       4.30000       3.60000       0.19610      85.13216       0.47633    -999.25000 
   8298.00000      12.71753       4.30000       3.70000       0.18010      84.98106       0.46433    -999.25000 
   8297.50000      12.51550       4.50000       3.90000       0.17995      86.65289       0.43063    -999.25000 
   8297.00000      12.43550       4.70000       4.10000       0.19245      90.43253       0.37963    -999.25000 
   8296.50000      12.68647       4.80000       4.10000       0.20746      90.39685       0.36840    -999.25000 
   8296.00000      13.20147       4.90000       4.10000       0.22446      86.21637       0.38890    -999.25000 
   8295.50000      13.55237       5.10000       4.20000       0.23117      83.30336       0.40801    -999.25000 
   8295.00000      13.77238       5.30000       4.30000       0.22967      81.69077       0.42601    -999.25000 
   8294.50000      13.80325       5.20000       4.10000       0.23178      82.00320       0.44429    -999.25000 
   8294.00000      13.68325       5.10000       3.90000       0.23678      84.16899       0.46279    -999.25000 
   8293.50000      13.60775       5.10000       3.70000       0.24595      82.58736       0.47907    -999.25000 
   8293.00000      13.56775       5.10000       3.50000       0.25845      77.59821       0.49357    -999.25000 
   8292.50000      13.65012       5.10000       3.50000       0.27485      75.95226       0.49666    -999.25000 
   8292.00000      13.83012       5.10000       3.50000       0.29435      77.16107       0.49066    -999.25000 
   8291.50000      13.82100       5.10000       3.60000       0.30745      79.70966       0.48272    -999.25000 
   8291.00000      13.66100       5.10000       3.70000       0.31545      83.33610       0.47322    -999.25000 
   8290.50000      13.39274       5.20000       3.70000       0.28788      82.95000       0.45289    -999.25000 
   8290.00000      13.03790       5.30000       3.70000       0.23191      79.52351       0.42390    -999.25000 
   8289.50000      12.83558       5.60000       4.20000       0.20367      78.10000       0.40517    -999.25000 
   8289.00000      12.75558       5.90000       4.70000       0.19767      78.10000       0.39467    -999.25000 
   8288.50000      12.67558       6.30000       5.00000       0.18667      79.18718       0.38112    -999.25000 
   8288.00000      12.59558       6.70000       5.30000       0.17167      81.00115       0.36512    -999.25000 
   8287.50000      12.53779       7.10000       6.40000       0.16722      79.59507       0.34579    -999.25000 
   8287.00000      12.49779       7.50000       7.50000       0.17122      76.17010       0.32379    -999.25000 
   8286.50000      12.43558       8.20000       7.80000       0.18161      73.12540       0.31095    -999.25000 
   8286.00000      12.35558       8.90000       8.10000       0.19711      70.30295       0.30545    -999.25000 
   8285.50000      12.30890       9.30000       8.80000       0.20678      66.44208       0.30744    -999.25000 
   8285.00000      12.28890       9.70000       9.50000       0.21178      62.00976       0.31544    -999.25000 
   8284.50000      12.28000      10.20000      10.90000       0.21095      61.29706       0.32289    -999.25000 
   8284.00000      12.28000      10.70000      12.30000       0.20569      62.50588       0.32957    -999.25000 
   8283.50000      12.28827      11.10000      13.00000       0.20052      65.75442       0.33796    -999.25000 
   8283.00000      12.30595      11.50000      13.70000       0.19521      69.98668       0.34857    -999.25000 
   8282.50000      12.32729      11.30000      12.40000       0.18644      70.88321       0.35837    -999.25000 
   8282.00000      12.36265      11.10000      11.10000       0.16434      70.27880       0.36500    -999.25000 
   8281.50000      12.39801      10.80000      10.80000       0.14224      72.51428       0.37163    -999.25000 
