~Version Information
VERS  .          2.0                              :CWLS Log Ascii Standard - Version 2.0
WRAP  .          NO                               :One line per depth step
~Well Information Block
#MNEM.UNIT       Data Type                        Information
#---------       ---------                        -------------------------------
STRT  .F         9346.00000                       :START DEPTH
STOP  .F         2030.00000                       :STOP DEPTH
STEP  .F         -0.50000                         :INCREMENT
NULL  .          -999.25                          :NULL DATA VALUE
COMP  .          ************                     :COMPANY
WELL  .          ********                         :WELL
FLD   .          ******                           :FIELD
LOC   .                                           :LOCATION
PROV  .                                           :PROVINCE
STAT  .                                           :STATE
CNTY  .                                           :COUNTY
CTRY  .          ************                     :COUNTRY
DATE  .                                           :DATE
UWI   .          ********                         :UNIQUE WELL UWI
LIC   .                                           :LICENSE NUMBER
API   .                                           :API NUMBER
SRVC  .          *****                            :SERVICE COMPANY
~Parameter Information Block
#MNEM.UNIT       Value                            Description
#---------       ---------                        -------------
~Curve Information Block
#MNEM.UNIT       API Code            Curve    Description
#--------        --------------      -----    -------------------
DEPT  .F                             :0       Index
CAL   .                              :1       Calibration Curve             
ASN   .OHMM                          :2       Amplified Short Normal        
I6FR  .OHMM                          :3       I6FR - Deep Induction Log - PDVSA
DPHI  .V/V                           :4       Density Porosity              
GR    .GAPI                          :5       Gamma Ray                     
NPHI  .V/V                           :6       Thermal Neutron Porosity (original Ratio Method) in Selected Lithology
SP    .MV                            :7       Spontaneous Potential         
~Ascii Data Section
# ...
   9133.00000      11.96754      33.30000      39.90000       0.22981      57.44667       0.30757    -999.25000 
   9132.50000      11.98492      33.80000      44.60000       0.22782      55.90167       0.30731    -999.25000 
   9132.00000      12.02487      34.30000      49.30000       0.22432      52.50167       0.30781    -999.25000 
   9131.50000      12.01517      34.55000      57.60000       0.22052      51.00000       0.30148    -999.25000 
   9131.00000      11.97517      34.80000      65.90000       0.21652      51.00000       0.29098    -999.25000 
   9130.50000      11.96000      34.95000      67.90000       0.21997      52.56333       0.29010    -999.25000 
   9130.00000      11.96000      35.10000      69.90000       0.22797      55.36333       0.29510    -999.25000 
   9129.50000      11.96000      35.45000      68.95000       0.22790      55.48333       0.29607    -999.25000 
   9129.00000      11.96000      35.80000      68.00000       0.22290      53.48333       0.29457    -999.25000 
   9128.50000      11.96000      35.80000      68.00000       0.21728      51.53917       0.29307    -999.25000 
   9128.00000      11.96000      35.80000      68.00000       0.21127      49.63916       0.29157    -999.25000 
   9127.50000      11.97242      35.70000      63.95000       0.20931      50.75417       0.29597    -999.25000 
   9127.00000      11.99242      35.60000      59.90000       0.20981      54.25417       0.30397    -999.25000 
   9126.50000      12.00000      35.70000      57.95000       0.20038      55.01833       0.30390    -999.25000 
   9126.00000      12.00000      35.80000      56.00000       0.18488      53.61834       0.29890    -999.25000 
   9125.50000      12.00000      35.80000      56.00000       0.18397      52.10667       0.29576    -999.25000 
   9125.00000      12.00000      35.80000      56.00000       0.19197      50.50667       0.29376    -999.25000 
   9124.50000      11.98758      35.80000      56.00000       0.20711      49.68833       0.29331    -999.25000 
   9124.00000      11.96758      35.80000      56.00000       0.22661      49.48833       0.29381    -999.25000 
   9123.50000      11.97242      35.85000      56.00000       0.23400      50.62833       0.29493    -999.25000 
   9123.00000      11.99242      35.90000      56.00000       0.23400      52.82833       0.29643    -999.25000 
   9122.50000      12.00000      36.10000      56.95000       0.23835      52.90667       0.29452    -999.25000 
   9122.00000      12.00000      36.30000      57.90000       0.24535      51.30666       0.29052    -999.25000 
   9121.50000      12.00000      36.60000      59.95000       0.24738      50.37666       0.28776    -999.25000 
   9121.00000      12.00000      36.90000      62.00000       0.24638      49.97667       0.28576    -999.25000 
   9120.50000      12.00000      37.35000      63.95000       0.24724      51.36333       0.28748    -999.25000 
   9120.00000      12.00000      37.80000      65.90000       0.24924      54.16333       0.29148    -999.25000 
   9119.50000      12.01242      38.70000      71.95000       0.24286      54.84167       0.29548    -999.25000 
   9119.00000      12.03242      39.60000      78.00000       0.23136      53.84167       0.29948    -999.25000 
   9118.50000      12.01517      39.85000      80.00000       0.21800      52.73000       0.30193    -999.25000 
   9118.00000      11.97517      40.10000      82.00000       0.20350      51.53000       0.30343    -999.25000 
   9117.50000      11.96000      40.50000      78.00000       0.20172      50.55333       0.30276    -999.25000 
   9117.00000      11.96000      40.90000      74.00000       0.20772      49.75333       0.30076    -999.25000 
   9116.50000      11.97242      41.35000      73.00000       0.21404      50.51667       0.29783    -999.25000 
   9116.00000      11.99242      41.80000      72.00000       0.22054      52.51667       0.29433    -999.25000 
   9115.50000      12.00000      42.05000      73.00000       0.22735      55.07500       0.28524    -999.25000 
   9115.00000      12.00000      42.30000      74.00000       0.23435      58.07500       0.27274    -999.25000 
   9114.50000      12.00000      42.55000      79.95000       0.24072      58.95333       0.27017    -999.25000 
   9114.00000      12.00000      42.80000      85.90000       0.24672      58.15333       0.27367    -999.25000 
   9113.50000      11.98758      43.35000      99.95000       0.24838      57.24166       0.27717    -999.25000 
   9113.00000      11.96758      43.90000     114.00000       0.24738      56.24166       0.28067    -999.25000 
   9112.50000      11.98483      44.35000     140.99994       0.24607      54.46000       0.27859    -999.25000 
   9112.00000      12.02483      44.80000     167.99989       0.24457      52.06000       0.27309    -999.25000 
   9111.50000      12.04000      44.85000     175.99989       0.23562      49.10167       0.26976    -999.25000 
   9111.00000      12.04000      44.90000     183.99989       0.22212      45.70167       0.26776    -999.25000 
   9110.50000      12.05242      44.90000     179.94989       0.21979      43.64283       0.27041    -999.25000 
   9110.00000      12.07242      44.90000     175.89990       0.22429      42.64375       0.27591    -999.25000 
   9109.50000      12.06758      44.75000     162.89990       0.22538      40.86500       0.27924    -999.25000 
   9109.00000      12.04758      44.60000     149.89990       0.22438      38.46500       0.28124    -999.25000 
   9108.50000      12.04000      44.10000     140.89990       0.22059      38.51250       0.28821    -999.25000 
   9108.00000      12.04000      43.60000     131.89990       0.21509      40.51250       0.29821    -999.25000 
   9107.50000      12.02758      42.85000     115.89995       0.20245      41.84500       0.30510    -999.25000 
   9107.00000      12.00758      42.10000      99.90000       0.18545      42.64500       0.31010    -999.25000 
   9106.50000      12.00000      41.00000      92.90000       0.18800      42.11000       0.31014    -999.25000 
   9106.00000      12.00000      39.90000      85.90000       0.20250      40.51000       0.30714    -999.25000 
   9105.50000      12.00000      39.35000      75.90000       0.20583      39.46625       0.30724    -999.25000 
   9105.00000      12.00000      38.80000      65.90000       0.20233      38.86625       0.30924    -999.25000 
   9104.50000      12.01237      36.45000      60.15000       0.19481      42.71625       0.30938    -999.25000 
   9104.00000      12.03238      34.10000      54.40000       0.18481      50.11625       0.30838    -999.25000 
   9103.50000      12.04000      33.35000      52.90000       0.16924      53.84500       0.30614    -999.25000 
   9103.00000      12.04000      32.60000      51.40000       0.15024      54.64500       0.30314    -999.25000 
   9102.50000      12.06166      30.60000      49.85000       0.13032      55.55625       0.30912    -999.25000 
   9102.00000      12.09666      28.60000      48.30000       0.10982      56.55625       0.32062    -999.25000 
   9101.50000      12.11000      27.75000      46.10000       0.10695      61.31094       0.31788    -999.25000 
   9101.00000      12.11000      26.90000      43.90000       0.11495      69.06094       0.30638    -999.25000 
   9100.50000      12.11000      26.00000      38.90000       0.13563      71.77687       0.29303    -999.25000 
   9100.00000      12.11000      25.10000      33.90000       0.16413      70.47688       0.27853    -999.25000 
   9099.50000      12.09762      24.60000      27.40000       0.18768      70.01125       0.26960    -999.25000 
   9099.00000      12.07763      24.10000      20.90000       0.20818      70.21126       0.26410    -999.25000 
   9098.50000      12.04525      23.80000      20.90000       0.21631      69.74375       0.26447    -999.25000 
   9098.00000      12.00525      23.50000      20.90000       0.21681      68.74375       0.26847    -999.25000 
