~Version Information
VERS  .          2.0                              :CWLS Log Ascii Standard - Version 2.0
WRAP  .          NO                               :One line per depth step
~Well Information Block
#MNEM.UNIT       Data Type                        Information
#---------       ---------                        -------------------------------
STRT  .F         9346.00000                       :START DEPTH
STOP  .F         2030.00000                       :STOP DEPTH
STEP  .F         -0.50000                         :INCREMENT
NULL  .          -999.25                          :NULL DATA VALUE
COMP  .          ************                     :COMPANY
WELL  .          ********                         :WELL
FLD   .          ******                           :FIELD
LOC   .                                           :LOCATION
PROV  .                                           :PROVINCE
STAT  .                                           :STATE
CNTY  .                                           :COUNTY
CTRY  .          ************                     :COUNTRY
DATE  .                                           :DATE
UWI   .          ********                         :UNIQUE WELL UWI
LIC   .                                           :LICENSE NUMBER
API   .                                           :API NUMBER
SRVC  .          *****                            :SERVICE COMPANY
~Parameter Information Block
#MNEM.UNIT       Value                            Description
#---------       ---------                        -------------
~Curve Information Block
#MNEM.UNIT       API Code            Curve    Description
#--------        --------------      -----    -------------------
DEPT  .F                             :0       Index
CAL   .                              :1       Calibration Curve             
ASN   .OHMM                          :2       Amplified Short Normal        
I6FR  .OHMM                          :3       I6FR - Deep Induction Log - PDVSA
DPHI  .V/V                           :4       Density Porosity              
GR    .GAPI                          :5       Gamma Ray                     
NPHI  .V/V                           :6       Thermal Neutron Porosity (original Ratio Method) in Selected Lithology
SP    .MV                            :7       Spontaneous Potential         
~Ascii Data Section
# ...
   9026.50000      11.87000      63.90000     143.94989       0.25684      47.55785       0.27831    -999.25000 
   9026.00000      11.87000      63.90000     141.89990       0.26633      45.25581       0.27881    -999.25000 
   9025.50000      11.87000      64.90000     137.94989       0.26326      43.41714       0.28022    -999.25000 
   9025.00000      11.87000      65.90000     133.99989       0.25226      42.04571       0.28222    -999.25000 
   9024.50000      11.87000      65.90000     132.94989       0.24249      42.10449       0.28300    -999.25000 
   9024.00000      11.87000      65.90000     131.89990       0.23349      43.86776       0.28300    -999.25000 
   9023.50000      11.88225      65.90000     138.94989       0.23122      44.57510       0.28851    -999.25000 
   9023.00000      11.90225      65.90000     145.99989       0.23323      43.79080       0.29751    -999.25000 
   9022.50000      11.89775      65.90000     159.99989       0.23890      42.63877       0.29733    -999.25000 
   9022.00000      11.87775      65.90000     173.99989       0.24690      40.87551       0.29133    -999.25000 
   9021.50000      11.85775      65.90000     180.99989       0.24724      40.67959       0.28716    -999.25000 
   9021.00000      11.83775      65.90000     187.99989       0.24274      43.61837       0.28416    -999.25000 
   9020.50000      11.84225      65.90000     184.94989       0.23641      45.41429       0.28422    -999.25000 
   9020.00000      11.86225      65.90000     181.89990       0.22891      44.43470       0.28622    -999.25000 
   9019.50000      11.87000      65.90000     176.89990       0.22692      43.45510       0.29251    -999.25000 
   9019.00000      11.87000      65.90000     171.89990       0.22842      42.47551       0.30151    -999.25000 
   9018.50000      11.87000      65.90000     166.89990       0.22900      41.57755       0.30500    -999.25000 
   9018.00000      11.87000      65.90000     161.89990       0.22900      40.98980       0.30500    -999.25000 
   9017.50000      11.87000      63.95000     147.94989       0.23145      40.69632       0.29918    -999.25000 
   9017.00000      11.87000      62.00000     133.99989       0.23545      41.87388       0.28968    -999.25000 
   9016.50000      11.85775      62.00000     129.94989       0.23822      42.77551       0.28478    -999.25000 
   9016.00000      11.83775      62.00000     125.89990       0.24023      41.79592       0.28278    -999.25000 
   9015.50000      11.84225      60.95000     120.89990       0.24314      40.83306       0.28935    -999.25000 
   9015.00000      11.86225      59.90000     115.89990       0.24664      40.04939       0.30135    -999.25000 
   9014.50000      11.87000      59.90000     112.89990       0.24586      39.19928       0.30477    -999.25000 
   9014.00000      11.87000      59.90000     109.89990       0.24236      36.89724       0.30278    -999.25000 
   9013.50000      11.87000      59.90000     109.89990       0.23304      34.60561       0.29924    -999.25000 
   9013.00000      11.87000      59.90000     109.89990       0.22004      37.29949       0.29474    -999.25000 
   9012.50000      11.87000      59.90000     111.94995       0.21990      39.99337       0.29055    -999.25000 
   9012.00000      11.87000      59.90000     114.00000       0.22790      42.73429       0.28655    -999.25000 
   9011.50000      11.87000      59.90000     115.94995       0.23284      45.47714       0.28714    -999.25000 
   9011.00000      11.87000      59.90000     117.89990       0.23584      48.36043       0.29064    -999.25000 
   9010.50000      11.88225      58.90000     122.89990       0.23149      51.25082       0.29414    -999.25000 
   9010.00000      11.90225      57.90000     127.89990       0.22249      49.87755       0.29764    -999.25000 
   9009.50000      11.91000      56.40000     129.89990       0.21287      47.91837       0.29992    -999.25000 
   9009.00000      11.91000      54.90000     131.89990       0.20288      46.16428       0.30142    -999.25000 
   9008.50000      11.91000      53.80000     134.94989       0.19533      44.45000       0.30629    -999.25000 
   9008.00000      11.91000      52.70000     137.99989       0.18933      41.91714       0.31329    -999.25000 
   9007.50000      11.92225      51.65000     139.94989       0.19068      39.17429       0.31416    -999.25000 
   9007.00000      11.94225      50.60000     141.89990       0.19668      40.12531       0.31116    -999.25000 
   9006.50000      11.93775      49.50000     132.94995       0.20390      42.28041       0.30510    -999.25000 
   9006.00000      11.91775      48.40000     124.00000       0.21190      45.65694       0.29710    -999.25000 
   9005.50000      11.91000      46.50000     113.00000       0.21561      49.53180       0.29308    -999.25000 
   9005.00000      11.91000      44.60000     102.00000       0.21661      50.14082       0.29158    -999.25000 
   9004.50000      11.92225      42.35000      82.95000       0.22251      49.16122       0.29345    -999.25000 
   9004.00000      11.94225      40.10000      63.90000       0.23151      48.33622       0.29745    -999.25000 
   9003.50000      11.96225      39.20000      60.30000       0.23776      47.60153       0.29839    -999.25000 
   9003.00000      11.98225      38.30000      56.70000       0.24226      46.60694       0.29739    -999.25000 
   9002.50000      12.02063      37.70000      53.40000       0.24247      45.43143       0.29700    -999.25000 
   9002.00000      12.07063      37.10000      50.10000       0.23997      45.62459       0.29700    -999.25000 
   9001.50000      12.07775      36.85000      46.85000       0.23349      46.94704       0.30006    -999.25000 
   9001.00000      12.05775      36.60000      43.60000       0.22449      46.53377       0.30506    -999.25000 
   9000.50000      12.06225      36.20000      43.75000       0.21181      44.42765       0.30669    -999.25000 
   9000.00000      12.08225      35.80000      43.90000       0.19681      44.36949       0.30619    -999.25000 
   8999.50000      12.06555      35.35000      45.90000       0.18917      46.67362       0.30264    -999.25000 
   8999.00000      12.02558      34.90000      47.90000       0.18617      48.58286       0.29714    -999.25000 
   8998.50000      12.02221      34.75000      53.90000       0.18592      49.95428       0.29469    -999.25000 
   8998.00000      12.04221      34.60000      59.90000       0.18742      50.95020       0.29419    -999.25000 
   8997.50000      12.05000      33.75000      57.95000       0.19227      51.34204       0.29492    -999.25000 
   8997.00000      12.05000      32.90000      56.00000       0.19927      53.25673       0.29642    -999.25000 
   8996.50000      12.03779      32.40000      53.20000       0.20261      58.10571       0.29731    -999.25000 
   8996.00000      12.01779      31.90000      50.40000       0.20361      60.69184       0.29781    -999.25000 
   8995.50000      12.03442      30.80000      47.60000       0.19973      57.99796       0.30166    -999.25000 
   8995.00000      12.07442      29.70000      44.80000       0.19273      55.89878       0.30766    -999.25000 
   8994.50000      12.10221      28.95000      42.45000       0.17169      55.50694       0.31671    -999.25000 
   8994.00000      12.12221      28.20000      40.10000       0.14169      55.41268       0.32771    -999.25000 
   8993.50000      12.13000      26.85000      37.85000       0.12481      56.39388       0.32925    -999.25000 
   8993.00000      12.13000      25.50000      35.60000       0.11631      56.81837       0.32475    -999.25000 
   8992.50000      12.15442      24.00000      30.70000       0.11269      54.66327       0.31537    -999.25000 
   8992.00000      12.19442      22.50000      25.80000       0.11219      53.74847       0.30287    -999.25000 
   8991.50000      12.21000      21.50000      23.45000       0.11047      60.75255       0.29800    -999.25000 
