~Version Information
VERS  .          2.0                              :CWLS Log Ascii Standard - Version 2.0
WRAP  .          NO                               :One line per depth step
~Well Information Block
#MNEM.UNIT       Data Type                        Information
#---------       ---------                        -------------------------------
STRT  .F         9346.00000                       :START DEPTH
STOP  .F         2030.00000                       :STOP DEPTH
STEP  .F         -0.50000                         :INCREMENT
NULL  .          -999.25                          :NULL DATA VALUE
COMP  .          ************                     :COMPANY
WELL  .          ********                         :WELL
FLD   .          ******                           :FIELD
LOC   .                                           :LOCATION
PROV  .                                           :PROVINCE
STAT  .                                           :STATE
CNTY  .                                           :COUNTY
CTRY  .          ************                     :COUNTRY
DATE  .                                           :DATE
UWI   .          ********                         :UNIQUE WELL UWI
LIC   .                                           :LICENSE NUMBER
API   .                                           :API NUMBER
SRVC  .          *****                            :SERVICE COMPANY
~Parameter Information Block
#MNEM.UNIT       Value                            Description
#---------       ---------                        -------------
~Curve Information Block
#MNEM.UNIT       API Code            Curve    Description
#--------        --------------      -----    -------------------
DEPT  .F                             :0       Index
CAL   .                              :1       Calibration Curve             
ASN   .OHMM                          :2       Amplified Short Normal        
I6FR  .OHMM                          :3       I6FR - Deep Induction Log - PDVSA
DPHI  .V/V                           :4       Density Porosity              
GR    .GAPI                          :5       Gamma Ray                     
NPHI  .V/V                           :6       Thermal Neutron Porosity (original Ratio Method) in Selected Lithology
SP    .MV                            :7       Spontaneous Potential         
~Ascii Data Section
# ...
   8210.00000      12.28000      21.90000      27.60000       0.26580      46.04971       0.34160    -999.25000 
   8209.50000      12.28000      22.20000      28.40000       0.27037      45.12486       0.34059    -999.25000 
   8209.00000      12.28000      22.50000      29.20000       0.27429      44.20000       0.34129    -999.25000 
   8208.50000      12.28000      22.50000      37.00000       0.27727      44.79628       0.34427    -999.25000 
   8208.00000      12.27262      22.50000      44.80000       0.27678      45.39255       0.34618    -999.25000 
   8207.50000      12.25401      22.00000      46.50000       0.27120      48.73320       0.34665    -999.25000 
   8207.00000      12.24462      21.50000      48.20000       0.26688      52.11201       0.34977    -999.25000 
   8206.50000      12.26324      20.50000      48.00000       0.26642      51.81284       0.36094    -999.25000 
   8206.00000      12.28186      19.50000      47.80000       0.26540      51.41532       0.37547    -999.25000 
   8205.50000      12.30046      17.90000      46.60000       0.25935      54.83619       0.42012    -999.25000 
   8205.00000      12.31909      16.30000      45.40000       0.25330      58.41366       0.46481    -999.25000 
   8204.50000      12.47940      14.80000      27.25000       0.23308      61.19058       0.47364    -999.25000 
   8204.00000      12.64686      13.30000       9.10000       0.21214      63.92350       0.48062    -999.25000 
   8203.50000      12.72481      11.80000       8.00000       0.19717      73.75791       0.47005    -999.25000 
   8203.00000      12.78068      10.30000       6.90000       0.18367      84.09254       0.45515    -999.25000 
   8202.50000      12.76345      10.20000       6.80000       0.17169      86.32003       0.44360    -999.25000 
   8202.00000      12.71437      10.10000       6.70000       0.16187      87.86040       0.43501    -999.25000 
   8201.50000      12.65042      10.40000       7.40000       0.16077      84.25341       0.42663    -999.25000 
   8201.00000      12.51708      10.70000       8.10000       0.18677      80.12960       0.41597    -999.25000 
   8200.50000      12.38375      10.70000       8.20000       0.21277      76.85114       0.40530    -999.25000 
   8200.00000      12.26743      10.70000       8.30000       0.23455      73.67102       0.39523    -999.25000 
   8199.50000      12.21076      11.70000       9.90000       0.24155      73.12462       0.38723    -999.25000 
   8199.00000      12.15409      12.70000      11.50000       0.24855      72.92588       0.37922    -999.25000 
   8198.50000      12.11518      13.60000      16.30000       0.25518      68.92381       0.37337    -999.25000 
   8198.00000      12.13851      14.50000      21.10000       0.26052      64.35238       0.37504    -999.25000 
   8197.50000      12.16184      14.60000      22.10000       0.26585      61.69995       0.37670    -999.25000 
   8197.00000      12.18000      14.70000      23.10000       0.26843      59.36491       0.37763    -999.25000 
   8196.50000      12.18000      14.60000      23.15000       0.26131      60.29969       0.37595    -999.25000 
   8196.00000      12.18000      14.50000      23.20000       0.25190      61.84006       0.37369    -999.25000 
   8195.50000      12.18000      14.40000      22.95000       0.23368      62.43009       0.36848    -999.25000 
   8195.00000      12.18000      14.30000      22.70000       0.21634      62.82754       0.36422    -999.25000 
   8194.50000      12.18000      14.00000      21.50000       0.20437      65.82546       0.36578    -999.25000 
   8194.00000      12.18451      13.70000      20.30000       0.19184      69.40311       0.36407    -999.25000 
   8193.50000      12.20533      13.00000      19.60000       0.17727      67.69938       0.35054    -999.25000 
   8193.00000      12.23228      12.30000      18.90000       0.16408      64.72047       0.33931    -999.25000 
   8192.50000      12.27391      11.50000      17.10000       0.15420      66.14555       0.33359    -999.25000 
   8192.00000      12.31553      10.70000      15.30000       0.14703      68.72940       0.33311    -999.25000 
   8191.50000      12.35716      10.00000      14.70000       0.14443      72.86191       0.34143    -999.25000 
   8191.00000      12.41757       9.30000      14.10000       0.14253      77.42968       0.34506    -999.25000 
   8190.50000      12.50087       8.95000      12.90000       0.14149      79.10870       0.34298    -999.25000 
   8190.00000      12.56206       8.60000      11.70000       0.13659      79.90372       0.34586    -999.25000 
   8189.50000      12.60369       8.25000      10.10000       0.12826      77.25591       0.35315    -999.25000 
   8189.00000      12.64531       7.90000       8.50000       0.12848      73.48242       0.36169    -999.25000 
   8188.50000      12.68694       7.60000       7.90000       0.13420      73.67598       0.37106    -999.25000 
   8188.00000      12.74284       7.30000       7.30000       0.13422      75.26604       0.38757    -999.25000 
   8187.50000      12.80529       7.00000       6.90000       0.13161      74.54389       0.40734    -999.25000 
   8187.00000      12.85181       6.70000       6.50000       0.12305      72.95502       0.41677    -999.25000 
   8186.50000      12.89345       6.60000       6.30000       0.11264      77.60559       0.42302    -999.25000 
   8186.00000      12.86494       6.50000       6.10000       0.11451      84.76087       0.40384    -999.25000 
   8185.50000      12.82330       6.40000       6.00000       0.11867      85.12345       0.37990    -999.25000 
   8185.00000      12.78169       6.30000       5.90000       0.11469      82.59111       0.38135    -999.25000 
   8184.50000      12.74004       6.20000       5.90000       0.11000      83.26894       0.38500    -999.25000 
   8184.00000      12.71922       6.10000       5.90000       0.11156      85.40559       0.38968    -999.25000 
   8183.50000      12.70321       6.00000       5.90000       0.11216      84.12112       0.39400    -999.25000 
   8183.00000      12.74482       5.90000       5.90000       0.10124      81.19147       0.39400    -999.25000 
   8182.50000      12.78969       5.90000       6.00000       0.09426      80.85735       0.39473    -999.25000 
   8182.00000      12.85210       5.90000       6.10000       0.10882      81.85114       0.39941    -999.25000 
   8181.50000      12.89515       5.90000       6.10000       0.11988      81.16811       0.40057    -999.25000 
   8181.00000      12.87434       5.90000       6.10000       0.11936      79.57806       0.39017    -999.25000 
   8180.50000      12.86000       6.00000       6.10000       0.12013      79.25274       0.38316    -999.25000 
   8180.00000      12.86000       6.10000       6.10000       0.12378      79.65011       0.38368    -999.25000 
   8179.50000      12.84379       6.10000       5.90000       0.12701      79.80000       0.38299    -999.25000 
   8179.00000      12.80217       6.10000       5.70000       0.12961      79.80000       0.38039    -999.25000 
   8178.50000      12.77027       6.00000       5.70000       0.13076      80.40600       0.37949    -999.25000 
   8178.00000      12.74946       5.90000       5.70000       0.13024      81.39938       0.38053    -999.25000 
   8177.50000      12.80813       5.80000       5.40000       0.12801      84.14301       0.38412    -999.25000 
   8177.00000      12.93301       5.70000       5.10000       0.12437      88.06847       0.38985    -999.25000 
   8176.50000      12.98973       5.60000       4.90000       0.11878      91.20837       0.39557    -999.25000 
   8176.00000      13.00535       5.50000       4.70000       0.11202      93.79110       0.40129    -999.25000 
   8175.50000      13.01000       5.50000       4.40000       0.11000      94.10580       0.41724    -999.25000 
   8175.00000      13.01000       5.50000       4.10000       0.11000      92.71449       0.43754    -999.25000 
