~VERSION INFORMATION 
VERS  .    2.0                                     :CWLS Log ASCII Standard - VERSION 2.0
WRAP  .    NO                                      :One Line per Depth step
#--------------------------------------------------
~WELL INFORMATION 
#MNEM           .UNIT                      DATA            :DESCRIPTION
#----            ------          --------------            -----------------------------
STRT            .ft                   7364.0000            :START DEPTH
STOP            .ft                   8538.0000            :STOP DEPTH
STEP            .ft                         0.5            :STEP
NULL            .                     -999.0000            :NULL VALUE
COMP            .                         PDVSA            :COMPANY
WELL            .                        Well-2            :WELL NAME
FLD             .                       GUAFITA            :FIELD NAME
SRVC            .                       UNKNOWN            :SERVICE COMPANY
DATE            .                       UNKNOWN            :LOG DATE(Composite Date for Composite LAP) (MM/DD/YYYY)
CNTY            .                       UNKNOWN            :COUNTY
STAT            .                       BARINAS            :STATE or PROVINCE
PROV            .                       BARINAS            :STATE or PROVINCE
CTRY            .                     VENEZUELA            :COUNTRY
API             .                                          :API NUMBER
UWI             .                                          :UNIQUE WELL ID
LOC             .                       GUAFITA            :FIELD LOCATION
#--------------------------------------------------
~CURVE INFORMATION
#MNEM           .UNIT                  API CODE            :DESCRIPTION
#----            ------          --------------            -----------------------------
DEPTH           .ft                                        : Depth Index
RHOB            .g/cm3                                     : Density
DTSM            .us/ft                                     : Delta-T Shear
DTCO            .us/ft                                     : Delta-T Compressional
VSH             .v/v                                       : Shale Volume
SW              .v/v                                       : Water Saturation
NPHI            .fraction                                  : Neutron Porosity
#--------------------------------------------------
~PARAMETER INFORMATION
#MNEM           .UNIT                  VALUE               :DESCRIPTION
#----           -------          --------------            -----------------------------
EKB             .ft                   487.00000            :Elevation of Depth Reference (Kelly Bushing)
EGL             .ft                   457.00000            :Elevation of Ground Level
#-------------------------------------------------------------
#  DEPTH             RHOB           DTSM           DTCO             VSH             SW              PHI
~ASCII
# ...
 7888.9995          2.5454        180.3210         86.4816       -999.0000       -999.0000       -999.0000
 7889.5000          2.5672        181.4949         86.2156       -999.0000       -999.0000       -999.0000
 7890.0000          2.5710        181.0644         86.2369       -999.0000       -999.0000       -999.0000
 7890.5000          2.5603        180.7215         86.2956       -999.0000       -999.0000       -999.0000
 7891.0005          2.5490        180.7303         86.3687       -999.0000       -999.0000       -999.0000
 7891.5000          2.5404        181.3027         86.3946       -999.0000       -999.0000       -999.0000
 7892.0000          2.5306        183.1739         88.4455       -999.0000       -999.0000       -999.0000
 7892.5000          2.5206        186.7922         88.7894       -999.0000       -999.0000       -999.0000
 7892.9995          2.5166        188.6873         90.4193       -999.0000       -999.0000       -999.0000
 7893.5000          2.5150        191.3874         94.0295       -999.0000       -999.0000       -999.0000
 7894.0000          2.5138        192.0617         94.5996       -999.0000       -999.0000       -999.0000
 7894.5000          2.5193        190.1127         93.0882       -999.0000       -999.0000       -999.0000
 7895.0005          2.5313        187.0993         93.4855       -999.0000       -999.0000       -999.0000
 7895.5000          2.5309        178.7224         88.6655       -999.0000       -999.0000       -999.0000
 7896.0000          2.5116        176.6123         86.5144       -999.0000       -999.0000       -999.0000
 7896.5000          2.4910        171.3250         86.2762       -999.0000       -999.0000       -999.0000
 7896.9995          2.4828        169.7090         85.8420       -999.0000       -999.0000       -999.0000
 7897.5000          2.4807        166.4991         86.1359       -999.0000       -999.0000       -999.0000
 7898.0000          2.4798        167.1093         86.2797       -999.0000       -999.0000       -999.0000
 7898.5000          2.4786        168.0046         86.5085       -999.0000       -999.0000       -999.0000
 7899.0005          2.4792        169.4878         86.5177       -999.0000       -999.0000       -999.0000
 7899.5000          2.4722        170.9927         86.3765       -999.0000       -999.0000       -999.0000
 7900.0000          2.4516        172.6590         88.5772       -999.0000       -999.0000       -999.0000
 7900.5000          2.4291        174.7865         87.9180       -999.0000       -999.0000       -999.0000
 7900.9995          2.4209        174.6867         88.0124       -999.0000       -999.0000       -999.0000
 7901.5000          2.4309        175.5806         86.9545       -999.0000       -999.0000       -999.0000
 7902.0000          2.4449        176.2444         86.5469       -999.0000       -999.0000       -999.0000
 7902.5000          2.4489        173.4465         86.0116       -999.0000       -999.0000       -999.0000
 7903.0005          2.4472        176.6795         87.8917       -999.0000       -999.0000       -999.0000
 7903.5000          2.4506        173.3070         89.3842       -999.0000       -999.0000       -999.0000
 7904.0000          2.4575        172.8292         89.8587       -999.0000       -999.0000       -999.0000
 7904.5000          2.4586        169.9779         89.0806       -999.0000       -999.0000       -999.0000
 7904.9995          2.4519        169.5355         86.4091       -999.0000       -999.0000       -999.0000
 7905.5000          2.4491        169.1071         84.8323       -999.0000       -999.0000       -999.0000
 7906.0000          2.4562        174.5819         84.8835       -999.0000       -999.0000       -999.0000
 7906.5000          2.4603        175.6697         86.5441       -999.0000       -999.0000       -999.0000
 7907.0005          2.4513        176.6061         86.7814       -999.0000       -999.0000       -999.0000
 7907.5000          2.4375        176.3310         87.1482       -999.0000       -999.0000       -999.0000
 7908.0000          2.4326        176.5965         86.9594       -999.0000       -999.0000       -999.0000
 7908.5000          2.4374        176.4185         87.2680       -999.0000       -999.0000       -999.0000
 7908.9995          2.4484        175.3881         86.9466       -999.0000       -999.0000       -999.0000
 7909.5000          2.4607        175.8167         86.8007       -999.0000       -999.0000       -999.0000
 7910.0000          2.4657        176.3522         89.1576       -999.0000       -999.0000       -999.0000
 7910.5000          2.4666        176.5595         89.4769       -999.0000       -999.0000       -999.0000
 7911.0005          2.4812        177.7230         89.8316       -999.0000       -999.0000       -999.0000
 7911.5000          2.5145        176.0324         89.9915       -999.0000       -999.0000       -999.0000
 7912.0000          2.5487        174.5446         89.7825       -999.0000       -999.0000       -999.0000
 7912.5000          2.5642        172.0809         82.5075       -999.0000       -999.0000       -999.0000
 7912.9995          2.5570        166.4135         81.4841       -999.0000       -999.0000       -999.0000
 7913.5000          2.5440        166.8520         78.8842       -999.0000       -999.0000       -999.0000
 7914.0000          2.5365        171.5609         80.5703       -999.0000       -999.0000       -999.0000
 7914.5000          2.5323        173.4030         84.0957       -999.0000       -999.0000       -999.0000
 7915.0005          2.5253        178.6894         86.8123       -999.0000       -999.0000       -999.0000
 7915.5000          2.5165        181.6833         92.1296       -999.0000       -999.0000       -999.0000
 7916.0000          2.5150        189.8434         93.6435       -999.0000       -999.0000       -999.0000
 7916.5000          2.5219        192.0995         93.3932       -999.0000       -999.0000       -999.0000
 7916.9995          2.5255        193.5096         93.1609       -999.0000       -999.0000       -999.0000
 7917.5000          2.5225        194.1208         90.5400       -999.0000       -999.0000       -999.0000
 7918.0000          2.5215        189.0035         90.2579       -999.0000       -999.0000       -999.0000
 7918.5000          2.5309        184.6590         89.7685       -999.0000       -999.0000       -999.0000
 7919.0005          2.5429        182.0402         89.9887       -999.0000       -999.0000       -999.0000
 7919.5000          2.5479        178.2857         89.4727       -999.0000       -999.0000       -999.0000
 7920.0000          2.5460        169.3735         86.2738       -999.0000       -999.0000       -999.0000
 7920.5000          2.5417        168.2556         86.1502       -999.0000       -999.0000       -999.0000
 7920.9995          2.5339        167.9917         85.8428       -999.0000       -999.0000       -999.0000
 7921.5000          2.5229        167.0834         84.6367       -999.0000       -999.0000       -999.0000
 7922.0000          2.5193        167.1532         83.4541       -999.0000       -999.0000       -999.0000
 7922.5000          2.5266        167.0172         83.6312       -999.0000       -999.0000       -999.0000
 7923.0005          2.5348        169.8558         84.6085       -999.0000       -999.0000       -999.0000
 7923.5000          2.5403        175.1430         86.9555       -999.0000       -999.0000       -999.0000
 7924.0000          2.5423        183.5360         89.8813       -999.0000       -999.0000       -999.0000
 7924.5000          2.5414        189.0023         89.8291       -999.0000       -999.0000       -999.0000
 7924.9995          2.5360        189.9573         90.1632       -999.0000       -999.0000       -999.0000
 7925.5000          2.5191        196.4624         92.8869       -999.0000       -999.0000       -999.0000
 7926.0000          2.4916        197.1754         94.9718       -999.0000       -999.0000       -999.0000
