~VERSION INFORMATION 
VERS  .    2.0                                     :CWLS Log ASCII Standard - VERSION 2.0
WRAP  .    NO                                      :One Line per Depth step
#--------------------------------------------------
~WELL INFORMATION 
#MNEM           .UNIT                      DATA            :DESCRIPTION
#----            ------          --------------            -----------------------------
STRT            .ft                   6530.5000            :START DEPTH
STOP            .ft                   7560.0000            :STOP DEPTH
STEP            .ft                         0.5            :STEP
NULL            .                     -999.0000            :NULL VALUE
COMP            .                         PDVSA            :COMPANY
WELL            .                        Well-1            :WELL NAME
FLD             .                       GUAFITA            :FIELD NAME
SRVC            .                       UNKNOWN            :SERVICE COMPANY
DATE            .                       UNKNOWN            :LOG DATE(Composite Date for Composite LAP) (MM/DD/YYYY)
CNTY            .                       UNKNOWN            :COUNTY
STAT            .                       BARINAS            :STATE or PROVINCE
PROV            .                       BARINAS            :STATE or PROVINCE
CTRY            .                     VENEZUELA            :COUNTRY
API             .                                          :API NUMBER
UWI             .                                          :UNIQUE WELL ID
LOC             .                       GUAFITA            :FIELD LOCATION
#--------------------------------------------------
~CURVE INFORMATION
#MNEM           .UNIT                  API CODE            :DESCRIPTION
#----           -------          --------------            -----------------------------
DEPTH           .ft                                        : Depth Index
RHOB            .g/cm3                                     : Density
DTSM            .us/ft                                     : Delta-T Shear
DTCO            .us/ft                                     : Delta-T Compressional
SW              .v/v                                       : Water Saturation
NPHI            .fraction                                  : Neutron Porosity
VSH             .v/v                                       : Shale Volume
#--------------------------------------------------
~PARAMETER INFORMATION
#MNEM           .UNIT                  VALUE               :DESCRIPTION
#----           -------          --------------            -----------------------------
EKB             .ft                   481.00000            :Elevation of Depth Reference (Kelly Bushing)
EGL             .ft                   451.00000            :Elevation of Ground Level
#-------------------------------------------------------------
#  DEPTH             RHOB           DTSM           DTCO             SW              PHI            VSH
~ASCII
# ...
 7073.0000       -999.0000        149.1681         96.6603       -999.0000       -999.0000       -999.0000
 7073.2495       -999.0000        149.7999         97.2438       -999.0000       -999.0000       -999.0000
 7073.5000          2.1660        151.0324         97.7257          0.8767          0.2907          0.0475
 7073.7505       -999.0000        152.9042         98.2028       -999.0000       -999.0000       -999.0000
 7074.0000          2.1430        155.2942         98.7165          0.8607          0.3122          0.0330
 7074.2495       -999.0000        157.9441         99.2363       -999.0000       -999.0000       -999.0000
 7074.5000          2.1150        160.6086         99.6714          0.8779          0.3187          0.0208
 7074.7505       -999.0000        163.0645         99.9084       -999.0000       -999.0000       -999.0000
 7075.0000       -999.0000        165.0483         99.8804       -999.0000       -999.0000       -999.0000
 7075.0005          2.1270       -999.0000       -999.0000          0.9101          0.3126          0.0156
 7075.2495       -999.0000        166.3978         99.5906       -999.0000       -999.0000       -999.0000
 7075.5000          2.1240        166.9908         99.1124          0.9324          0.3063          0.0144
 7075.7505       -999.0000        166.8029         98.5609       -999.0000       -999.0000       -999.0000
 7076.0000          2.1430        166.0148         98.0324          0.9593          0.3023          0.0121
 7076.2495       -999.0000        164.8612         97.5797       -999.0000       -999.0000       -999.0000
 7076.5000          2.1370        163.6102         97.2039          0.9590          0.3113          0.0075
 7076.7505       -999.0000        162.4936         96.8669       -999.0000       -999.0000       -999.0000
 7076.9995          2.1430       -999.0000       -999.0000          0.9245          0.3097          0.0185
 7077.0000       -999.0000        161.6512         96.5138       -999.0000       -999.0000       -999.0000
 7077.2495       -999.0000        161.1109         96.0653       -999.0000       -999.0000       -999.0000
 7077.5000          2.1650        160.7903         95.4276          0.9420          0.3072          0.0197
 7077.7505       -999.0000        160.4945         94.5198       -999.0000       -999.0000       -999.0000
 7078.0000          2.1970        159.9676         93.3031          0.9154          0.2776          0.0533
 7078.2495       -999.0000        158.9684         91.8790       -999.0000       -999.0000       -999.0000
 7078.5000          2.2520        157.4235         90.4814          0.8590          0.2531          0.0915
 7078.7505       -999.0000        155.4648         89.3792       -999.0000       -999.0000       -999.0000
 7079.0000       -999.0000        153.3784         88.8333       -999.0000       -999.0000       -999.0000
 7079.0005          2.2640       -999.0000       -999.0000          0.7956          0.2297          0.1315
 7079.2495       -999.0000        151.5735         88.9298       -999.0000       -999.0000       -999.0000
 7079.5000          2.2690        150.3015         89.5723          0.7168          0.2228          0.1686
 7079.7505       -999.0000        149.7022         90.5905       -999.0000       -999.0000       -999.0000
 7080.0000          2.2710        149.8063         91.7246          0.7303          0.2170          0.1686
 7080.2495       -999.0000        150.5497         92.7382       -999.0000       -999.0000       -999.0000
 7080.5000          2.3050        151.9977         93.4371          0.6838          0.2068          0.1964
 7080.7505       -999.0000        154.1456         93.6545       -999.0000       -999.0000       -999.0000
 7080.9995          2.3250       -999.0000       -999.0000          0.6688          0.1985          0.2231
 7081.0000       -999.0000        156.8708         93.3314       -999.0000       -999.0000       -999.0000
 7081.2495       -999.0000        159.8968         92.5247       -999.0000       -999.0000       -999.0000
 7081.5000          2.3450        162.6893         91.4084          0.7140          0.1913          0.2242
 7081.7505       -999.0000        164.6404         90.2228       -999.0000       -999.0000       -999.0000
 7082.0000          2.3900        165.2350         89.1812          0.6647          0.1771          0.2579
 7082.2495       -999.0000        164.1817         88.3942       -999.0000       -999.0000       -999.0000
 7082.5000          2.4200        161.4229         87.8247          0.6453          0.1566          0.2735
 7082.7505       -999.0000        157.3079         87.3151       -999.0000       -999.0000       -999.0000
 7083.0000       -999.0000        152.4620         86.6495       -999.0000       -999.0000       -999.0000
 7083.0005          2.4700       -999.0000       -999.0000          0.6529          0.1346          0.2863
 7083.2495       -999.0000        147.5230         85.6440       -999.0000       -999.0000       -999.0000
 7083.5000          2.5260        143.3172         84.2373          0.6577          0.1069          0.3210
 7083.7505       -999.0000        140.3886         82.5281       -999.0000       -999.0000       -999.0000
 7084.0000          2.5770        138.9082         80.7628          0.7170          0.1021          0.3286
 7084.2495       -999.0000        138.9388         79.2615       -999.0000       -999.0000       -999.0000
 7084.5000          2.5430        140.0846         78.2953          0.7743          0.1077          0.3204
 7084.7505       -999.0000        141.7976         77.9906       -999.0000       -999.0000       -999.0000
 7084.9995          2.5240       -999.0000       -999.0000          0.7839          0.1159          0.3106
 7085.0000       -999.0000        143.5931         78.2869       -999.0000       -999.0000       -999.0000
 7085.2495       -999.0000        144.9785         78.9595       -999.0000       -999.0000       -999.0000
 7085.5000          2.4970        145.7402         79.7174          0.7960          0.1178          0.2874
 7085.7505       -999.0000        145.9536         80.3079       -999.0000       -999.0000       -999.0000
 7086.0000          2.5260        145.8783         80.5842          0.7502          0.1163          0.2932
 7086.2495       -999.0000        145.8376         80.5395       -999.0000       -999.0000       -999.0000
 7086.5000          2.5260        146.0912         80.2717          0.7883          0.1197          0.2799
 7086.7505       -999.0000        146.7037         79.9175       -999.0000       -999.0000       -999.0000
 7087.0000       -999.0000        147.5003         79.6009       -999.0000       -999.0000       -999.0000
 7087.0005          2.5450       -999.0000       -999.0000          0.8064          0.1178          0.2903
 7087.2495       -999.0000        148.2635         79.3908       -999.0000       -999.0000       -999.0000
 7087.5000          2.5160        148.7704         79.3059          0.7995          0.1248          0.3042
 7087.7505       -999.0000        148.9331         79.3510       -999.0000       -999.0000       -999.0000
 7088.0000          2.4920        148.8726         79.5361          0.8086          0.1282          0.2990
 7088.2495       -999.0000        148.6921         79.8792       -999.0000       -999.0000       -999.0000
 7088.5000          2.4750        148.5183         80.3890          0.7659          0.1246          0.3094
 7088.7505       -999.0000        148.3851         81.0261       -999.0000       -999.0000       -999.0000
 7088.9995          2.4810       -999.0000       -999.0000          0.7362          0.1187          0.3147
 7089.0000       -999.0000        148.1922         81.6992       -999.0000       -999.0000       -999.0000
 7089.2495       -999.0000        147.9075         82.2947       -999.0000       -999.0000       -999.0000
 7089.5000          2.5020        147.4817         82.6998          0.7002          0.1129          0.3320
