~VERSION INFORMATION 
VERS  .    2.0                                     :CWLS Log ASCII Standard - VERSION 2.0
WRAP  .    NO                                      :One Line per Depth step
#--------------------------------------------------
~WELL INFORMATION 
#MNEM           .UNIT                      DATA            :DESCRIPTION
#----            ------          --------------            -----------------------------
STRT            .ft                   6530.5000            :START DEPTH
STOP            .ft                   7560.0000            :STOP DEPTH
STEP            .ft                         0.5            :STEP
NULL            .                     -999.0000            :NULL VALUE
COMP            .                         PDVSA            :COMPANY
WELL            .                        Well-1            :WELL NAME
FLD             .                       GUAFITA            :FIELD NAME
SRVC            .                       UNKNOWN            :SERVICE COMPANY
DATE            .                       UNKNOWN            :LOG DATE(Composite Date for Composite LAP) (MM/DD/YYYY)
CNTY            .                       UNKNOWN            :COUNTY
STAT            .                       BARINAS            :STATE or PROVINCE
PROV            .                       BARINAS            :STATE or PROVINCE
CTRY            .                     VENEZUELA            :COUNTRY
API             .                                          :API NUMBER
UWI             .                                          :UNIQUE WELL ID
LOC             .                       GUAFITA            :FIELD LOCATION
#--------------------------------------------------
~CURVE INFORMATION
#MNEM           .UNIT                  API CODE            :DESCRIPTION
#----           -------          --------------            -----------------------------
DEPTH           .ft                                        : Depth Index
RHOB            .g/cm3                                     : Density
DTSM            .us/ft                                     : Delta-T Shear
DTCO            .us/ft                                     : Delta-T Compressional
SW              .v/v                                       : Water Saturation
NPHI            .fraction                                  : Neutron Porosity
VSH             .v/v                                       : Shale Volume
#--------------------------------------------------
~PARAMETER INFORMATION
#MNEM           .UNIT                  VALUE               :DESCRIPTION
#----           -------          --------------            -----------------------------
EKB             .ft                   481.00000            :Elevation of Depth Reference (Kelly Bushing)
EGL             .ft                   451.00000            :Elevation of Ground Level
#-------------------------------------------------------------
#  DEPTH             RHOB           DTSM           DTCO             SW              PHI            VSH
~ASCII
# ...
 7306.5000          2.2060        183.2256         98.7045          0.2306          0.1982          0.3120
 7306.7505       -999.0000        179.9217         97.5852       -999.0000       -999.0000       -999.0000
 7307.0000       -999.0000        175.8120         95.5006       -999.0000       -999.0000       -999.0000
 7307.0005          2.2230       -999.0000       -999.0000          0.2596          0.1993          0.3103
 7307.2495       -999.0000        171.1980         92.5708       -999.0000       -999.0000       -999.0000
 7307.5000          2.2560        166.6024         89.2334          0.2723          0.1925          0.3370
 7307.7505       -999.0000        162.7043         86.2101       -999.0000       -999.0000       -999.0000
 7308.0000          2.2830        160.0293         84.1249          0.2813          0.1759          0.3903
 7308.2495       -999.0000        158.8112         83.2761       -999.0000       -999.0000       -999.0000
 7308.5000          2.3260        158.9395         83.5856          0.3132          0.1503          0.4561
 7308.7505       -999.0000        160.0118         84.6114       -999.0000       -999.0000       -999.0000
 7308.9995          2.3280       -999.0000       -999.0000          0.3635          0.1252          0.5407
 7309.0000       -999.0000        161.5606         85.8437       -999.0000       -999.0000       -999.0000
 7309.2495       -999.0000        163.2041         86.8821       -999.0000       -999.0000       -999.0000
 7309.5000          2.3430        164.6946         87.5284          0.4335          0.1110          0.5836
 7309.7505       -999.0000        165.9326         87.8150       -999.0000       -999.0000       -999.0000
 7310.0000          2.3500        166.9146         87.9080          0.4819          0.1062          0.5714
 7310.2495       -999.0000        167.6516         88.0170       -999.0000       -999.0000       -999.0000
 7310.5000          2.3920        168.2176         88.2844          0.4498          0.0910          0.5644
 7310.7505       -999.0000        168.7596         88.7445       -999.0000       -999.0000       -999.0000
 7311.0000       -999.0000        169.4388         89.3213       -999.0000       -999.0000       -999.0000
 7311.0005          2.4220       -999.0000       -999.0000          0.3961          0.0875          0.5378
 7311.2495       -999.0000        170.4603         89.8822       -999.0000       -999.0000       -999.0000
 7311.5000          2.4190        171.9475         90.3297          0.3596          0.0991          0.5077
 7311.7505       -999.0000        173.7911         90.6190       -999.0000       -999.0000       -999.0000
 7312.0000          2.3800        175.7676         90.7438          0.3407          0.1063          0.5001
 7312.2495       -999.0000        177.5232         90.6822       -999.0000       -999.0000       -999.0000
 7312.5000          2.4040        178.5942         90.3540          0.3179          0.1000          0.5531
 7312.7505       -999.0000        178.6501         89.6543       -999.0000       -999.0000       -999.0000
 7312.9995          2.4370       -999.0000       -999.0000          0.3300          0.0882          0.6099
 7313.0000       -999.0000        177.3761         88.5373       -999.0000       -999.0000       -999.0000
 7313.2495       -999.0000        174.4830         87.1183       -999.0000       -999.0000       -999.0000
 7313.5000          2.4600        170.1205         85.6708          0.3589          0.0667          0.6922
 7313.7505       -999.0000        164.7094         84.5366       -999.0000       -999.0000       -999.0000
 7314.0000          2.5310        158.9997         83.9765          0.3982          0.0507          0.7595
 7314.2495       -999.0000        154.0819         84.0258       -999.0000       -999.0000       -999.0000
 7314.5000          2.5050        150.6193         84.5162          0.4133          0.0359          0.8348
 7314.7505       -999.0000        148.8939         85.2129       -999.0000       -999.0000       -999.0000
 7315.0000       -999.0000        148.7990         85.9759       -999.0000       -999.0000       -999.0000
 7315.0005          2.4760       -999.0000       -999.0000          0.4665          0.0450          0.8053
 7315.2495       -999.0000        149.7614         86.8659       -999.0000       -999.0000       -999.0000
 7315.5000          2.4670        151.2930         88.1013          0.5170          0.0400          0.8351
 7315.7505       -999.0000        152.9881         89.8751       -999.0000       -999.0000       -999.0000
 7316.0000          2.4700        154.5118         92.1923          0.6354          0.0325          0.8699
 7316.2495       -999.0000        155.7394         94.8162       -999.0000       -999.0000       -999.0000
 7316.5000          2.4790        156.6116         97.3233          0.8059          0.0293          0.8896
 7316.7505       -999.0000        157.1450         99.3044       -999.0000       -999.0000       -999.0000
 7316.9995          2.5120       -999.0000       -999.0000          0.9532          0.0265          0.8925
 7317.0000       -999.0000        157.4748        100.5373       -999.0000       -999.0000       -999.0000
 7317.2495       -999.0000        157.9268        101.0582       -999.0000       -999.0000       -999.0000
 7317.5000          2.5650        159.0406        101.1289          0.9863          0.0133          0.9444
 7317.7505       -999.0000        161.5331        101.0934       -999.0000       -999.0000       -999.0000
 7318.0000          2.5750        166.2136        101.2341          1.0000          0.0076          0.9678
 7318.2495       -999.0000        173.3123        101.6503       -999.0000       -999.0000       -999.0000
 7318.5000          2.6030        182.3493        102.2306          1.0000          0.0039          0.9841
 7318.7505       -999.0000        192.0709        102.6998       -999.0000       -999.0000       -999.0000
 7319.0000       -999.0000        200.4511        102.7101       -999.0000       -999.0000       -999.0000
 7319.0005          2.4900       -999.0000       -999.0000          0.9552          0.0025          0.9907
 7319.2495       -999.0000        205.6420        101.9983       -999.0000       -999.0000       -999.0000
 7319.5000          2.4570        206.3673        100.5011          0.8890          0.0240          0.9055
 7319.7505       -999.0000        202.3672         98.3838       -999.0000       -999.0000       -999.0000
 7320.0000          2.4410        194.5922         95.9854          0.8098          0.0504          0.7977
 7320.2495       -999.0000        184.8151         93.6682       -999.0000       -999.0000       -999.0000
 7320.5000          2.4220        175.1211         91.6842          0.7331          0.0681          0.6980
 7320.7505       -999.0000        167.1683         90.1054       -999.0000       -999.0000       -999.0000
 7320.9995          2.4380       -999.0000       -999.0000          0.6864          0.0935          0.5914
 7321.0000       -999.0000        161.9389         88.8640       -999.0000       -999.0000       -999.0000
 7321.2495       -999.0000        159.5488         87.8674       -999.0000       -999.0000       -999.0000
 7321.5000          2.3970        159.4829         87.0410          0.5923          0.1062          0.5476
 7321.7505       -999.0000        161.1357         86.4389       -999.0000       -999.0000       -999.0000
 7322.0000          2.3690        163.9269         86.1969          0.5345          0.1166          0.4845
 7322.2495       -999.0000        167.4466         86.4018       -999.0000       -999.0000       -999.0000
 7322.5000          2.3740        171.3845         87.0954          0.4911          0.1101          0.4659
 7322.7505       -999.0000        175.3613         88.1308       -999.0000       -999.0000       -999.0000
 7323.0000       -999.0000        178.9345         89.2193       -999.0000       -999.0000       -999.0000
