~Version Information
VERS  .          2.0                              :CWLS Log Ascii Standard - Version 2.0
WRAP  .          NO                               :One line per depth step
~Well Information Block
#MNEM.UNIT       Data Type                        Information
#---------       ---------                        -------------------------------
STRT  .F         9850.00000                       :START DEPTH
STOP  .F         1453.50000                       :STOP DEPTH
STEP  .F         -0.50000                         :INCREMENT
NULL  .          -999.25                          :NULL DATA VALUE
COMP  .          ************                     :COMPANY
WELL  .          *******                          :WELL
FLD   .          ******                           :FIELD
LOC   .                                           :LOCATION
PROV  .                                           :PROVINCE
STAT  .                                           :STATE
CNTY  .                                           :COUNTY
CTRY  .                                           :COUNTRY
DATE  .                                           :DATE
UWI   .          ********                         :UNIQUE WELL UWI
LIC   .                                           :LICENSE NUMBER
API   .                                           :API NUMBER
SRVC  .          *****                            :SERVICE COMPANY
~Parameter Information Block
#MNEM.UNIT       Value                            Description
#---------       ---------                        -------------
~Curve Information Block
#MNEM.UNIT       API Code            Curve    Description
#--------        --------------      -----    -------------------
DEPT  .F                             :0       Index
CAL   .                              :1       Calibration Curve             
GR    .GAPI                          :2       Gamma Ray                     
NPHI  .V/V                           :3       Thermal Neutron Porosity (original Ratio Method) in Selected Lithology
RESD  .                              :4       Added by gf35 using QCTool    
RESS  .OHMM                          :5       Added by conefrem using QCTool 
RHOB  .G/C3                          :6       Bulk Density                  
SP    .MV                            :7       Spontaneous Potential         
~Ascii Data Section
# ...
   7897.50000      10.67166      36.40455       0.36426       1.60000       1.79500       2.34999     -32.60000 
   7897.00000      10.68666      36.40455       0.37288       1.60000       1.88000       2.33904     -32.60000 
   7896.50000      10.71380      36.40455       0.38099       1.60000       1.76500       2.32786     -32.60000 
   7896.00000      10.83880      27.62294       0.38494       1.60000       1.65000       2.31486     -32.60000 
   7895.50000      10.97043      27.62294       0.38827       1.65000       1.73000       2.30323     -32.60000 
   7895.00000      11.15543      27.62294       0.38659       1.70000       1.81000       2.30263     -32.24416 
   7894.50000      11.33380      27.62294       0.38436       1.80000       1.93500       2.30283     -31.84417 
   7894.00000      11.45880      27.62294       0.37765       1.90000       2.06000       2.30943     -31.80000 
   7893.50000      11.57718      27.62294       0.37148       1.90000       2.07500       2.31681     -31.80000 
   7893.00000      11.64218      36.40455       0.36954       1.90000       2.09000       2.33046     -31.80000 
   7892.50000      11.69669      36.40455       0.36708       1.80000       2.07500       2.34366     -31.80000 
   7892.00000      11.66669      36.40455       0.36037       1.70000       2.06000       2.35326     -31.80000 
   7891.50000      11.64883      36.40455       0.35476       1.70000       1.98500       2.36517     -31.80000 
   7891.00000      11.72883      53.12208       0.35799       1.70000       1.91000       2.39572     -32.15583 
   7890.50000      11.82374      53.12208       0.36207       1.90000       2.14500       2.42336     -32.55583 
   7890.00000      12.03874      53.12208       0.37297       2.10000       2.38000       2.42756     -32.60000 
   7889.50000      12.23883      53.12208       0.38307       2.15000       2.36000       2.43154     -32.60000 
   7889.00000      12.31883      53.12208       0.38666       2.20000       2.34000       2.43374     -32.60000 
   7888.50000      12.38724      53.12208       0.38960       2.15000       2.31500       2.43462     -32.60000 
   7888.00000      12.36224      53.12208       0.38720       2.10000       2.29000       2.42482     -32.60000 
   7887.50000      12.34000      53.12208       0.38320       2.05000       2.27000       2.41665     -32.60000 
   7887.00000      12.34000      53.12208       0.36631       2.00000       2.25000       2.42165     -32.60000 
   7886.50000      12.32675      53.12208       0.35212       2.00000       2.23000       2.42524     -32.60000 
   7886.00000      12.20675      53.12208       0.35967       2.00000       2.21000       2.41744     -32.60000 
   7885.50000      12.09117      53.12208       0.36666       1.95000       2.19000       2.40887     -32.60000 
   7885.00000      12.01117      53.12208       0.36917       1.90000       2.17000       2.39412     -32.95583 
   7884.50000      11.95546      36.40455       0.37211       1.90000       2.15000       2.37985     -33.35583 
   7884.00000      12.09546      36.40455       0.37846       1.90000       2.13000       2.36945     -33.04417 
   7883.50000      12.19350      36.40455       0.38280       1.90000       2.11000       2.36058     -32.64417 
   7883.00000      11.95350      36.40455       0.37094       1.90000       2.09000       2.36398     -32.95583 
   7882.50000      11.71571      36.40455       0.36030       1.90000       2.09000       2.36696     -33.35583 
   7882.00000      11.49571      36.40455       0.35946       1.90000       2.09000       2.36656     -33.40000 
   7881.50000      11.30663      36.40455       0.35862       1.90000       2.11000       2.36532     -33.40000 
   7881.00000      11.36663      36.40455       0.35778       1.90000       2.13000       2.35732     -33.40000 
   7880.50000      11.42773      36.40455       0.35676       1.90000       2.13000       2.34945     -33.40000 
   7880.00000      11.49773      36.40455       0.35424       1.90000       2.13000       2.34265     -33.04417 
   7879.50000      11.55558      36.40455       0.35125       1.95000       2.15000       2.33686     -32.64417 
   7879.00000      11.51558      36.40455       0.34442       2.00000       2.17000       2.33926     -32.24416 
   7878.50000      11.47117      36.40455       0.33865       2.00000       2.17000       2.34175     -31.84417 
   7878.00000      11.39117      36.40455       0.34141       2.00000       2.17000       2.34495     -31.80000 
   7877.50000      11.32497      36.40455       0.34396       2.00000       2.17000       2.34767     -31.80000 
   7877.00000      11.36997      36.40455       0.34492       2.00000       2.17000       2.34647     -32.15583 
   7876.50000      11.41828      36.40455       0.34560       2.05000       2.20000       2.34624     -32.55583 
   7876.00000      11.49328      36.40455       0.34404       2.10000       2.23000       2.35384     -32.60000 
   7875.50000      11.56331      36.40455       0.34222       2.15000       2.26000       2.36117     -32.60000 
   7875.00000      11.59331      36.40455       0.33827       2.20000       2.29000       2.36637     -32.95583 
   7874.50000      11.61834      36.40455       0.33549       2.25000       2.35500       2.37104     -33.35583 
   7874.00000      11.60334      36.40455       0.34220       2.30000       2.42000       2.37144     -33.04417 
   7873.50000      11.58724      36.40455       0.34830       2.45000       2.56000       2.37103     -32.64417 
   7873.00000      11.56224      36.40455       0.34950       2.60000       2.70000       2.36403     -32.60000 
   7872.50000      11.53779      36.40455       0.35012       2.80000       2.94500       2.35826     -32.60000 
   7872.00000      11.51779      36.40455       0.34604       3.00000       3.19000       2.36246     -32.60000 
   7871.50000      11.50386      36.40455       0.34251       3.30000       3.50500       2.36635     -32.60000 
   7871.00000      11.53886      36.40455       0.34335       3.60000       3.82000       2.36775     -32.60000 
   7870.50000      11.56227      36.40455       0.34439       4.25000       5.40000       2.36983     -32.60000 
   7870.00000      11.49227      36.40455       0.34702       4.90000       6.98000       2.37738     -32.60000 
   7869.50000      11.42724      36.40455       0.34970       5.85000       7.99500       2.38423     -32.60000 
   7869.00000      11.40224      36.40455       0.35269       6.80000       9.01000       2.38543     -31.88833 
   7868.50000      11.38552      36.40455       0.35487       6.85000       9.17500       2.38553     -31.08833 
   7868.00000      11.43552      36.40455       0.35044       6.90000       9.34000       2.37678     -30.64417 
   7867.50000      11.47834      36.40455       0.34682       6.80000       9.17500       2.36765     -30.24417 
   7867.00000      11.46334      36.40455       0.34982       6.70000       9.01000       2.35545     -30.20000 
   7866.50000      11.44834      36.40455       0.35164       6.45000       8.54500       2.34458     -30.20000 
   7866.00000      11.43334      36.40455       0.34397       6.20000       8.08000       2.34438     -30.55583 
   7865.50000      11.42221      36.40455       0.33674       5.80000       7.11000       2.34619     -30.95583 
   7865.00000      11.44221      36.40455       0.33302       5.40000       6.14000       2.36419     -31.35583 
   7864.50000      11.45945      36.40455       0.32946       4.85000       5.67500       2.37980     -31.75583 
   7864.00000      11.45445      36.40455       0.32706       4.30000       5.21000       2.37620     -31.80000 
   7863.50000      11.43454      36.40455       0.32078       3.55000       4.25500       2.37421     -31.80000 
   7863.00000      11.29454      36.40455       0.28316       2.80000       3.30000       2.38516     -31.62208 
   7862.50000      11.15399      53.12208       0.24788       2.55000       3.05000       2.39691     -31.42208 
