~Version Information
VERS  .          2.0                              :CWLS Log Ascii Standard - Version 2.0
WRAP  .          NO                               :One line per depth step
~Well Information Block
#MNEM.UNIT       Data Type                        Information
#---------       ---------                        -------------------------------
STRT  .F         9346.00000                       :START DEPTH
STOP  .F         2030.00000                       :STOP DEPTH
STEP  .F         -0.50000                         :INCREMENT
NULL  .          -999.25                          :NULL DATA VALUE
COMP  .          ************                     :COMPANY
WELL  .          ********                         :WELL
FLD   .          ******                           :FIELD
LOC   .                                           :LOCATION
PROV  .                                           :PROVINCE
STAT  .                                           :STATE
CNTY  .                                           :COUNTY
CTRY  .          ************                     :COUNTRY
DATE  .                                           :DATE
UWI   .          ********                         :UNIQUE WELL UWI
LIC   .                                           :LICENSE NUMBER
API   .                                           :API NUMBER
SRVC  .          *****                            :SERVICE COMPANY
~Parameter Information Block
#MNEM.UNIT       Value                            Description
#---------       ---------                        -------------
~Curve Information Block
#MNEM.UNIT       API Code            Curve    Description
#--------        --------------      -----    -------------------
DEPT  .F                             :0       Index
CAL   .                              :1       Calibration Curve             
ASN   .OHMM                          :2       Amplified Short Normal        
I6FR  .OHMM                          :3       I6FR - Deep Induction Log - PDVSA
DPHI  .V/V                           :4       Density Porosity              
GR    .GAPI                          :5       Gamma Ray                     
NPHI  .V/V                           :6       Thermal Neutron Porosity (original Ratio Method) in Selected Lithology
SP    .MV                            :7       Spontaneous Potential         
~Ascii Data Section
# ...
   8636.00000      12.00167      10.50000      10.10000       0.10896      73.53785       0.29425    -999.25000 
   8635.50000      12.01000      10.40000       9.80000       0.10471      70.99580       0.29183    -999.25000 
   8635.00000      12.01000      10.30000       9.50000       0.10421      68.90763       0.28984    -999.25000 
   8634.50000      12.01000      10.10000       9.30000       0.10546      71.05073       0.28813    -999.25000 
   8634.00000      12.01000       9.90000       9.10000       0.10796      72.77227       0.28663    -999.25000 
   8633.50000      12.01000       9.90000       9.00000       0.11133      70.23022       0.28484    -999.25000 
   8633.00000      12.01000       9.90000       8.90000       0.11533      68.17830       0.28284    -999.25000 
   8632.50000      12.03329       9.90000       8.90000       0.11846      71.51786       0.27996    -999.25000 
   8632.00000      12.07329       9.90000       8.90000       0.12096      74.66148       0.27646    -999.25000 
   8631.50000      12.10165       9.85000       8.80000       0.12200      75.45892       0.27849    -999.25000 
   8631.00000      12.12165       9.80000       8.70000       0.12200      76.26957       0.28449    -999.25000 
   8630.50000      12.16494       9.65000       8.70000       0.11734      77.26646       0.29399    -999.25000 
   8630.00000      12.22494       9.50000       8.70000       0.10934      78.51355       0.30599    -999.25000 
   8629.50000      12.26165       9.30000       8.50000       0.10425      83.44813       0.31362    -999.25000 
   8629.00000      12.28165       9.10000       8.30000       0.10125      88.00015       0.31812    -999.25000 
   8628.50000      12.30165       8.90000       7.90000       0.10146      86.25732       0.31592    -999.25000 
   8628.00000      12.32165       8.70000       7.50000       0.10396      84.62741       0.30892    -999.25000 
   8627.50000      12.33000       8.40000       7.10000       0.10092      85.17570       0.30775    -999.25000 
   8627.00000      12.33000       8.10000       6.70000       0.09392      85.58878       0.31075    -999.25000 
   8626.50000      12.33000       7.90000       6.60000       0.09944      83.04672       0.31928    -999.25000 
   8626.00000      12.33000       7.70000       6.50000       0.11394      80.65975       0.33178    -999.25000 
   8625.50000      12.31835       7.60000       6.20000       0.12233      82.25317       0.34049    -999.25000 
   8625.00000      12.29835       7.50000       5.90000       0.12633      83.93100       0.34649    -999.25000 
   8624.50000      12.27835       7.50000       5.90000       0.12625      88.26745       0.34551    -999.25000 
   8624.00000      12.25835       7.50000       5.90000       0.12325      92.44746       0.33951    -999.25000 
   8623.50000      12.23835       7.40000       5.80000       0.11734      90.25431       0.34020    -999.25000 
   8623.00000      12.21835       7.30000       5.70000       0.10934      88.08237       0.34570    -999.25000 
   8622.50000      12.21000       7.20000       5.70000       0.09989      87.08650       0.34684    -999.25000 
   8622.00000      12.21000       7.10000       5.70000       0.08939      86.11246       0.34484    -999.25000 
   8621.50000      12.18675       7.10000       5.55000       0.08820      87.30872       0.34342    -999.25000 
   8621.00000      12.14675       7.10000       5.40000       0.09370      88.52388       0.34242    -999.25000 
   8620.50000      12.07188       7.20000       5.25000       0.10733      94.25597       0.33096    -999.25000 
   8620.00000      11.97188       7.30000       5.10000       0.12683      99.98211       0.31196    -999.25000 
   8619.50000      11.91838       7.40000       5.10000       0.16406      96.67088       0.30342    -999.25000 
   8619.00000      11.89838       7.50000       5.10000       0.21406      93.33131       0.30242    -999.25000 
   8618.50000      11.89000       8.30000       5.50000       0.23413      94.88007       0.29909    -999.25000 
   8618.00000      11.89000       9.10000       5.90000       0.23263      96.47507       0.29409    -999.25000 
   8617.50000      11.87838      10.50000       6.30000       0.22968      89.09112       0.29171    -999.25000 
   8617.00000      11.85838      11.90000       6.70000       0.22568      81.57230       0.29121    -999.25000 
   8616.50000      11.86163      12.50000       7.40000       0.22720      78.47788       0.29013    -999.25000 
   8616.00000      11.88163      13.10000       8.10000       0.23270      75.48723       0.28863    -999.25000 
   8615.50000      11.91325      13.40000       9.70000       0.22803      72.35140       0.28713    -999.25000 
   8615.00000      11.95325      13.70000      11.30000       0.21603      69.21121       0.28563    -999.25000 
   8614.50000      12.00488      14.50000      17.00000       0.19792      71.16525       0.28674    -999.25000 
   8614.00000      12.06488      15.30000      22.70000       0.17542      73.30846       0.28974    -999.25000 
   8613.50000      12.10163      15.00000      26.25000       0.15670      70.96651       0.29391    -999.25000 
   8613.00000      12.12162      14.70000      29.80000       0.14070      68.42446       0.29891    -999.25000 
   8612.50000      12.15325      13.70000      29.40000       0.12673      69.62730       0.30536    -999.25000 
   8612.00000      12.19325      12.70000      29.00000       0.11423      71.02295       0.31286    -999.25000 
   8611.50000      12.22162      11.40000      22.05000       0.10638      74.81644       0.31978    -999.25000 
   8611.00000      12.24162      10.10000      15.10000       0.10188      78.75389       0.32628    -999.25000 
   8610.50000      12.25000       9.50000      12.60000       0.10668      78.43925       0.32784    -999.25000 
   8610.00000      12.25000       8.90000      10.10000       0.11818      77.84113       0.32584    -999.25000 
   8609.50000      12.22675       8.50000       9.10000       0.11951      76.12897       0.32849    -999.25000 
   8609.00000      12.18677       8.10000       8.10000       0.11352      74.33630       0.33448    -999.25000 
   8608.50000      12.20481       7.70000       7.20000       0.11216      74.56843       0.34686    -999.25000 
   8608.00000      12.26481       7.30000       6.30000       0.11416      74.96719       0.36386    -999.25000 
   8607.50000      12.26679       7.10000       6.10000       0.11819      76.28079       0.37390    -999.25000 
   8607.00000      12.22679       6.90000       5.90000       0.12369      77.67643       0.37890    -999.25000 
   8606.50000      12.19840       6.70000       5.60000       0.12455      76.34621       0.37578    -999.25000 
   8606.00000      12.17840       6.50000       5.30000       0.12205      74.75269       0.36678    -999.25000 
   8605.50000      12.18160       6.20000       5.20000       0.12158      73.38318       0.37025    -999.25000 
   8605.00000      12.20160       5.90000       5.10000       0.12258      72.03738       0.38275    -999.25000 
   8604.50000      12.19840       5.70000       4.80000       0.11894      80.22461       0.39235    -999.25000 
   8604.00000      12.17840       5.50000       4.50000       0.11194      89.49564       0.39985    -999.25000 
   8603.50000      12.17000       5.30000       4.30000       0.10639      92.80872       0.39836    -999.25000 
   8603.00000      12.17000       5.10000       4.10000       0.10189      95.40031       0.39036    -999.25000 
   8602.50000      12.14679       5.00000       4.10000       0.10087      94.46574       0.38700    -999.25000 
   8602.00000      12.10679       4.90000       4.10000       0.10237      93.07010       0.38700    -999.25000 
   8601.50000      12.19154       4.90000       4.10000       0.11780      90.27383       0.40325    -999.25000 
   8601.00000      12.36654       4.90000       4.10000       0.14330      87.28318       0.43125    -999.25000 
