~Version Information
VERS  .          2.0                              :CWLS Log Ascii Standard - Version 2.0
WRAP  .          NO                               :One line per depth step
~Well Information Block
#MNEM.UNIT       Data Type                        Information
#---------       ---------                        -------------------------------
STRT  .F         9346.00000                       :START DEPTH
STOP  .F         2030.00000                       :STOP DEPTH
STEP  .F         -0.50000                         :INCREMENT
NULL  .          -999.25                          :NULL DATA VALUE
COMP  .          ************                     :COMPANY
WELL  .          ********                         :WELL
FLD   .          ******                           :FIELD
LOC   .                                           :LOCATION
PROV  .                                           :PROVINCE
STAT  .                                           :STATE
CNTY  .                                           :COUNTY
CTRY  .          ************                     :COUNTRY
DATE  .                                           :DATE
UWI   .          ********                         :UNIQUE WELL UWI
LIC   .                                           :LICENSE NUMBER
API   .                                           :API NUMBER
SRVC  .          *****                            :SERVICE COMPANY
~Parameter Information Block
#MNEM.UNIT       Value                            Description
#---------       ---------                        -------------
~Curve Information Block
#MNEM.UNIT       API Code            Curve    Description
#--------        --------------      -----    -------------------
DEPT  .F                             :0       Index
CAL   .                              :1       Calibration Curve             
ASN   .OHMM                          :2       Amplified Short Normal        
I6FR  .OHMM                          :3       I6FR - Deep Induction Log - PDVSA
DPHI  .V/V                           :4       Density Porosity              
GR    .GAPI                          :5       Gamma Ray                     
NPHI  .V/V                           :6       Thermal Neutron Porosity (original Ratio Method) in Selected Lithology
SP    .MV                            :7       Spontaneous Potential         
~Ascii Data Section
   9346.00000      12.35442      11.70000      11.50000       0.07836      73.59499       0.28418    -999.25000 
   9345.50000      12.34000      11.80000      11.50000       0.07640      75.37417       0.28400    -999.25000 
   9345.00000      12.34000      11.90000      11.50000       0.07390      77.57417       0.28400    -999.25000 
   9344.50000      12.34000      12.20000      11.70000       0.07651      79.77416       0.28687    -999.25000 
   9344.00000      12.34000      12.50000      11.90000       0.08201      81.97417       0.29137    -999.25000 
   9343.50000      12.34000      12.60000      12.00000       0.09229      82.32083       0.29141    -999.25000 
   9343.00000      12.34000      12.70000      12.10000       0.10529      81.32083       0.28891    -999.25000 
   9342.50000      12.31450      13.10000      12.90000       0.11319      79.16250       0.28354    -999.25000 
   9342.00000      12.27450      13.50000      13.70000       0.11819      76.16250       0.27654    -999.25000 
   9341.50000      12.26000      13.70000      14.30000       0.13211      72.40958       0.27049    -999.25000 
   9341.00000      12.26000      13.90000      14.90000       0.15111      68.10959       0.26499    -999.25000 
   9340.50000      12.26000      14.30000      15.30000       0.17394      67.74792       0.25981    -999.25000 
   9340.00000      12.26000      14.70000      15.70000       0.19894      70.24792       0.25481    -999.25000 
   9339.50000      12.26000      14.70000      16.60000       0.20959      70.37333       0.25172    -999.25000 
   9339.00000      12.26000      14.70000      17.50000       0.21209      68.77333       0.24972    -999.25000 
   9338.50000      12.24725      14.70000      17.40000       0.21523      68.67917       0.25027    -999.25000 
   9338.00000      12.22725      14.70000      17.30000       0.21873      69.67796       0.25227    -999.25000 
   9337.50000      12.22000      14.40000      17.00000       0.22032      71.48500       0.26224    -999.25000 
   9337.00000      12.22000      14.10000      16.70000       0.22082      73.88500       0.27674    -999.25000 
   9336.50000      12.23275      14.00000      16.20000       0.22610      73.39959       0.27945    -999.25000 
   9336.00000      12.25275      13.90000      15.70000       0.23410      70.79958       0.27545    -999.25000 
   9335.50000      12.24725      13.70000      14.70000       0.23668      67.50708       0.27655    -999.25000 
   9335.00000      12.22725      13.50000      13.70000       0.23618      63.70708       0.28055    -999.25000 
   9334.50000      12.20725      13.60000      13.00000       0.22771      59.01260       0.29953    -999.25000 
   9334.00000      12.18725      13.70000      12.30000       0.21471      53.66261       0.32703    -999.25000 
   9333.50000      12.18000      13.70000      12.40000       0.21159      52.09250       0.33764    -999.25000 
   9333.00000      12.18000      13.70000      12.50000       0.21409      53.29250       0.33864    -999.25000 
   9332.50000      12.18000      13.90000      12.70000       0.22010      54.60791       0.33390    -999.25000 
   9332.00000      12.18000      14.10000      12.90000       0.22810      56.00792       0.32590    -999.25000 
   9331.50000      12.17044      14.20000      12.90000       0.23004      56.13833       0.31886    -999.25000 
   9331.00000      12.15544      14.30000      12.90000       0.22854      55.33833       0.31236    -999.25000 
   9330.50000      12.17231      14.40000      12.80000       0.21780      55.80792       0.31000    -999.25000 
   9330.00000      12.20731      14.50000      12.70000       0.20180      57.20792       0.31000    -999.25000 
   9329.50000      12.22000      14.50000      13.00000       0.19473      57.91542       0.31319    -999.25000 
   9329.00000      12.22000      14.50000      13.30000       0.19273      58.11542       0.31819    -999.25000 
   9328.50000      12.20725      14.80000      14.00000       0.20284      57.27666       0.32191    -999.25000 
   9328.00000      12.18725      15.10000      14.70000       0.21984      55.67667       0.32491    -999.25000 
   9327.50000      12.18000      15.50000      16.90000       0.21867      55.11542       0.32186    -999.25000 
   9327.00000      12.18000      15.90000      19.10000       0.20717      55.31542       0.31536    -999.25000 
   9326.50000      12.18000      16.70000      20.00000       0.20427      53.72646       0.30949    -999.25000 
   9326.00000      12.18000      17.50000      20.90000       0.20628      50.82646       0.30399    -999.25000 
   9325.50000      12.19275      18.10000      24.25000       0.22134      48.84979       0.29881    -999.25000 
   9325.00000      12.21275      18.70000      27.60000       0.24384      47.54979       0.29381    -999.25000 
   9324.50000      12.22000      19.30000      28.30000       0.25200      49.42375       0.28658    -999.25000 
   9324.00000      12.22000      19.90000      29.00000       0.25200      53.62375       0.27808    -999.25000 
   9323.50000      12.22000      20.60000      31.10000       0.24849      56.32333       0.27723    -999.25000 
   9323.00000      12.22000      21.30000      33.20000       0.24299      57.92333       0.28073    -999.25000 
   9322.50000      12.20725      21.70000      35.80000       0.23494      57.90750       0.28806    -999.25000 
   9322.00000      12.18725      22.10000      38.40000       0.22544      56.70750       0.29756    -999.25000 
   9321.50000      12.17044      22.00000      38.30000       0.21722      57.55615       0.30642    -999.25000 
   9321.00000      12.15544      21.90000      38.20000       0.20972      59.90615       0.31492    -999.25000 
   9320.50000      12.17231      21.30000      32.70000       0.20987      60.58260       0.31896    -999.25000 
   9320.00000      12.20731      20.70000      27.20000       0.21437      60.03260       0.32046    -999.25000 
   9319.50000      12.20725      19.90000      25.25000       0.22365      57.95333       0.31654    -999.25000 
   9319.00000      12.18725      19.10000      23.30000       0.23565      54.75333       0.30954    -999.25000 
   9318.50000      12.18000      18.70000      22.70000       0.23873      52.70750       0.30923    -999.25000 
   9318.00000      12.18000      18.30000      22.10000       0.23673      51.50750       0.31273    -999.25000 
   9317.50000      12.18000      17.50000      21.20000       0.22806      51.69250       0.31527    -999.25000 
   9317.00000      12.18000      16.70000      20.30000       0.21556      52.89250       0.31727    -999.25000 
   9316.50000      12.17047      16.30000      19.40000       0.20655      53.51542       0.31419    -999.25000 
   9316.00000      12.15547      15.90000      18.50000       0.19955      53.71542       0.30819    -999.25000 
   9315.50000      12.15953      15.20000      17.10000       0.19319      54.03083       0.30346    -999.25000 
   9315.00000      12.17453      14.50000      15.70000       0.18719      54.43035       0.29946    -999.25000 
   9314.50000      12.18000      13.80000      14.20000       0.19390      53.91000       0.29419    -999.25000 
   9314.00000      12.18000      13.10000      12.70000       0.20790      52.71000       0.28819    -999.25000 
   9313.50000      12.18000      12.60000      11.55000       0.22126      52.31500       0.28155    -999.25000 
   9313.00000      12.18000      12.10000      10.40000       0.23426      52.51500       0.27455    -999.25000 
   9312.50000      12.18000      12.10000       9.65000       0.23773      51.79500       0.26978    -999.25000 
   9312.00000      12.18000      12.10000       8.90000       0.23573      50.39500       0.26628    -999.25000 
   9311.50000      12.18000      12.10000       8.80000       0.23691      51.64000       0.26373    -999.25000 
   9311.00000      12.18000      12.10000       8.70000       0.23991      54.84000       0.26173    -999.25000 
