~VERSION INFORMATION 
VERS  .    2.0                                     :CWLS Log ASCII Standard - VERSION 2.0
WRAP  .    NO                                      :One Line per Depth step
#--------------------------------------------------
~WELL INFORMATION 
#MNEM           .UNIT                      DATA            :DESCRIPTION
#----            ------          --------------            -----------------------------
STRT            .ft                   6530.5000            :START DEPTH
STOP            .ft                   7560.0000            :STOP DEPTH
STEP            .ft                         0.5            :STEP
NULL            .                     -999.0000            :NULL VALUE
COMP            .                         PDVSA            :COMPANY
WELL            .                        Well-1            :WELL NAME
FLD             .                       GUAFITA            :FIELD NAME
SRVC            .                       UNKNOWN            :SERVICE COMPANY
DATE            .                       UNKNOWN            :LOG DATE(Composite Date for Composite LAP) (MM/DD/YYYY)
CNTY            .                       UNKNOWN            :COUNTY
STAT            .                       BARINAS            :STATE or PROVINCE
PROV            .                       BARINAS            :STATE or PROVINCE
CTRY            .                     VENEZUELA            :COUNTRY
API             .                                          :API NUMBER
UWI             .                                          :UNIQUE WELL ID
LOC             .                       GUAFITA            :FIELD LOCATION
#--------------------------------------------------
~CURVE INFORMATION
#MNEM           .UNIT                  API CODE            :DESCRIPTION
#----           -------          --------------            -----------------------------
DEPTH           .ft                                        : Depth Index
RHOB            .g/cm3                                     : Density
DTSM            .us/ft                                     : Delta-T Shear
DTCO            .us/ft                                     : Delta-T Compressional
SW              .v/v                                       : Water Saturation
NPHI            .fraction                                  : Neutron Porosity
VSH             .v/v                                       : Shale Volume
#--------------------------------------------------
~PARAMETER INFORMATION
#MNEM           .UNIT                  VALUE               :DESCRIPTION
#----           -------          --------------            -----------------------------
EKB             .ft                   481.00000            :Elevation of Depth Reference (Kelly Bushing)
EGL             .ft                   451.00000            :Elevation of Ground Level
#-------------------------------------------------------------
#  DEPTH             RHOB           DTSM           DTCO             SW              PHI            VSH
~ASCII
# ...
 6939.7505       -999.0000        151.8178         88.5446       -999.0000       -999.0000       -999.0000
 6940.0000          2.5470        153.4117         88.2645          1.0000          0.0834          0.5082
 6940.2495       -999.0000        155.0941         87.9362       -999.0000       -999.0000       -999.0000
 6940.5000          2.5490        156.5531         87.5733          1.0000          0.0856          0.4949
 6940.7505       -999.0000        157.6888         87.2115       -999.0000       -999.0000       -999.0000
 6940.9995          2.5610       -999.0000       -999.0000          1.0000          0.0904          0.4653
 6941.0000       -999.0000        158.4552         86.9026       -999.0000       -999.0000       -999.0000
 6941.2495       -999.0000        158.8959         86.7020       -999.0000       -999.0000       -999.0000
 6941.5000          2.5640        158.9944         86.6575          1.0000          0.0932          0.4595
 6941.7505       -999.0000        158.7434         86.7955       -999.0000       -999.0000       -999.0000
 6942.0000          2.5330        158.3035         87.1118          1.0000          0.1051          0.4155
 6942.2495       -999.0000        157.8920         87.5675       -999.0000       -999.0000       -999.0000
 6942.5000          2.5090        157.6901         88.0911          1.0000          0.1169          0.3894
 6942.7505       -999.0000        157.8053         88.5951       -999.0000       -999.0000       -999.0000
 6943.0000       -999.0000        158.1162         88.9963       -999.0000       -999.0000       -999.0000
 6943.0005          2.4940       -999.0000       -999.0000          1.0000          0.1164          0.4201
 6943.2495       -999.0000        158.3808         89.2395       -999.0000       -999.0000       -999.0000
 6943.5000          2.5030        158.4075         89.3142          1.0000          0.1110          0.4538
 6943.7505       -999.0000        158.0700         89.2535       -999.0000       -999.0000       -999.0000
 6944.0000          2.5290        157.4516         89.1212          1.0000          0.1008          0.4787
 6944.2495       -999.0000        156.7209         88.9860       -999.0000       -999.0000       -999.0000
 6944.5000          2.5510        156.0219         88.8940          1.0000          0.0979          0.4903
 6944.7505       -999.0000        155.5210         88.8537       -999.0000       -999.0000       -999.0000
 6944.9995          2.5310       -999.0000       -999.0000          1.0000          0.1000          0.4903
 6945.0000       -999.0000        155.2971         88.8346       -999.0000       -999.0000       -999.0000
 6945.2495       -999.0000        155.4505         88.7867       -999.0000       -999.0000       -999.0000
 6945.5000          2.5110        156.1355         88.6672          1.0000          0.1054          0.4897
 6945.7505       -999.0000        157.3694         88.4619       -999.0000       -999.0000       -999.0000
 6946.0000          2.5110        159.0692         88.1927          1.0000          0.1043          0.4949
 6946.2495       -999.0000        160.9640         87.8997       -999.0000       -999.0000       -999.0000
 6946.5000          2.5210        162.6199         87.6210          1.0000          0.1070          0.4874
 6946.7505       -999.0000        163.7057         87.3730       -999.0000       -999.0000       -999.0000
 6947.0000       -999.0000        164.0213         87.1415       -999.0000       -999.0000       -999.0000
 6947.0005          2.5350       -999.0000       -999.0000          1.0000          0.0947          0.5088
 6947.2495       -999.0000        163.6613         86.8961       -999.0000       -999.0000       -999.0000
 6947.5000          2.5330        162.8711         86.6045          1.0000          0.0946          0.4891
 6947.7505       -999.0000        161.8804         86.2484       -999.0000       -999.0000       -999.0000
 6948.0000          2.5300        160.9318         85.8361          1.0000          0.0910          0.4903
 6948.2495       -999.0000        160.0043         85.4029       -999.0000       -999.0000       -999.0000
 6948.5000          2.5270        159.0623         85.0048          1.0000          0.0929          0.4937
 6948.7505       -999.0000        158.0946         84.7058       -999.0000       -999.0000       -999.0000
 6948.9995          2.5230       -999.0000       -999.0000          1.0000          0.0948          0.4984
 6949.0000       -999.0000        156.9898         84.5590       -999.0000       -999.0000       -999.0000
 6949.2495       -999.0000        155.7935         84.5863       -999.0000       -999.0000       -999.0000
 6949.5000          2.5280        154.5160         84.7704          1.0000          0.1017          0.4746
 6949.7505       -999.0000        153.1419         85.0608       -999.0000       -999.0000       -999.0000
 6950.0000          2.5270        151.7612         85.3915          1.0000          0.1013          0.4682
 6950.2495       -999.0000        150.4424         85.7075       -999.0000       -999.0000       -999.0000
 6950.5000          2.5400        149.3024         85.9846          1.0000          0.1011          0.4578
 6950.7505       -999.0000        148.4899         86.2322       -999.0000       -999.0000       -999.0000
 6951.0000       -999.0000        148.0541         86.4799       -999.0000       -999.0000       -999.0000
 6951.0005          2.5560       -999.0000       -999.0000          1.0000          0.0989          0.4543
 6951.2495       -999.0000        147.9918         86.7548       -999.0000       -999.0000       -999.0000
 6951.5000          2.5680        148.2463         87.0607          1.0000          0.0978          0.4532
 6951.7505       -999.0000        148.7089         87.3679       -999.0000       -999.0000       -999.0000
 6952.0000          2.5760        149.3558         87.6267          1.0000          0.0963          0.4636
 6952.2495       -999.0000        150.1792         87.7928       -999.0000       -999.0000       -999.0000
 6952.5000          2.5760        151.1748         87.8461          1.0000          0.0973          0.4572
 6952.7505       -999.0000        152.3345         87.8060       -999.0000       -999.0000       -999.0000
 6952.9995          2.5650       -999.0000       -999.0000          1.0000          0.1016          0.4514
 6953.0000       -999.0000        153.5096         87.7207       -999.0000       -999.0000       -999.0000
 6953.2495       -999.0000        154.5620         87.6382       -999.0000       -999.0000       -999.0000
 6953.5000          2.5500        155.2838         87.5899          1.0000          0.0999          0.4619
 6953.7505       -999.0000        155.4276         87.5746       -999.0000       -999.0000       -999.0000
 6954.0000          2.5440        155.0164         87.5623          1.0000          0.1045          0.4659
 6954.2495       -999.0000        154.0377         87.5143       -999.0000       -999.0000       -999.0000
 6954.5000          2.5280        152.7245         87.3987          1.0000          0.1071          0.4607
 6954.7505       -999.0000        151.5320         87.2004       -999.0000       -999.0000       -999.0000
 6955.0000       -999.0000        150.6039         86.9235       -999.0000       -999.0000       -999.0000
 6955.0005          2.5390       -999.0000       -999.0000          1.0000          0.0969          0.4752
 6955.2495       -999.0000        150.1670         86.5825       -999.0000       -999.0000       -999.0000
 6955.5000          2.5540        150.1730         86.1960          1.0000          0.0931          0.4648
 6955.7505       -999.0000        150.3132         85.7865       -999.0000       -999.0000       -999.0000
 6956.0000          2.5650        150.4622         85.3867          1.0000          0.0907          0.4659
 6956.2495       -999.0000        150.4813         85.0428       -999.0000       -999.0000       -999.0000
