~VERSION INFORMATION 
VERS  .    2.0                                     :CWLS Log ASCII Standard - VERSION 2.0
WRAP  .    NO                                      :One Line per Depth step
#--------------------------------------------------
~WELL INFORMATION 
#MNEM           .UNIT                      DATA            :DESCRIPTION
#----            ------          --------------            -----------------------------
STRT            .ft                   6530.5000            :START DEPTH
STOP            .ft                   7560.0000            :STOP DEPTH
STEP            .ft                         0.5            :STEP
NULL            .                     -999.0000            :NULL VALUE
COMP            .                         PDVSA            :COMPANY
WELL            .                        Well-1            :WELL NAME
FLD             .                       GUAFITA            :FIELD NAME
SRVC            .                       UNKNOWN            :SERVICE COMPANY
DATE            .                       UNKNOWN            :LOG DATE(Composite Date for Composite LAP) (MM/DD/YYYY)
CNTY            .                       UNKNOWN            :COUNTY
STAT            .                       BARINAS            :STATE or PROVINCE
PROV            .                       BARINAS            :STATE or PROVINCE
CTRY            .                     VENEZUELA            :COUNTRY
API             .                                          :API NUMBER
UWI             .                                          :UNIQUE WELL ID
LOC             .                       GUAFITA            :FIELD LOCATION
#--------------------------------------------------
~CURVE INFORMATION
#MNEM           .UNIT                  API CODE            :DESCRIPTION
#----           -------          --------------            -----------------------------
DEPTH           .ft                                        : Depth Index
RHOB            .g/cm3                                     : Density
DTSM            .us/ft                                     : Delta-T Shear
DTCO            .us/ft                                     : Delta-T Compressional
SW              .v/v                                       : Water Saturation
NPHI            .fraction                                  : Neutron Porosity
VSH             .v/v                                       : Shale Volume
#--------------------------------------------------
~PARAMETER INFORMATION
#MNEM           .UNIT                  VALUE               :DESCRIPTION
#----           -------          --------------            -----------------------------
EKB             .ft                   481.00000            :Elevation of Depth Reference (Kelly Bushing)
EGL             .ft                   451.00000            :Elevation of Ground Level
#-------------------------------------------------------------
#  DEPTH             RHOB           DTSM           DTCO             SW              PHI            VSH
~ASCII
# ...
 7439.7505       -999.0000        165.2844         91.5735       -999.0000       -999.0000       -999.0000
 7440.0000          2.3150        161.5406         91.1898          0.1342          0.0282          0.8983
 7440.2495       -999.0000        158.8077         90.8177       -999.0000       -999.0000       -999.0000
 7440.5000          2.3310        157.1322         90.3333          0.1366          0.0339          0.8760
 7440.7505       -999.0000        156.3968         89.6011       -999.0000       -999.0000       -999.0000
 7440.9995          2.3270       -999.0000       -999.0000          0.1414          0.0380          0.8580
 7441.0000       -999.0000        156.1575         88.5396       -999.0000       -999.0000       -999.0000
 7441.2495       -999.0000        156.3034         87.2402       -999.0000       -999.0000       -999.0000
 7441.5000          2.3450        156.9998         85.9441          0.1458          0.0379          0.8516
 7441.7505       -999.0000        158.5316         84.9670       -999.0000       -999.0000       -999.0000
 7442.0000          2.3510        161.4235         84.5868          0.1423          0.0311          0.8760
 7442.2495       -999.0000        165.8401         84.8573       -999.0000       -999.0000       -999.0000
 7442.5000          2.3600        171.4770         85.6418          0.1396          0.0283          0.8850
 7442.7505       -999.0000        177.6611         86.7018       -999.0000       -999.0000       -999.0000
 7443.0000       -999.0000        183.3555         87.7750       -999.0000       -999.0000       -999.0000
 7443.0005          2.3800       -999.0000       -999.0000          0.1335          0.0160          0.9336
 7443.2495       -999.0000        187.8044         88.7231       -999.0000       -999.0000       -999.0000
 7443.5000          2.3700        190.6491         89.5115          0.1389          0.0222          0.9122
 7443.7505       -999.0000        191.9115         90.1590       -999.0000       -999.0000       -999.0000
 7444.0000          2.3340        191.9688         90.7297          0.1515          0.0424          0.8421
 7444.2495       -999.0000        191.2482         91.2657       -999.0000       -999.0000       -999.0000
 7444.5000          2.2940        190.1364         91.7951          0.1649          0.0668          0.7618
 7444.7505       -999.0000        188.9576         92.3386       -999.0000       -999.0000       -999.0000
 7444.9995          2.2700       -999.0000       -999.0000          0.1844          0.1012          0.6520
 7445.0000       -999.0000        187.9300         92.8989       -999.0000       -999.0000       -999.0000
 7445.2495       -999.0000        187.0247         93.4970       -999.0000       -999.0000       -999.0000
 7445.5000          2.2590        186.2342         94.1707          0.1967          0.1229          0.5859
 7445.7505       -999.0000        185.5249         94.9762       -999.0000       -999.0000       -999.0000
 7446.0000          2.2380        184.8815         95.9800          0.2244          0.1480          0.5065
 7446.2495       -999.0000        184.5132         97.2219       -999.0000       -999.0000       -999.0000
 7446.5000          2.2030        184.3831         98.6767          0.2538          0.1742          0.4558
 7446.7505       -999.0000        184.3732        100.2563       -999.0000       -999.0000       -999.0000
 7447.0000       -999.0000        184.3025        101.8104       -999.0000       -999.0000       -999.0000
 7447.0005          2.1470       -999.0000       -999.0000          0.2736          0.1914          0.4323
 7447.2495       -999.0000        183.8800        103.1504       -999.0000       -999.0000       -999.0000
 7447.5000          2.1260        183.0923        104.1298          0.3164          0.2228          0.3613
 7447.7505       -999.0000        182.0502        104.6609       -999.0000       -999.0000       -999.0000
 7448.0000          2.1020        180.9486        104.7490          0.3555          0.2509          0.2976
 7448.2495       -999.0000        180.1616        104.5044       -999.0000       -999.0000       -999.0000
 7448.5000          2.1120        180.0632        104.0954          0.3789          0.2598          0.2622
 7448.7505       -999.0000        181.0613        103.7204       -999.0000       -999.0000       -999.0000
 7448.9995          2.0940       -999.0000       -999.0000          0.3719          0.2575          0.2610
 7449.0000       -999.0000        183.6625        103.5703       -999.0000       -999.0000       -999.0000
 7449.2495       -999.0000        187.9619        103.7877       -999.0000       -999.0000       -999.0000
 7449.5000          2.0940        193.4598        104.4434          0.3637          0.2536          0.2634
 7449.7505       -999.0000        199.0583        105.5221       -999.0000       -999.0000       -999.0000
 7450.0000          2.0930        202.9326        106.9048          0.3582          0.2503          0.2680
 7450.2495       -999.0000        203.2964        108.3509       -999.0000       -999.0000       -999.0000
 7450.5000          2.1020        199.4167        109.5336          0.3475          0.2482          0.2816
 7450.7505       -999.0000        191.6809        110.1084       -999.0000       -999.0000       -999.0000
 7451.0000       -999.0000        181.7234        109.7821       -999.0000       -999.0000       -999.0000
 7451.0005          2.1070       -999.0000       -999.0000          0.3497          0.2547          0.2839
 7451.2495       -999.0000        171.9767        108.4844       -999.0000       -999.0000       -999.0000
 7451.5000          2.1070        164.0953        106.3752          0.3245          0.2458          0.3213
 7451.7505       -999.0000        158.8857        103.7540       -999.0000       -999.0000       -999.0000
 7452.0000          2.1250        156.2982        101.0463          0.2771          0.2079          0.3958
 7452.2495       -999.0000        155.4861         98.5832       -999.0000       -999.0000       -999.0000
 7452.5000          2.1360        155.8422         96.5887          0.2257          0.1694          0.5013
 7452.7505       -999.0000        157.0208         95.2717       -999.0000       -999.0000       -999.0000
 7452.9995          2.1480       -999.0000       -999.0000          0.2052          0.1498          0.5595
 7453.0000       -999.0000        158.7711         94.7331       -999.0000       -999.0000       -999.0000
 7453.2495       -999.0000        160.9606         95.0357       -999.0000       -999.0000       -999.0000
 7453.5000          2.1160        163.3376         96.1613          0.1861          0.1331          0.6172
 7453.7505       -999.0000        165.5244         97.9178       -999.0000       -999.0000       -999.0000
 7454.0000          2.1290        167.2777         99.9904          0.1786          0.1233          0.6427
 7454.2495       -999.0000        168.4715        101.9840       -999.0000       -999.0000       -999.0000
 7454.5000          2.1240        169.1310        103.4838          0.1797          0.1240          0.6427
 7454.7505       -999.0000        169.4142        104.1611       -999.0000       -999.0000       -999.0000
 7455.0000       -999.0000        169.4328        103.8783       -999.0000       -999.0000       -999.0000
 7455.0005          2.1410       -999.0000       -999.0000          0.1756          0.1161          0.6659
 7455.2495       -999.0000        169.3116        102.7065       -999.0000       -999.0000       -999.0000
 7455.5000          2.1540        169.1283        100.9361          0.1711          0.0995          0.7082
 7455.7505       -999.0000        168.9446         98.9901       -999.0000       -999.0000       -999.0000
 7456.0000          2.1870        168.8593         97.2780          0.1732          0.0856          0.7409
 7456.2495       -999.0000        169.0435         96.1088       -999.0000       -999.0000       -999.0000
