~VERSION INFORMATION 
VERS  .    2.0                                     :CWLS Log ASCII Standard - VERSION 2.0
WRAP  .    NO                                      :One Line per Depth step
#--------------------------------------------------
~WELL INFORMATION 
#MNEM           .UNIT                      DATA            :DESCRIPTION
#----            ------          --------------            -----------------------------
STRT            .ft                   7364.0000            :START DEPTH
STOP            .ft                   8538.0000            :STOP DEPTH
STEP            .ft                         0.5            :STEP
NULL            .                     -999.0000            :NULL VALUE
COMP            .                         PDVSA            :COMPANY
WELL            .                        Well-2            :WELL NAME
FLD             .                       GUAFITA            :FIELD NAME
SRVC            .                       UNKNOWN            :SERVICE COMPANY
DATE            .                       UNKNOWN            :LOG DATE(Composite Date for Composite LAP) (MM/DD/YYYY)
CNTY            .                       UNKNOWN            :COUNTY
STAT            .                       BARINAS            :STATE or PROVINCE
PROV            .                       BARINAS            :STATE or PROVINCE
CTRY            .                     VENEZUELA            :COUNTRY
API             .                                          :API NUMBER
UWI             .                                          :UNIQUE WELL ID
LOC             .                       GUAFITA            :FIELD LOCATION
#--------------------------------------------------
~CURVE INFORMATION
#MNEM           .UNIT                  API CODE            :DESCRIPTION
#----            ------          --------------            -----------------------------
DEPTH           .ft                                        : Depth Index
RHOB            .g/cm3                                     : Density
DTSM            .us/ft                                     : Delta-T Shear
DTCO            .us/ft                                     : Delta-T Compressional
VSH             .v/v                                       : Shale Volume
SW              .v/v                                       : Water Saturation
NPHI            .fraction                                  : Neutron Porosity
#--------------------------------------------------
~PARAMETER INFORMATION
#MNEM           .UNIT                  VALUE               :DESCRIPTION
#----           -------          --------------            -----------------------------
EKB             .ft                   487.00000            :Elevation of Depth Reference (Kelly Bushing)
EGL             .ft                   457.00000            :Elevation of Ground Level
#-------------------------------------------------------------
#  DEPTH             RHOB           DTSM           DTCO             VSH             SW              PHI
~ASCII
# ...
 7551.5000          2.4535        234.0188        106.2441       -999.0000       -999.0000       -999.0000
 7552.0000          2.4771        229.9076        108.5955       -999.0000       -999.0000       -999.0000
 7552.5000          2.4795        226.2579        106.3536       -999.0000       -999.0000       -999.0000
 7552.9995          2.4753        217.6204        102.8555       -999.0000       -999.0000       -999.0000
 7553.5000          2.4750        217.5980         98.0041       -999.0000       -999.0000       -999.0000
 7554.0000          2.4745        207.3196         98.0466       -999.0000       -999.0000       -999.0000
 7554.5000          2.4745        208.0570         95.1221       -999.0000       -999.0000       -999.0000
 7555.0005          2.4790        203.1067         89.8937       -999.0000       -999.0000       -999.0000
 7555.5000          2.4854        199.9388         92.5100       -999.0000       -999.0000       -999.0000
 7556.0000          2.4924        195.2301         92.6977       -999.0000       -999.0000       -999.0000
 7556.5000          2.5020        189.1736         92.2665       -999.0000       -999.0000       -999.0000
 7556.9995          2.5124        185.4946         89.1290       -999.0000       -999.0000       -999.0000
 7557.5000          2.5212        179.5474         84.5088       -999.0000       -999.0000       -999.0000
 7558.0000          2.5245        178.6271         83.6250       -999.0000       -999.0000       -999.0000
 7558.5000          2.5188        178.3575         82.8170       -999.0000       -999.0000       -999.0000
 7559.0005          2.5063        178.6794         82.5766       -999.0000       -999.0000       -999.0000
 7559.5000          2.4973        178.0417         82.9815       -999.0000       -999.0000       -999.0000
 7560.0000          2.5040        177.5230         86.6895       -999.0000       -999.0000       -999.0000
 7560.5000          2.5141        177.7635         86.8062       -999.0000       -999.0000       -999.0000
 7560.9995          2.5129        175.6236         87.4152       -999.0000       -999.0000       -999.0000
 7561.5000          2.5056        172.6005         85.4396       -999.0000       -999.0000       -999.0000
 7562.0000          2.5000        172.2034         85.4011       -999.0000       -999.0000       -999.0000
 7562.5000          2.5047        177.0048         86.8058       -999.0000       -999.0000       -999.0000
 7563.0005          2.5230        176.6699         88.7781       -999.0000       -999.0000       -999.0000
 7563.5000          2.5375        178.3788         89.4601       -999.0000       -999.0000       -999.0000
 7564.0000          2.5307        178.5666         89.4912       -999.0000       -999.0000       -999.0000
 7564.5000          2.5142        177.3799         89.7781       -999.0000       -999.0000       -999.0000
 7564.9995          2.5117        177.0029         88.5597       -999.0000       -999.0000       -999.0000
 7565.5000          2.5172        175.9052         89.4860       -999.0000       -999.0000       -999.0000
 7566.0000          2.5128        176.1306         88.8565       -999.0000       -999.0000       -999.0000
 7566.5000          2.5081        175.8685         88.8455       -999.0000       -999.0000       -999.0000
 7567.0005          2.5162        174.9136         90.0126       -999.0000       -999.0000       -999.0000
 7567.5000          2.5254        174.9108         90.3708       -999.0000       -999.0000       -999.0000
 7568.0000          2.5273        175.9064         90.2614       -999.0000       -999.0000       -999.0000
 7568.5000          2.5274        171.3472         90.2825       -999.0000       -999.0000       -999.0000
 7568.9995          2.5243        170.5296         88.3468       -999.0000       -999.0000       -999.0000
 7569.5000          2.5156        166.5403         88.9780       -999.0000       -999.0000       -999.0000
 7570.0000          2.5097        166.4332         89.2141       -999.0000       -999.0000       -999.0000
 7570.5000          2.5004        166.1479         89.6261       -999.0000       -999.0000       -999.0000
 7571.0005          2.4670        167.3633         89.6240       -999.0000       -999.0000       -999.0000
 7571.5000          2.4164        171.5205         91.6628       -999.0000       -999.0000       -999.0000
 7572.0000          2.3945        175.7972         91.2257       -999.0000       -999.0000       -999.0000
 7572.5000          2.4238        176.8512         91.8434       -999.0000       -999.0000       -999.0000
 7572.9995          2.4626        175.3499         91.8129       -999.0000       -999.0000       -999.0000
 7573.5000          2.4731        169.7079         91.5311       -999.0000       -999.0000       -999.0000
 7574.0000          2.4577        168.6829         91.1989       -999.0000       -999.0000       -999.0000
 7574.5000          2.4422        170.6906         90.0236       -999.0000       -999.0000       -999.0000
 7575.0005          2.4311        169.1907         91.8558       -999.0000       -999.0000       -999.0000
 7575.5000          2.4201        173.2934         91.3158       -999.0000       -999.0000       -999.0000
 7576.0000          2.4189        177.0002         92.6588       -999.0000       -999.0000       -999.0000
 7576.5000          2.4258        177.5081         92.4672       -999.0000       -999.0000       -999.0000
 7576.9995          2.4301        176.4319         92.0957       -999.0000       -999.0000       -999.0000
 7577.5000          2.4333        178.0722         91.2997       -999.0000       -999.0000       -999.0000
 7578.0000          2.4434        178.4940         91.6430       -999.0000       -999.0000       -999.0000
 7578.5000          2.4529        178.6494         91.3716       -999.0000       -999.0000       -999.0000
 7579.0005          2.4491        179.6995         90.9745       -999.0000       -999.0000       -999.0000
 7579.5000          2.4408        179.3467         91.3848       -999.0000       -999.0000       -999.0000
 7580.0000          2.4416        179.6307         93.3920       -999.0000       -999.0000       -999.0000
 7580.5000          2.4306        185.4942         92.9323       -999.0000       -999.0000       -999.0000
 7580.9995          2.3918        184.2634         92.9523       -999.0000       -999.0000       -999.0000
 7581.5000          2.3586        185.5001         93.4671       -999.0000       -999.0000       -999.0000
 7582.0000          2.3857        188.4209         94.9825       -999.0000       -999.0000       -999.0000
 7582.5000          2.4589        188.1776         95.7278       -999.0000       -999.0000       -999.0000
 7583.0005          2.5112        187.2030         90.9709       -999.0000       -999.0000       -999.0000
 7583.5000          2.5078        179.3719         90.1243       -999.0000       -999.0000       -999.0000
 7584.0000          2.4757        176.4742         84.7843       -999.0000       -999.0000       -999.0000
 7584.5000          2.4608        169.5058         83.6520       -999.0000       -999.0000       -999.0000
 7584.9995          2.4684        168.6341         85.2651       -999.0000       -999.0000       -999.0000
 7585.5000          2.4802        167.9386         85.4276       -999.0000       -999.0000       -999.0000
 7586.0000          2.4798        177.0552         85.5481       -999.0000       -999.0000       -999.0000
 7586.5000          2.4679        178.9082         86.0544       -999.0000       -999.0000       -999.0000
 7587.0005          2.4643        180.5589         89.3977       -999.0000       -999.0000       -999.0000
 7587.5000          2.4794        189.9913         91.7626       -999.0000       -999.0000       -999.0000
 7588.0000          2.5030        190.9403         94.2051       -999.0000       -999.0000       -999.0000
 7588.5000          2.5222        190.6372         94.5369       -999.0000       -999.0000       -999.0000
