~VERSION INFORMATION 
VERS  .    2.0                                     :CWLS Log ASCII Standard - VERSION 2.0
WRAP  .    NO                                      :One Line per Depth step
#--------------------------------------------------
~WELL INFORMATION 
#MNEM           .UNIT                      DATA            :DESCRIPTION
#----            ------          --------------            -----------------------------
STRT            .ft                   7364.0000            :START DEPTH
STOP            .ft                   8538.0000            :STOP DEPTH
STEP            .ft                         0.5            :STEP
NULL            .                     -999.0000            :NULL VALUE
COMP            .                         PDVSA            :COMPANY
WELL            .                        Well-2            :WELL NAME
FLD             .                       GUAFITA            :FIELD NAME
SRVC            .                       UNKNOWN            :SERVICE COMPANY
DATE            .                       UNKNOWN            :LOG DATE(Composite Date for Composite LAP) (MM/DD/YYYY)
CNTY            .                       UNKNOWN            :COUNTY
STAT            .                       BARINAS            :STATE or PROVINCE
PROV            .                       BARINAS            :STATE or PROVINCE
CTRY            .                     VENEZUELA            :COUNTRY
API             .                                          :API NUMBER
UWI             .                                          :UNIQUE WELL ID
LOC             .                       GUAFITA            :FIELD LOCATION
#--------------------------------------------------
~CURVE INFORMATION
#MNEM           .UNIT                  API CODE            :DESCRIPTION
#----            ------          --------------            -----------------------------
DEPTH           .ft                                        : Depth Index
RHOB            .g/cm3                                     : Density
DTSM            .us/ft                                     : Delta-T Shear
DTCO            .us/ft                                     : Delta-T Compressional
VSH             .v/v                                       : Shale Volume
SW              .v/v                                       : Water Saturation
NPHI            .fraction                                  : Neutron Porosity
#--------------------------------------------------
~PARAMETER INFORMATION
#MNEM           .UNIT                  VALUE               :DESCRIPTION
#----           -------          --------------            -----------------------------
EKB             .ft                   487.00000            :Elevation of Depth Reference (Kelly Bushing)
EGL             .ft                   457.00000            :Elevation of Ground Level
#-------------------------------------------------------------
#  DEPTH             RHOB           DTSM           DTCO             VSH             SW              PHI
~ASCII
# ...
 7476.5000          2.4503        176.0564         89.9673       -999.0000       -999.0000       -999.0000
 7476.9995          2.4572        174.0608         89.6703       -999.0000       -999.0000       -999.0000
 7477.5000          2.4751        171.8722         89.5524       -999.0000       -999.0000       -999.0000
 7478.0000          2.4990        166.6526         88.1994       -999.0000       -999.0000       -999.0000
 7478.5000          2.5092        164.4011         82.2851       -999.0000       -999.0000       -999.0000
 7479.0005          2.4843        165.2643         82.1959       -999.0000       -999.0000       -999.0000
 7479.5000          2.4153        164.2915         84.6748       -999.0000       -999.0000       -999.0000
 7480.0000          2.3168        165.3448         87.4079       -999.0000       -999.0000       -999.0000
 7480.5000          2.2178        158.9267         93.8925       -999.0000       -999.0000       -999.0000
 7480.9995          2.1462        175.4840         97.1519       -999.0000       -999.0000       -999.0000
 7481.5000          2.1104        178.4761        100.0355       -999.0000       -999.0000       -999.0000
 7482.0000          2.0981        185.3135        100.2489       -999.0000       -999.0000       -999.0000
 7482.5000          2.0956        187.6558         99.6650       -999.0000       -999.0000       -999.0000
 7483.0005          2.0953        191.1152         98.9237       -999.0000       -999.0000       -999.0000
 7483.5000          2.1000        187.9169         95.4626       -999.0000       -999.0000       -999.0000
 7484.0000          2.1157        181.9824         96.1538       -999.0000       -999.0000       -999.0000
 7484.5000          2.1398        180.7771         96.1678       -999.0000       -999.0000       -999.0000
 7484.9995          2.1584        178.7769         95.8746       -999.0000       -999.0000       -999.0000
 7485.5000          2.1589        179.6175         97.4315       -999.0000       -999.0000       -999.0000
 7486.0000          2.1500        179.9960         97.5284       -999.0000       -999.0000       -999.0000
 7486.5000          2.1486        181.3294         95.0733       -999.0000       -999.0000       -999.0000
 7487.0005          2.1553        181.9761         94.2655       -999.0000       -999.0000       -999.0000
 7487.5000          2.1591        181.8879         92.2344       -999.0000       -999.0000       -999.0000
 7488.0000          2.1563        181.7259         93.2319       -999.0000       -999.0000       -999.0000
 7488.5000          2.1572        181.6584         94.1842       -999.0000       -999.0000       -999.0000
 7488.9995          2.1667        184.3648         94.3798       -999.0000       -999.0000       -999.0000
 7489.5000          2.1681        186.1100         97.8227       -999.0000       -999.0000       -999.0000
 7490.0000          2.1516        187.4218         97.0757       -999.0000       -999.0000       -999.0000
 7490.5000          2.1329        188.4069         96.8462       -999.0000       -999.0000       -999.0000
 7491.0005          2.1283        192.1130         97.5779       -999.0000       -999.0000       -999.0000
 7491.5000          2.1285        190.1809         97.5449       -999.0000       -999.0000       -999.0000
 7492.0000          2.1216        198.3672         98.8633       -999.0000       -999.0000       -999.0000
 7492.5000          2.1166        201.2642        100.6698       -999.0000       -999.0000       -999.0000
 7492.9995          2.1280        201.6577        101.5021       -999.0000       -999.0000       -999.0000
 7493.5000          2.1497        202.5422        101.9034       -999.0000       -999.0000       -999.0000
 7494.0000          2.1701        195.8586        101.9207       -999.0000       -999.0000       -999.0000
 7494.5000          2.1985        191.7282        100.4439       -999.0000       -999.0000       -999.0000
 7495.0005          2.2575        186.9316         96.5638       -999.0000       -999.0000       -999.0000
 7495.5000          2.3421        181.3602         88.9649       -999.0000       -999.0000       -999.0000
 7496.0000          2.4114        176.4780         86.9500       -999.0000       -999.0000       -999.0000
 7496.5000          2.4420        168.0860         85.3032       -999.0000       -999.0000       -999.0000
 7496.9995          2.4520        166.9437         85.4168       -999.0000       -999.0000       -999.0000
 7497.5000          2.4639        167.2332         84.7447       -999.0000       -999.0000       -999.0000
 7498.0000          2.4653        168.3478         87.1836       -999.0000       -999.0000       -999.0000
 7498.5000          2.4404        169.8944         87.2630       -999.0000       -999.0000       -999.0000
 7499.0005          2.4048        173.7560         88.2038       -999.0000       -999.0000       -999.0000
 7499.5000          2.3846        169.8699         89.4331       -999.0000       -999.0000       -999.0000
 7500.0000          2.3680        172.8093         90.0520       -999.0000       -999.0000       -999.0000
 7500.5000          2.3308        176.0872         91.5190       -999.0000       -999.0000       -999.0000
 7500.9995          2.2764        170.0099         97.4752       -999.0000       -999.0000       -999.0000
 7501.5000          2.2322        179.0812         97.7771       -999.0000       -999.0000       -999.0000
 7502.0000          2.2170        179.8999        101.0575       -999.0000       -999.0000       -999.0000
 7502.5000          2.2270        188.4200        101.4444       -999.0000       -999.0000       -999.0000
 7503.0005          2.2646        188.5434         99.6848       -999.0000       -999.0000       -999.0000
 7503.5000          2.3364        178.9186         98.0694       -999.0000       -999.0000       -999.0000
 7504.0000          2.4249        176.8658         92.9560       -999.0000       -999.0000       -999.0000
 7504.5000          2.4777        172.3503         90.7434       -999.0000       -999.0000       -999.0000
 7504.9995          2.4579        168.1114         90.7643       -999.0000       -999.0000       -999.0000
 7505.5000          2.4017        170.2839         90.7852       -999.0000       -999.0000       -999.0000
 7506.0000          2.3734        180.6183         90.8061       -999.0000       -999.0000       -999.0000
 7506.5000          2.3879        192.6326         94.4715       -999.0000       -999.0000       -999.0000
 7507.0005          2.4114        205.0424         96.5207       -999.0000       -999.0000       -999.0000
 7507.5000          2.4258        209.0998         95.1454       -999.0000       -999.0000       -999.0000
 7508.0000          2.4424        213.8240        101.2321       -999.0000       -999.0000       -999.0000
 7508.5000          2.4602        210.8222         96.3618       -999.0000       -999.0000       -999.0000
 7508.9995          2.4582        206.7726         94.4567       -999.0000       -999.0000       -999.0000
 7509.5000          2.4449        198.1384         91.2143       -999.0000       -999.0000       -999.0000
 7510.0000          2.4493        196.3549         90.3654       -999.0000       -999.0000       -999.0000
 7510.5000          2.4864        187.7544         92.4891       -999.0000       -999.0000       -999.0000
 7511.0005          2.5327        180.4956         85.0112       -999.0000       -999.0000       -999.0000
 7511.5000          2.5498        172.6687         83.6156       -999.0000       -999.0000       -999.0000
 7512.0000          2.5321        171.7120         83.7868       -999.0000       -999.0000       -999.0000
 7512.5000          2.5082        172.7560         83.9394       -999.0000       -999.0000       -999.0000
 7512.9995          2.5060        176.0753         84.5236       -999.0000       -999.0000       -999.0000
 7513.5000          2.5180        177.2968         90.1117       -999.0000       -999.0000       -999.0000
