~Version Information
VERS  .          2.0                              :CWLS Log Ascii Standard - Version 2.0
WRAP  .          NO                               :One line per depth step
~Well Information Block
#MNEM.UNIT       Data Type                        Information
#---------       ---------                        -------------------------------
STRT  .F         9850.00000                       :START DEPTH
STOP  .F         1453.50000                       :STOP DEPTH
STEP  .F         -0.50000                         :INCREMENT
NULL  .          -999.25                          :NULL DATA VALUE
COMP  .          ************                     :COMPANY
WELL  .          *******                          :WELL
FLD   .          ******                           :FIELD
LOC   .                                           :LOCATION
PROV  .                                           :PROVINCE
STAT  .                                           :STATE
CNTY  .                                           :COUNTY
CTRY  .                                           :COUNTRY
DATE  .                                           :DATE
UWI   .          ********                         :UNIQUE WELL UWI
LIC   .                                           :LICENSE NUMBER
API   .                                           :API NUMBER
SRVC  .          *****                            :SERVICE COMPANY
~Parameter Information Block
#MNEM.UNIT       Value                            Description
#---------       ---------                        -------------
~Curve Information Block
#MNEM.UNIT       API Code            Curve    Description
#--------        --------------      -----    -------------------
DEPT  .F                             :0       Index
CAL   .                              :1       Calibration Curve             
GR    .GAPI                          :2       Gamma Ray                     
NPHI  .V/V                           :3       Thermal Neutron Porosity (original Ratio Method) in Selected Lithology
RESD  .                              :4       Added by gf35 using QCTool    
RESS  .OHMM                          :5       Added by conefrem using QCTool 
RHOB  .G/C3                          :6       Bulk Density                  
SP    .MV                            :7       Spontaneous Potential         
~Ascii Data Section
# ...
   7613.50000       9.38158      36.40455       0.37009       4.30000       6.68500       2.38114     -20.08417 
   7613.00000       9.39658      36.40455       0.38052       4.70000       6.62000       2.38054     -19.64208 
   7612.50000       9.41736      36.40455       0.38969       5.40000       6.44500       2.38027     -19.24208 
   7612.00000       9.48736      36.40455       0.38826       6.10000       6.27000       2.38287     -19.20000 
   7611.50000       9.55526      36.40455       0.38585       6.10000       6.27000       2.38463     -19.20000 
   7611.00000       9.60526      36.40455       0.37518       6.10000       6.27000       2.37923     -19.20000 
   7610.50000       9.66052      36.40455       0.36285       6.15000       6.90000       2.37303     -19.20000 
   7610.00000       9.76052      36.40455       0.33637       6.20000       7.53000       2.36003     -19.55792 
   7609.50000       9.85684      36.40455       0.30928       6.35000       7.53000       2.34561     -19.95792 
   7609.00000       9.92184      27.62294       0.27705       6.50000       7.53000       2.31911     -19.64208 
   7608.50000       9.98210      27.62294       0.24818       6.60000       7.60000       2.29252     -19.24208 
   7608.00000      10.00210      27.62294       0.24794       6.70000       7.67000       2.26517     -19.20000 
   7607.50000      10.02000      31.32243       0.24836       6.75000       7.67000       2.24095     -19.20000 
   7607.00000      10.02000      31.32243       0.25435       6.80000       7.67000       2.24335     -19.20000 
   7606.50000      10.01842      31.32243       0.26079       6.80000       7.53500       2.24680     -19.20000 
   7606.00000      10.00342      31.32243       0.27110       6.80000       7.40000       2.25915     -19.20000 
   7605.50000       9.99053      27.62294       0.28131       6.95000       7.20000       2.27240     -19.20000 
   7605.00000       9.99553      27.62294       0.29078       7.10000       7.00000       2.29335     -19.55792 
   7604.50000      10.00631      27.62294       0.29943       7.15000       7.13000       2.31292     -19.95792 
   7604.00000      10.06631      27.62294       0.30111       7.20000       7.26000       2.32072     -20.71583 
   7603.50000      10.12894      36.40455       0.30236       7.35000       7.33000       2.32842     -21.51583 
   7603.00000      10.21394      36.40455       0.29996       7.50000       7.40000       2.33522     -21.95792 
   7602.50000      10.29684      36.40455       0.29688       7.45000       7.26500       2.34040     -22.35792 
   7602.00000      10.36184      36.40455       0.28801       7.40000       7.13000       2.33180     -22.75792 
   7601.50000      10.41842      27.62294       0.28042       7.30000       7.00000       2.32423     -23.15792 
   7601.00000      10.40342      36.40455       0.28366       7.20000       6.87000       2.32543     -23.55792 
   7600.50000      10.38790      36.40455       0.28737       7.10000       6.68500       2.32692     -23.95792 
   7600.00000      10.36790      36.40455       0.29516       7.00000       6.50000       2.33092     -24.00000 
   7599.50000      10.34684      36.40455       0.30266       6.60000       6.06000       2.33498     -24.00000 
   7599.00000      10.31684      36.40455       0.30769       6.20000       5.62000       2.33958     -24.35792 
   7598.50000      10.28790      36.40455       0.31255       6.05000       5.47000       2.34338     -24.75792 
   7598.00000      10.26790      36.40455       0.31590       5.90000       5.32000       2.34038     -24.80000 
   7597.50000      10.24947      36.40455       0.31962       5.65000       5.04000       2.33743     -24.80000 
   7597.00000      10.24447      36.40455       0.32645       5.40000       4.76000       2.33483     -24.80000 
   7596.50000      10.24263      36.40455       0.33144       5.35000       4.67500       2.33424     -24.80000 
   7596.00000      10.26763      36.40455       0.32078       5.30000       4.59000       2.35079     -24.80000 
   7595.50000      10.29316      36.40455       0.31124       5.30000       4.67500       2.36560     -24.80000 
   7595.00000      10.32316    -999.25000    -999.25000       5.30000       4.76000    -999.25000     -23.01042 
   7594.50000      10.35526    -999.25000    -999.25000       5.50000       5.24000    -999.25000     -21.01042 
   7594.00000      10.40526    -999.25000    -999.25000       5.70000       5.72000    -999.25000     -20.44208 
   7593.50000      10.45000    -999.25000    -999.25000       5.85000       5.82500    -999.25000     -20.04208 
   7593.00000    -999.25000    -999.25000    -999.25000       6.00000       5.93000    -999.25000     -19.64208 
   7592.50000    -999.25000    -999.25000    -999.25000       6.05000       5.98500    -999.25000     -19.24208 
   7592.00000    -999.25000    -999.25000    -999.25000       6.10000       6.04000    -999.25000     -19.20000 
   7591.50000    -999.25000    -999.25000    -999.25000       6.10000       6.04000    -999.25000     -19.20000 
   7591.00000    -999.25000    -999.25000    -999.25000       6.10000       6.04000    -999.25000     -19.20000 
   7590.50000    -999.25000    -999.25000    -999.25000       6.15000       6.04000    -999.25000     -19.20000 
   7590.00000    -999.25000    -999.25000    -999.25000       6.20000       6.04000    -999.25000     -18.12625 
   7589.50000    -999.25000    -999.25000    -999.25000       6.20000       5.98500    -999.25000     -16.92625 
   7589.00000    -999.25000    -999.25000    -999.25000       6.20000       5.93000    -999.25000     -16.80000 
   7588.50000    -999.25000    -999.25000    -999.25000       6.20000       5.88000    -999.25000     -16.80000 
   7588.00000    -999.25000    -999.25000    -999.25000       6.20000       5.83000    -999.25000     -16.80000 
   7587.50000    -999.25000    -999.25000    -999.25000       6.10000       5.83000    -999.25000     -16.80000 
   7587.00000    -999.25000    -999.25000    -999.25000       6.00000       5.83000    -999.25000     -16.80000 
   7586.50000    -999.25000    -999.25000    -999.25000       5.90000       5.77500    -999.25000     -16.80000 
   7586.00000    -999.25000    -999.25000    -999.25000       5.80000       5.72000    -999.25000     -16.44208 
   7585.50000    -999.25000    -999.25000    -999.25000       5.75000       5.67000    -999.25000     -16.04208 
   7585.00000    -999.25000    -999.25000    -999.25000       5.70000       5.62000    -999.25000     -16.00000 
   7584.50000    -999.25000    -999.25000    -999.25000       5.50000       5.56500    -999.25000     -16.00000 
   7584.00000    -999.25000    -999.25000    -999.25000       5.30000       5.51000    -999.25000     -15.64208 
   7583.50000    -999.25000    -999.25000    -999.25000       5.25000       5.46000    -999.25000     -15.24208 
   7583.00000    -999.25000    -999.25000    -999.25000       5.20000       5.41000    -999.25000     -15.20000 
   7582.50000    -999.25000    -999.25000    -999.25000       5.30000       5.26500    -999.25000     -15.20000 
   7582.00000    -999.25000    -999.25000    -999.25000       5.40000       5.12000    -999.25000     -15.20000 
   7581.50000    -999.25000    -999.25000    -999.25000       5.45000       5.03000    -999.25000     -15.20000 
   7581.00000    -999.25000    -999.25000    -999.25000       5.50000       4.94000    -999.25000     -15.55792 
   7580.50000    -999.25000    -999.25000    -999.25000       5.45000       4.94000    -999.25000     -15.95792 
   7580.00000    -999.25000    -999.25000    -999.25000       5.40000       4.94000    -999.25000     -16.71583 
   7579.50000    -999.25000    -999.25000    -999.25000       5.40000       4.98500    -999.25000     -17.51583 
   7579.00000    -999.25000    -999.25000    -999.25000       5.40000       5.03000    -999.25000     -17.95792 
   7578.50000    -999.25000    -999.25000    -999.25000       5.35000       4.98500    -999.25000     -18.35792 
