~Version Information
VERS  .          2.0                              :CWLS Log Ascii Standard - Version 2.0
WRAP  .          NO                               :One line per depth step
~Well Information Block
#MNEM.UNIT       Data Type                        Information
#---------       ---------                        -------------------------------
STRT  .F         9850.00000                       :START DEPTH
STOP  .F         1453.50000                       :STOP DEPTH
STEP  .F         -0.50000                         :INCREMENT
NULL  .          -999.25                          :NULL DATA VALUE
COMP  .          ************                     :COMPANY
WELL  .          *******                          :WELL
FLD   .          ******                           :FIELD
LOC   .                                           :LOCATION
PROV  .                                           :PROVINCE
STAT  .                                           :STATE
CNTY  .                                           :COUNTY
CTRY  .                                           :COUNTRY
DATE  .                                           :DATE
UWI   .          ********                         :UNIQUE WELL UWI
LIC   .                                           :LICENSE NUMBER
API   .                                           :API NUMBER
SRVC  .          *****                            :SERVICE COMPANY
~Parameter Information Block
#MNEM.UNIT       Value                            Description
#---------       ---------                        -------------
~Curve Information Block
#MNEM.UNIT       API Code            Curve    Description
#--------        --------------      -----    -------------------
DEPT  .F                             :0       Index
CAL   .                              :1       Calibration Curve             
GR    .GAPI                          :2       Gamma Ray                     
NPHI  .V/V                           :3       Thermal Neutron Porosity (original Ratio Method) in Selected Lithology
RESD  .                              :4       Added by gf35 using QCTool    
RESS  .OHMM                          :5       Added by conefrem using QCTool 
RHOB  .G/C3                          :6       Bulk Density                  
SP    .MV                            :7       Spontaneous Potential         
~Ascii Data Section
# ...
   8820.50000      10.41275      61.28350       0.29873       6.40000       6.71500       2.47839     -65.20000 
   8820.00000      10.45270      61.28350       0.30112       6.50000       6.78000       2.48594     -65.60000 
   8819.50000      10.50117      61.28350       0.28893       6.85000       7.03500       2.48458     -65.60000 
   8819.00000      10.55617      61.28350       0.26561       7.20000       7.29000       2.47643     -65.60000 
   8818.50000      10.58850      61.28350       0.25286       7.65000       7.64000       2.47695     -65.60000 
   8818.00000      10.60350      61.28350       0.24819       8.10000       7.99000       2.48410     -65.60000 
   8817.50000      10.62983      61.28350       0.24122       8.75000       8.79000       2.47354     -65.60000 
   8817.00000      10.66483      61.28350       0.23249       9.40000       9.59000       2.44944     -65.60000 
   8816.50000      10.68000      61.28350       0.23169       9.45000       9.68000       2.45164     -65.60000 
   8816.00000      10.68000      61.28350       0.23695       9.50000       9.77000       2.47394     -65.60000 
   8815.50000      10.61483      61.28350       0.23157       9.25000       9.68000       2.48632     -66.00000 
   8815.00000      10.49997      61.28350       0.21807       9.00000       9.59000       2.49111     -66.40000 
   8814.50000      10.35967      53.12208       0.21321       8.60000       8.93500       2.49568     -65.60001 
   8814.00000      10.19967      53.12208       0.21501       8.20000       8.28000       2.50008     -64.80000 
   8813.50000      10.17799      61.28350       0.22281       7.25000       7.17500       2.48072     -64.00000 
   8813.00000      10.26299      61.28350       0.23525       6.30000       6.07000       2.44302     -63.20000 
   8812.50000      10.39598      61.28350       0.25640       6.50000       6.30000       2.43222     -64.00000 
   8812.00000      10.56598      62.94914       0.28427       6.70000       6.53000       2.44217     -64.80000 
   8811.50000      10.65129      62.94914       0.29573       6.90000       6.91000       2.45788     -65.20000 
   8811.00000      10.67129      62.94914       0.29454       7.10000       7.29000       2.47803     -65.60000 
   8810.50000      10.71952      61.28350       0.28328       7.40000       7.49500       2.49874     -66.39999 
   8810.00000      10.78944      61.28350       0.26428       7.70000       7.70000       2.51987     -67.20000 
   8809.50000      10.82000      61.28350       0.25026       8.35000       8.55500       2.52437     -67.60000 
   8809.00000      10.82000      61.28350       0.24009       9.00000       9.41000       2.51597     -68.00000 
   8808.50000      10.74406      61.28350       0.23309       9.80000       9.96000       2.50985     -68.40000 
   8808.00000      10.60906      61.28350       0.22854      10.60000      10.51000       2.50550     -68.80000 
   8807.50000      10.47406      61.28350       0.23059      11.95000      11.56000       2.50135     -70.00000 
   8807.00000      10.33906      61.28350       0.23777      13.30000      12.61000       2.49735     -71.20000 
   8806.50000      10.22937      61.28350       0.23855      14.50000      13.73500       2.49054     -72.39999 
   8806.00000      10.13938      61.28350       0.23437      15.70000      14.86000       2.48154     -73.60000 
   8805.50000      10.08031      61.28350       0.23004      15.95000      16.19000       2.48187     -73.60000 
   8805.00000      10.04535      61.28350       0.22562      16.20000      17.52000       2.48947     -73.60000 
   8804.50000      10.00478      53.12208       0.22744      19.20000      20.07000       2.48711     -74.80000 
   8804.00000       9.95978      53.12208       0.23414      22.20000      22.62000       2.47696     -76.00000 
   8803.50000       9.92319      53.12208       0.24124      26.25000      30.87000       2.46690     -76.40000 
   8803.00000       9.89319      53.12208       0.24865      30.30000      39.12000       2.45690     -76.80000 
   8802.50000       9.86879      53.12208       0.25547      35.40000      39.48500       2.43653     -77.20000 
   8802.00000       9.84879      36.40455       0.26181      40.50000      39.85000       2.40803     -77.60000 
   8801.50000       9.84280      36.40455       0.25527      40.50000      39.85000       2.39550     -77.60000 
   8801.00000       9.84780      36.40455       0.23865      40.50000      39.85000       2.39550     -77.60000 
   8800.50000       9.85000      36.40455       0.23462      40.20000      40.27500       2.38779     -78.80000 
   8800.00000       9.85000      36.40455       0.24048      39.90000      40.70000       2.37406     -80.00000 
   8799.50000       9.85000      36.40455       0.24216      40.30000      40.70000       2.36864     -79.60000 
   8799.00000       9.85000      36.40455       0.24054      40.70000      40.70000       2.36979     -79.20000 
   8798.50000       9.85000      36.40455       0.23668      40.70000      40.70000       2.36572     -78.39999 
   8798.00000       9.85000      36.40455       0.23106      40.70000      40.70000       2.35752     -77.60000 
   8797.50000       9.85000      27.62294       0.23125      40.70000      39.96500       2.35345     -76.80000 
   8797.00000       9.85000      27.62294       0.23603      40.70000      39.23000       2.35265     -76.00000 
   8796.50000       9.85279      27.62294       0.24303      39.95000      37.84500       2.34406     -75.60000 
   8796.00000       9.85779      27.62294       0.25176      39.20000      36.46000       2.32931     -75.20000 
   8795.50000       9.86000      27.62294       0.26244      38.15000      34.56000       2.31588     -74.80000 
   8795.00000       9.86000      36.40455       0.27463      37.10000      32.66000       2.30349     -74.40000 
   8794.50000       9.84609      36.40455       0.28630      32.65000      27.04000       2.29878     -72.80000 
   8794.00000       9.82109      53.12208       0.29755      28.20000      21.42000       2.30018     -71.20000 
   8793.50000       9.81278      53.12208       0.30281      24.20000      18.84500       2.32044     -69.60000 
   8793.00000       9.81778      53.12208       0.30329      20.20000      16.27000       2.35574     -68.00000 
   8792.50000       9.81722      53.12208       0.30510      16.05000      13.67000       2.37963     -66.40000 
   8792.00000       9.81222      53.12208       0.30797      11.90000      11.07000       2.39443     -64.80000 
   8791.50000       9.81000      53.12208       0.29413      11.15000      10.14500       2.40520     -64.40000 
   8791.00000       9.81000      53.12208       0.26696      10.40000       9.22000       2.41275     -64.00000 
   8790.50000       9.81834      53.12208       0.26196       9.80000       9.05000       2.42144     -63.60000 
   8790.00000       9.83333      53.12208       0.27463       9.20000       8.88000       2.43103     -63.20000 
   8789.50000       9.83446      53.12208       0.28167       8.70000       8.49500       2.43907     -62.80000 
   8789.00000       9.82446      53.12208       0.28419       8.20000       8.11000       2.44587     -62.40000 
   8788.50000       9.82554      53.12208       0.27887       8.05000       7.89000       2.44524     -62.80000 
   8788.00000       9.83554      53.12208       0.26726       7.90000       7.67000       2.43864     -63.20000 
   8787.50000       9.83736      53.12208       0.25078       7.85000       7.53500       2.43496     -63.60000 
   8787.00000       9.83260      36.40455       0.23037       7.80000       7.40000       2.43363     -64.00000 
   8786.50000       9.83217      36.40455       0.21758       7.80000       7.40000       2.42694     -64.40000 
   8786.00000       9.83694      36.40455       0.21393       7.80000       7.40000       2.41383     -64.80000 
   8785.50000       9.83830      27.62294       0.21349       7.80000       7.40000       2.39822     -65.60001 
