~Version Information
VERS  .          2.0                              :CWLS Log Ascii Standard - Version 2.0
WRAP  .          NO                               :One line per depth step
~Well Information Block
#MNEM.UNIT       Data Type                        Information
#---------       ---------                        -------------------------------
STRT  .F         9850.00000                       :START DEPTH
STOP  .F         1453.50000                       :STOP DEPTH
STEP  .F         -0.50000                         :INCREMENT
NULL  .          -999.25                          :NULL DATA VALUE
COMP  .          ************                     :COMPANY
WELL  .          *******                          :WELL
FLD   .          ******                           :FIELD
LOC   .                                           :LOCATION
PROV  .                                           :PROVINCE
STAT  .                                           :STATE
CNTY  .                                           :COUNTY
CTRY  .                                           :COUNTRY
DATE  .                                           :DATE
UWI   .          ********                         :UNIQUE WELL UWI
LIC   .                                           :LICENSE NUMBER
API   .                                           :API NUMBER
SRVC  .          *****                            :SERVICE COMPANY
~Parameter Information Block
#MNEM.UNIT       Value                            Description
#---------       ---------                        -------------
~Curve Information Block
#MNEM.UNIT       API Code            Curve    Description
#--------        --------------      -----    -------------------
DEPT  .F                             :0       Index
CAL   .                              :1       Calibration Curve             
GR    .GAPI                          :2       Gamma Ray                     
NPHI  .V/V                           :3       Thermal Neutron Porosity (original Ratio Method) in Selected Lithology
RESD  .                              :4       Added by gf35 using QCTool    
RESS  .OHMM                          :5       Added by conefrem using QCTool 
RHOB  .G/C3                          :6       Bulk Density                  
SP    .MV                            :7       Spontaneous Potential         
~Ascii Data Section
# ...
   9566.00000       9.53059      27.62294       0.23366       6.30000       6.39000       2.35469    -124.59990 
   9565.50000       9.53441      27.62294       0.22682       6.40000       6.39000       2.34838    -124.94990 
   9565.00000       9.53941      27.62294       0.21881       6.50000       6.39000       2.34098    -125.29990 
   9564.50000       9.57084      27.62294       0.21796       6.50000       6.50500       2.32728    -125.29990 
   9564.00000       9.60584      27.62294       0.21808       6.50000       6.62000       2.31273    -125.29990 
   9563.50000       9.62322      27.62294       0.22062       6.50000       6.68500       2.30012    -125.29990 
   9563.00000       9.63819      27.62294       0.22349       6.50000       6.75000       2.28779    -125.29990 
   9562.50000       9.63560      27.62294       0.22826       6.35000       6.62500       2.28419    -124.94990 
   9562.00000       9.63060      27.62294       0.23328       6.20000       6.50000       2.28179    -124.59990 
   9561.50000       9.63000      27.62294       0.23705       6.40000       6.44500       2.28414    -124.59990 
   9561.00000       9.63000      27.62294       0.24064       6.60000       6.39000       2.28714    -124.59990 
   9560.50000       9.63000      27.62294       0.23665       6.80000       6.57000       2.29818    -124.59990 
   9560.00000       9.63000      27.62294       0.23162       7.00000       6.75000       2.31033    -124.59990 
   9559.50000       9.62560      27.62294       0.23270       7.10000       6.87500       2.31356    -124.59990 
   9559.00000       9.62060      27.62294       0.23461       7.20000       7.00000       2.31556    -124.59990 
   9558.50000       9.62879      27.62294       0.24442       7.30000       7.06500       2.31404    -124.59990 
   9558.00000       9.63877      27.62294       0.25529       7.40000       7.13000       2.31205    -124.59990 
   9557.50000       9.64000      27.62294       0.25180       7.60000       7.40000       2.30728    -124.94990 
   9557.00000       9.64000      27.62294       0.24629       7.80000       7.67000       2.30213    -125.29990 
   9556.50000       9.62246      27.62294       0.24152       7.95000       7.89000       2.30426    -125.29990 
   9556.00000       9.60246      36.40455       0.23686       8.10000       8.11000       2.30741    -125.29990 
   9555.50000       9.59123      36.40455       0.23208       8.10000       8.18500       2.31254    -125.69990 
   9555.00000       9.58123      36.40455       0.22730       8.10000       8.26000       2.31794    -126.09990 
   9554.50000       9.58439      36.40455       0.22828       8.00000       8.33500       2.32351    -125.69990 
   9554.00000       9.58939      36.40455       0.23008       7.90000       8.41000       2.32911    -125.29990 
   9553.50000       9.58561      36.40455       0.22736       7.75000       8.41000       2.33712    -125.29990 
   9553.00000       9.58062      36.40455       0.22402       7.60000       8.41000       2.34546    -125.29990 
   9552.50000       9.56688      27.62294       0.22821       7.55000       8.26000       2.35070    -125.29990 
   9552.00000       9.55188      27.62294       0.23347       7.50000       8.11000       2.35550    -125.29990 
   9551.50000       9.54562      27.62294       0.23151       7.35000       8.03500       2.34634    -124.94990 
   9551.00000       9.54062      27.62294       0.22852       7.20000       7.96000       2.33519    -124.59990 
   9550.50000       9.54000      27.62294       0.23003       7.10000       7.74500       2.31809    -124.59990 
   9550.00000       9.54000      27.62294       0.23218       7.00000       7.53000       2.30014    -124.59990 
   9549.50000       9.54000      27.62294       0.23005       6.75000       7.33000       2.28810    -124.59990 
   9549.00000       9.54000      27.62294       0.22729       6.50000       7.13000       2.27690    -124.59990 
   9548.50000       9.54000      27.62294       0.22988       6.55000       7.00000       2.27362    -124.59990 
   9548.00000       9.54000      27.62294       0.23323       6.60000       6.87000       2.27147    -124.59990 
   9547.50000       9.54873      27.62294       0.23751       6.60000       6.93500       2.28355    -124.59990 
   9547.00000       9.55873      27.62294       0.24194       6.60000       7.00000       2.29770    -124.59990 
   9546.50000       9.56000      27.62294       0.24083       6.70000       7.20000       2.30836    -124.19990 
   9546.00000       9.56000      27.62294       0.23892       6.80000       7.40000       2.31851    -123.79990 
   9545.50000       9.56437      27.62294       0.23575       7.20000       7.98000       2.31928    -123.39995 
   9545.00000       9.56936      36.40455       0.23240       7.60000       8.56000       2.31868    -123.00000 
   9544.50000       9.58309      36.40455       0.22936       8.15000       9.33000       2.31825    -122.60000 
   9544.00000       9.59809      53.12208       0.22637       8.70000      10.10000       2.31785    -122.20000 
   9543.50000       9.59127      53.12208       0.22839       8.70000       9.83000       2.32234    -121.39995 
   9543.00000       9.58129      61.28350       0.23114       8.70000       9.56000       2.32753    -120.59990 
   9542.50000       9.58000      61.28350       0.25525       7.95000       8.91000       2.35946    -120.19990 
   9542.00000       9.58000      61.28350       0.28254       7.20000       8.26000       2.39536    -119.79990 
   9541.50000       9.59306      53.12208       0.29711       6.90000       7.83000       2.42900    -120.99995 
   9541.00000       9.60806      36.40455       0.30979       6.60000       7.40000       2.46230    -122.20000 
   9540.50000       9.57952      36.40455       0.29528       6.35000       7.07500       2.46677    -122.99995 
   9540.00000       9.54452      27.62294       0.27673       6.10000       6.75000       2.46697    -123.79990 
   9539.50000       9.51823      27.62294       0.25235       6.30000       6.68500       2.42359    -123.79990 
   9539.00000       9.49323      27.62294       0.22710       6.50000       6.62000       2.37374    -123.79990 
   9538.50000       9.48129      27.62294       0.22425       7.05000       6.94000       2.34261    -124.19990 
   9538.00000       9.47131      36.40455       0.22473       7.60000       7.26000       2.31431    -124.59990 
   9537.50000       9.47000      36.40455       0.22687       7.40000       7.61000       2.30938    -124.19990 
   9537.00000       9.47000      36.40455       0.22927       7.20000       7.96000       2.30798    -123.79990 
   9536.50000       9.48738      36.40455       0.22958       6.90000       7.68000       2.31805    -123.79990 
   9536.00000       9.50737      36.40455       0.22958       6.60000       7.40000       2.32985    -123.79990 
   9535.50000       9.49697      36.40455       0.22698       6.40000       7.07500       2.35025    -123.79990 
   9535.00000       9.48197      36.40455       0.22399       6.20000       6.75000       2.37195    -123.79990 
   9534.50000       9.47566      36.40455       0.21393       6.15000       6.63000       2.37345    -123.79990 
   9534.00000       9.47066      27.62294       0.20280       6.10000       6.51000       2.37190    -123.79990 
   9533.50000       9.48303      27.62294       0.19968       6.10000       6.45000       2.36458    -123.79990 
   9533.00000       9.49800      27.62294       0.19777       6.10000       6.39000       2.35639    -123.79990 
   9532.50000       9.48700      27.62294       0.20052       6.10000       6.21500       2.33957    -123.39995 
   9532.00000       9.47200      27.62294       0.20399       6.10000       6.04000       2.32142    -123.00000 
   9531.50000       9.47000      27.62294       0.20217       6.10000       6.10000       2.31350    -123.00000 
   9531.00000       9.47000      27.62294       0.19954       6.10000       6.16000       2.30715    -123.00000 
