~Version Information
VERS  .          2.0                              :CWLS Log Ascii Standard - Version 2.0
WRAP  .          NO                               :One line per depth step
~Well Information Block
#MNEM.UNIT       Data Type                        Information
#---------       ---------                        -------------------------------
STRT  .F         9346.00000                       :START DEPTH
STOP  .F         2030.00000                       :STOP DEPTH
STEP  .F         -0.50000                         :INCREMENT
NULL  .          -999.25                          :NULL DATA VALUE
COMP  .          ************                     :COMPANY
WELL  .          ********                         :WELL
FLD   .          ******                           :FIELD
LOC   .                                           :LOCATION
PROV  .                                           :PROVINCE
STAT  .                                           :STATE
CNTY  .                                           :COUNTY
CTRY  .          ************                     :COUNTRY
DATE  .                                           :DATE
UWI   .          ********                         :UNIQUE WELL UWI
LIC   .                                           :LICENSE NUMBER
API   .                                           :API NUMBER
SRVC  .          *****                            :SERVICE COMPANY
~Parameter Information Block
#MNEM.UNIT       Value                            Description
#---------       ---------                        -------------
~Curve Information Block
#MNEM.UNIT       API Code            Curve    Description
#--------        --------------      -----    -------------------
DEPT  .F                             :0       Index
CAL   .                              :1       Calibration Curve             
ASN   .OHMM                          :2       Amplified Short Normal        
I6FR  .OHMM                          :3       I6FR - Deep Induction Log - PDVSA
DPHI  .V/V                           :4       Density Porosity              
GR    .GAPI                          :5       Gamma Ray                     
NPHI  .V/V                           :6       Thermal Neutron Porosity (original Ratio Method) in Selected Lithology
SP    .MV                            :7       Spontaneous Potential         
~Ascii Data Section
# ...
   8423.00000      12.72264      10.10000       5.90000       0.17652      68.48193       0.42267    -999.25000 
   8422.50000      12.74000       8.60000       5.20000       0.17698      67.88423       0.43539    -999.25000 
   8422.00000      12.74000       7.10000       4.50000       0.18048      67.14838       0.44139    -999.25000 
   8421.50000      12.78525       6.30000       4.10000       0.18822      66.35088       0.43636    -999.25000 
   8421.00000      12.86525       5.50000       3.70000       0.19922      72.62534       0.42286    -999.25000 
   8420.50000      12.83212       5.15000       3.40000       0.20853      82.14558       0.42124    -999.25000 
   8420.00000      12.71212       4.80000       3.10000       0.21653      83.87975       0.42874    -999.25000 
   8419.50000      12.72787       4.75000       3.10000       0.21547      81.93719       0.43709    -999.25000 
   8419.00000      12.84787       4.70000       3.10000       0.20747      84.21355       0.44609    -999.25000 
   8418.50000      12.77839       4.70000       3.10000       0.20485      88.55000       0.44774    -999.25000 
   8418.00000      12.56339       4.70000       3.10000       0.20635      89.31814       0.44374    -999.25000 
   8417.50000      12.52374       4.90000       3.20000       0.20898      88.29375       0.43945    -999.25000 
   8417.00000      12.61873       5.10000       3.30000       0.21248      87.26936       0.43495    -999.25000 
   8416.50000      12.70525       5.30000       3.40000       0.21626      88.29147       0.43526    -999.25000 
   8416.00000      12.78525       5.50000       3.50000       0.22026      89.46220       0.43926    -999.25000 
   8415.50000      12.63052       6.00000       3.70000       0.21436      90.40000       0.44015    -999.25000 
   8415.00000      12.29552       6.50000       3.90000       0.20086      90.40000       0.43865    -999.25000 
   8414.50000      12.12737       6.70000       4.50000       0.19217      90.40000       0.43743    -999.25000 
   8414.00000      12.08737       6.90000       5.10000       0.18717      89.19144       0.43643    -999.25000 
   8413.50000      12.03889       7.20000       5.60000       0.18443      86.59566       0.41422    -999.25000 
   8413.00000      11.98389       7.50000       6.10000       0.18343      83.99810       0.37572    -999.25000 
   8412.50000      11.97131       8.00000       7.00000       0.18357      79.87561       0.35080    -999.25000 
   8412.00000      11.99131       8.50000       7.90000       0.18457      75.19268       0.33630    -999.25000 
   8411.50000      11.98869       8.90000       8.50000       0.18047      70.50976       0.32972    -999.25000 
   8411.00000      11.96869       9.30000       9.10000       0.17247      71.96037       0.32922    -999.25000 
   8410.50000      11.96000       9.50000       9.20000       0.15740      73.42378       0.33890    -999.25000 
   8410.00000      11.96000       9.70000       9.30000       0.13692      74.26768       0.35639    -999.25000 
   8409.50000      11.94871       9.60000       7.80000       0.13195      73.38963       0.37190    -999.25000 
   8409.00000      11.92871       9.50000       6.30000       0.13895      72.33508       0.38590    -999.25000 
   8408.50000      12.00751       9.00000       5.70000       0.14285      72.72958       0.39369    -999.25000 
   8408.00000      12.16251       8.50000       5.10000       0.14435      73.53546       0.39669    -999.25000 
   8407.50000      12.25258       8.10000       4.90000       0.14782      77.22739       0.38473    -999.25000 
   8407.00000      12.29258       7.70000       4.70000       0.15282      81.66344       0.36123    -999.25000 
   8406.50000      12.29871       7.70000       5.30000       0.15669      81.35561       0.34394    -999.25000 
   8406.00000      12.27871       7.70000       5.90000       0.15969      79.94533       0.33144    -999.25000 
   8405.50000      12.24742       8.30000       6.90000       0.15846      80.03284       0.32092    -999.25000 
   8405.00000      12.20742       8.90000       7.90000       0.15396      80.43613       0.31192    -999.25000 
   8404.50000      12.20129       9.50000       9.70000       0.16470      79.65215       0.30433    -999.25000 
   8404.00000      12.22129      10.10000      11.50000       0.18720      78.64481       0.29783    -999.25000 
   8403.50000      12.23000      10.70000      13.70000       0.20434      76.42990       0.29359    -999.25000 
   8403.00000      12.23000      11.30000      15.90000       0.21734      74.01228       0.29109    -999.25000 
   8402.50000      12.22718      13.30000      17.20000       0.22865      69.30924       0.29480    -999.25000 
   8402.00000      12.22218      15.30000      18.50000       0.23865      64.27188       0.30330    -999.25000 
   8401.50000      12.20871      16.20000      19.80000       0.24780      59.99418       0.30982    -999.25000 
   8401.00000      12.18871      17.10000      21.10000       0.25630      55.81369       0.31482    -999.25000 
   8400.50000      12.19129      17.70000      22.20000       0.25831      55.40000       0.31841    -999.25000 
   8400.00000      12.21129      18.30000      23.30000       0.25531      55.40000       0.32091    -999.25000 
   8399.50000      12.20871      19.90000      30.05000       0.25344      53.36852       0.32228    -999.25000 
   8399.00000      12.18871      21.50000      36.80000       0.25244      51.15236       0.32278    -999.25000 
   8398.50000      12.18000      22.10000      39.10000       0.24240      49.31144       0.32102    -999.25000 
   8398.00000      12.18000      22.70000      41.40000       0.22540      47.49822       0.31752    -999.25000 
   8397.50000      12.18000      24.65000      42.50000       0.21461      50.45210       0.31572    -999.25000 
   8397.00000      12.18000      26.60000      43.60000       0.20861      53.67576       0.31522    -999.25000 
   8396.50000      12.19128      26.80000      42.70000       0.21164      56.85084       0.31077    -999.25000 
   8396.00000      12.21127      27.00000      41.80000       0.22164      60.02398       0.30327    -999.25000 
   8395.50000      12.22000      27.20000      41.00000       0.22459      59.36182       0.29775    -999.25000 
   8395.00000      12.22000      27.40000      40.20000       0.22209      58.60629       0.29375    -999.25000 
   8394.50000      12.22000      27.60000      40.90000       0.22354      58.00063       0.29482    -999.25000 
   8394.00000      12.22000      27.80000      41.60000       0.22804      57.39874       0.29982    -999.25000 
   8393.50000      12.20873      28.20000      42.20000       0.23451      57.19727       0.30651    -999.25000 
   8393.00000      12.18873      28.60000      42.80000       0.24251      56.99118       0.31451    -999.25000 
   8392.50000      12.18000      29.00000      45.20000       0.24769      56.58825       0.31969    -999.25000 
   8392.00000      12.18000      29.40000      47.60000       0.25069      56.22938       0.32269    -999.25000 
   8391.50000      12.18000      29.50000      54.65000       0.25228      57.03526       0.32118    -999.25000 
   8391.00000      12.18000      29.60000      61.70000       0.25278      57.73824       0.31618    -999.25000 
   8390.50000      12.18000      29.50000      59.70000       0.24511      56.52822       0.31315    -999.25000 
   8390.00000      12.18000      29.40000      57.70000       0.23111      55.40000       0.31165    -999.25000 
   8389.50000      12.18000      29.20000      56.75000       0.23092      55.40000       0.31241    -999.25000 
   8389.00000      12.18000      29.00000      55.80000       0.24142      55.36723       0.31491    -999.25000 
   8388.50000      12.18000      28.80000      53.95000       0.24375      54.96390       0.31346    -999.25000 
   8388.00000      12.18000      28.60000      52.10000       0.23975      54.40483       0.30896    -999.25000 
