~Version Information
VERS  .          2.0                              :CWLS Log Ascii Standard - Version 2.0
WRAP  .          NO                               :One line per depth step
~Well Information Block
#MNEM.UNIT       Data Type                        Information
#---------       ---------                        -------------------------------
STRT  .F         9850.00000                       :START DEPTH
STOP  .F         1453.50000                       :STOP DEPTH
STEP  .F         -0.50000                         :INCREMENT
NULL  .          -999.25                          :NULL DATA VALUE
COMP  .          ************                     :COMPANY
WELL  .          *******                          :WELL
FLD   .          ******                           :FIELD
LOC   .                                           :LOCATION
PROV  .                                           :PROVINCE
STAT  .                                           :STATE
CNTY  .                                           :COUNTY
CTRY  .                                           :COUNTRY
DATE  .                                           :DATE
UWI   .          ********                         :UNIQUE WELL UWI
LIC   .                                           :LICENSE NUMBER
API   .                                           :API NUMBER
SRVC  .          *****                            :SERVICE COMPANY
~Parameter Information Block
#MNEM.UNIT       Value                            Description
#---------       ---------                        -------------
~Curve Information Block
#MNEM.UNIT       API Code            Curve    Description
#--------        --------------      -----    -------------------
DEPT  .F                             :0       Index
CAL   .                              :1       Calibration Curve             
GR    .GAPI                          :2       Gamma Ray                     
NPHI  .V/V                           :3       Thermal Neutron Porosity (original Ratio Method) in Selected Lithology
RESD  .                              :4       Added by gf35 using QCTool    
RESS  .OHMM                          :5       Added by conefrem using QCTool 
RHOB  .G/C3                          :6       Bulk Density                  
SP    .MV                            :7       Spontaneous Potential         
~Ascii Data Section
# ...
   8962.50000      10.12584      62.94914       0.24581      12.45000      10.80000       2.45028     -71.60000 
   8962.00000      10.23084      62.94914       0.25012      12.30000      10.70000       2.46683     -71.20000 
   8961.50000      10.23865      62.94914       0.26276      12.30000      10.90000       2.48987     -71.20000 
   8961.00000      10.18865      62.94914       0.28036      12.30000      11.10000       2.51677     -71.20000 
   8960.50000      10.13865      62.94914       0.28039      12.10000      11.30500       2.53106     -72.00000 
   8960.00000      10.08865      61.28350       0.26998      11.90000      11.51000       2.53786     -72.80000 
   8959.50000      10.05432      61.28350       0.25971      11.80000      11.83500       2.53363     -72.80000 
   8959.00000      10.02932      61.28350       0.24953      11.70000      12.16000       2.52283     -72.80000 
   8958.50000      10.00748      61.28350       0.24851      11.80000      11.94000       2.51232     -72.80000 
   8958.00000       9.98750      62.94914       0.25294      11.90000      11.72000       2.50198     -72.80000 
   8957.50000       9.99562      62.94914       0.25407      12.00000      11.41000       2.50148     -72.80000 
   8957.00000      10.02062      61.28350       0.25324      12.10000      11.10000       2.50688     -72.80000 
   8956.50000      10.05188      61.28350       0.25068      12.45000      11.20000       2.51124     -73.60001 
   8956.00000      10.08688      61.28350       0.24708      12.80000      11.30000       2.51499     -74.40000 
   8955.50000      10.10000      53.12208       0.24312      14.10000      11.62000       2.51268     -74.40000 
   8955.00000      10.10000      53.12208       0.23893      15.40000      11.94000       2.50673     -74.40000 
   8954.50000      10.05937      53.12208       0.22890      16.75000      12.88000       2.48766     -74.00000 
   8954.00000       9.99438      53.12208       0.21537      18.10000      13.82000       2.46071     -73.60000 
   8953.50000       9.92634      61.28350       0.21545      18.80000      16.50500       2.44539     -73.60000 
   8953.00000       9.85640      61.28350       0.22370      19.50000      19.19000       2.43705     -73.60000 
   8952.50000       9.83934      61.28350       0.22816      19.15000      17.30500       2.43773     -74.39999 
   8952.00000       9.85434      61.28350       0.23032      18.80000      15.42000       2.44388     -75.20000 
   8951.50000       9.86623      53.12208       0.23165      18.45000      15.56000       2.45280     -75.20000 
   8951.00000       9.87623      53.12208       0.23249      18.10000      15.70000       2.46340     -75.20000 
   8950.50000       9.88000      53.12208       0.23199      17.80000      16.45000       2.46192     -75.60000 
   8950.00000       9.88000      53.12208       0.23067      17.50000      17.20000       2.45312     -76.00000 
   8949.50000       9.91426      53.12208       0.22883      18.00000      17.04500       2.43691     -75.60000 
   8949.00000       9.96926      53.12208       0.22667      18.50000      16.89000       2.41621     -75.20000 
   8948.50000      10.01486      53.12208       0.21946      19.75000      16.29500       2.41894     -75.20000 
   8948.00000      10.05483      61.28350       0.20917      21.00000      15.70000       2.43587     -75.20000 
   8947.50000      10.09794      61.28350       0.20304      21.40000      17.44500       2.43969     -74.80000 
   8947.00000      10.14294      61.28350       0.19945      21.80000      19.19000       2.43549     -74.40000 
   8946.50000      10.24692      62.94914       0.20031      21.80000      18.51500       2.44641     -74.40000 
   8946.00000      10.38692      62.94914       0.20391      21.80000      17.84000       2.46656     -74.40000 
   8945.50000      10.49277      62.94914       0.20326      21.20000      17.68000       2.48767     -74.40000 
   8945.00000      10.57777      62.94914       0.20003      20.60000      17.52000       2.50937     -74.40000 
   8944.50000      10.61621      62.94914       0.19932      20.40000      18.89500       2.53160     -74.40000 
   8944.00000      10.62620      61.28350       0.20016      20.20000      20.27000       2.55412     -74.40000 
   8943.50000      10.64237      61.28350       0.20433      19.65000      19.56000       2.55506     -74.40000 
   8943.00000      10.66237      61.28350       0.21056      19.10000      18.85000       2.54271     -74.40000 
   8942.50000      10.80303      61.28350       0.21026      18.15000      17.13500       2.51740     -73.60001 
   8942.00000      11.01803      61.28350       0.20595      17.20000      15.42000       2.48410     -72.80000 
   8941.50000      11.25159      61.28350       0.21290      17.50000      15.00500       2.47347     -72.80000 
   8941.00000      11.49659      61.28350       0.22679      17.80000      14.59000       2.47682     -72.80000 
   8940.50000      11.65188      62.94914       0.23201      17.95000      15.00500       2.47504     -73.20000 
   8940.00000      11.75187      62.94914       0.23189      18.10000      15.42000       2.47009     -73.60000 
   8939.50000      11.69719      64.67753       0.22703      19.75000      16.47000       2.48596     -74.80000 
   8939.00000      11.54738      64.67753       0.21926      21.40000      17.52000       2.51462     -76.00000 
   8938.50000      11.36050      64.67753       0.20033      22.85000      19.47000       2.54280     -76.40000 
   8938.00000      11.15050      64.67753       0.17447      24.30000      21.42000       2.57070     -76.80000 
   8937.50000      10.98675      64.67753       0.15666      28.15000      24.04000       2.58892     -77.60001 
   8937.00000      10.85175      64.67753       0.14385      32.00000      26.66000       2.60112     -78.40000 
   8936.50000      10.73525      62.94914       0.13488      34.15000      24.64000       2.60984     -78.80000 
   8936.00000      10.63025      62.94914       0.12829      36.30000      22.62000       2.61639     -79.20000 
   8935.50000      10.52525      62.94914       0.12665      36.30000      22.41500       2.60527     -79.60000 
   8935.00000      10.42025      62.94914       0.12809      36.30000      22.21000       2.58317     -80.00000 
   8934.50000      10.34917      61.28350       0.13152      33.85000      24.68000       2.56952     -80.00000 
   8934.00000      10.29923      61.28350       0.13618      31.40000      27.15000       2.56113     -80.00000 
   8933.50000      10.21547      61.28350       0.14372      30.55000      27.40500       2.54112     -79.20000 
   8933.00000      10.11047      61.28350       0.15306      29.70000      27.66000       2.51382     -78.40000 
   8932.50000      10.03620      61.28350       0.15923      30.00000      24.54000       2.49654     -78.40000 
   8932.00000       9.98120      61.28350       0.16342      30.30000      21.42000       2.48554     -78.40000 
   8931.50000       9.97844      61.28350       0.16658      30.55000      22.23000       2.47543     -78.40000 
   8931.00000      10.00844      61.28350       0.16910      30.80000      23.04000       2.46588     -78.40000 
   8930.50000      10.08453      61.28350       0.17441      31.70000      24.85000       2.47861     -78.00000 
   8930.00000      10.18953      61.28350       0.18147      32.60000      26.66000       2.50531     -77.60000 
   8929.50000      10.20849      53.12208       0.18596      35.15000      33.25500       2.50899     -76.80000 
   8929.00000      10.17353      53.12208       0.18883      37.70000      39.85000       2.49826     -76.00000 
   8928.50000      10.10487      36.40455       0.19236      46.00000      47.10000       2.47992     -76.00000 
   8928.00000      10.01487      36.40455       0.19631      54.30000      54.35000       2.45677     -76.00000 
   8927.50000       9.94325      36.40455       0.19645      70.80000      54.35000       2.42924     -77.20000 
