~Version Information
VERS  .          2.0                              :CWLS Log Ascii Standard - Version 2.0
WRAP  .          NO                               :One line per depth step
~Well Information Block
#MNEM.UNIT       Data Type                        Information
#---------       ---------                        -------------------------------
STRT  .F         9346.00000                       :START DEPTH
STOP  .F         2030.00000                       :STOP DEPTH
STEP  .F         -0.50000                         :INCREMENT
NULL  .          -999.25                          :NULL DATA VALUE
COMP  .          ************                     :COMPANY
WELL  .          ********                         :WELL
FLD   .          ******                           :FIELD
LOC   .                                           :LOCATION
PROV  .                                           :PROVINCE
STAT  .                                           :STATE
CNTY  .                                           :COUNTY
CTRY  .          ************                     :COUNTRY
DATE  .                                           :DATE
UWI   .          ********                         :UNIQUE WELL UWI
LIC   .                                           :LICENSE NUMBER
API   .                                           :API NUMBER
SRVC  .          *****                            :SERVICE COMPANY
~Parameter Information Block
#MNEM.UNIT       Value                            Description
#---------       ---------                        -------------
~Curve Information Block
#MNEM.UNIT       API Code            Curve    Description
#--------        --------------      -----    -------------------
DEPT  .F                             :0       Index
CAL   .                              :1       Calibration Curve             
ASN   .OHMM                          :2       Amplified Short Normal        
I6FR  .OHMM                          :3       I6FR - Deep Induction Log - PDVSA
DPHI  .V/V                           :4       Density Porosity              
GR    .GAPI                          :5       Gamma Ray                     
NPHI  .V/V                           :6       Thermal Neutron Porosity (original Ratio Method) in Selected Lithology
SP    .MV                            :7       Spontaneous Potential         
~Ascii Data Section
# ...
   7926.00000      12.60000       6.30000       7.10000       0.13200      22.54234       0.28500    -999.25000 
   7925.50000      12.62000       6.30000       7.40000       0.12350      23.09234       0.27800    -999.25000 
   7925.00000      12.64000       6.30000       7.70000       0.11500      23.84062       0.27100    -999.25000 
   7924.50000      12.66000       6.10000       7.40000       0.11150      24.84062       0.28100    -999.25000 
   7924.00000      12.68000       5.90000       7.10000       0.10800      26.28125       0.29100    -999.25000 
   7923.50000      12.68000       5.70000       7.00000       0.10950      28.28125       0.29300    -999.25000 
   7923.00000      12.68000       5.50000       6.90000       0.11100      32.28609       0.29500    -999.25000 
   7922.50000      12.64000       4.90000       6.20000       0.11300      38.83609       0.30100    -999.25000 
   7922.00000      12.60000       4.30000       5.50000       0.11500      44.68110       0.30700    -999.25000 
   7921.50000      12.56000       4.00000       4.80000       0.12500      49.63110       0.34000    -999.25000 
   7921.00000      12.52000       3.70000       4.10000       0.13500      53.36937       0.37300    -999.25000 
   7920.50000      12.44000       3.20000       3.90000       0.14700      55.56937       0.42450    -999.25000 
   7920.00000      12.36000       2.70000       3.70000       0.15900      56.53562       0.47600    -999.25000 
   7919.50000      12.30000       2.40000       3.10000       0.16600      55.93562       0.50100    -999.25000 
   7919.00000      12.24000       2.10000       2.50000       0.17300      56.39312       0.52600    -999.25000 
   7918.50000      12.20000       2.05000       2.30000       0.17250      58.19313       0.53300    -999.25000 
   7918.00000      12.16000       2.00000       2.10000       0.17200      58.49500       0.54000    -999.25000 
   7917.50000      12.12000       1.85000       2.00000       0.17350      56.89500       0.54350    -999.25000 
   7917.00000      12.08000       1.70000       1.90000       0.17500      55.55938       0.54700    -999.25000 
   7916.50000      12.00000       1.70000       1.80000       0.17300      54.55938       0.54000    -999.25000 
   7916.00000      11.92000       1.70000       1.70000       0.17100      53.82393       0.53300    -999.25000 
   7915.50000      11.90000       1.70000       1.70000       0.17550      53.42417       0.52350    -999.25000 
   7915.00000      11.88000       1.70000       1.70000       0.18000      54.25500       0.51400    -999.25000 
   7914.50000      11.92000       1.80000       1.80000       0.17900      56.65500       0.51800    -999.25000 
   7914.00000      11.96000       1.90000       1.90000       0.17800      58.68135       0.52200    -999.25000 
   7913.50000      11.98000       1.80000       1.80000       0.18300      60.23135       0.51650    -999.25000 
   7913.00000      12.00000       1.70000       1.70000       0.18800      59.97906       0.51100    -999.25000 
   7912.50000      11.96000       1.70000       1.70000       0.17950      57.42906       0.50050    -999.25000 
   7912.00000      11.92000       1.70000       1.70000       0.17100      58.17594       0.49000    -999.25000 
   7911.50000      11.94000       1.70000       1.70000       0.17400      63.12594       0.49300    -999.25000 
   7911.00000      11.96000       1.70000       1.70000       0.17700      64.93291       0.49600    -999.25000 
   7910.50000      12.04000       1.70000       1.70000       0.18050      62.73292       0.50500    -999.25000 
   7910.00000      12.12000       1.70000       1.70000       0.18400      60.90656       0.51400    -999.25000 
   7909.50000      12.14000       1.70000       1.70000       0.18800      59.55656       0.52650    -999.25000 
   7909.00000      12.16000       1.70000       1.70000       0.19200      58.88792       0.53900    -999.25000 
   7908.50000      12.16000       1.70000       1.70000       0.19400      59.08792       0.54350    -999.25000 
   7908.00000      12.16000       1.70000       1.70000       0.19600      57.61750       0.54800    -999.25000 
   7907.50000      12.08000       1.70000       1.70000       0.20000      54.01750       0.55000    -999.25000 
   7907.00000      12.00000       1.70000       1.70000       0.20400      50.87906       0.55200    -999.25000 
   7906.50000      12.00000       1.70000       1.70000       0.19400      48.32906       0.54400    -999.25000 
   7906.00000      12.00000       1.70000       1.70000       0.18400      47.22969       0.53600    -999.25000 
   7905.50000      11.94000       1.80000       1.70000       0.18200      47.97969       0.53100    -999.25000 
   7905.00000      11.88000       1.90000       1.70000       0.18000      47.80656       0.52600    -999.25000 
   7904.50000      11.82000       2.00000       1.80000       0.18300      46.45657       0.52350    -999.25000 
   7904.00000      11.76000       2.10000       1.90000       0.18600      46.20552       0.52100    -999.25000 
   7903.50000      11.76000       2.20000       2.00000       0.18250      47.35552       0.50800    -999.25000 
   7903.00000      11.76000       2.30000       2.10000       0.17900      47.75823       0.49500    -999.25000 
   7902.50000      11.78000       2.40000       2.20000       0.17000      47.20823       0.48200    -999.25000 
   7902.00000      11.80000       2.50000       2.30000       0.16100      46.19667       0.46900    -999.25000 
   7901.50000      11.80000       2.50000       2.40000       0.15100      44.59667       0.47350    -999.25000 
   7901.00000      11.80000       2.50000       2.50000       0.14100      45.52427       0.47800    -999.25000 
   7900.50000      11.87500       2.50000       2.40000       0.11550      49.67237       0.47650    -999.25000 
   7900.00000      11.95000       2.50000       2.30000       0.09000      52.35083       0.47500    -999.25000 
   7899.50000      11.95000       2.60000       2.30000       0.10500      53.15083       0.46900    -999.25000 
   7899.00000      11.95000       2.70000       2.30000       0.12000      53.77542       0.46300    -999.25000 
   7898.50000      11.95000       2.70000       2.30000       0.13050      54.17542       0.44100    -999.25000 
   7898.00000      11.95000       2.70000       2.30000       0.14100      56.04453       0.41900    -999.25000 
   7897.50000      11.95000       2.70000       2.30000       0.15250      59.79453       0.40550    -999.25000 
   7897.00000      11.95000       2.70000       2.30000       0.16400      60.78172       0.39200    -999.25000 
   7896.50000      11.95000       2.70000       2.30000       0.15600      58.23172       0.39600    -999.25000 
   7896.00000      11.95000       2.70000       2.30000       0.14800      58.26912       0.40000    -999.25000 
   7895.50000      12.06500       2.70000       2.40000       0.13800      61.61911       0.40700    -999.25000 
   7895.00000      12.18000       2.70000       2.50000       0.12800      63.58771       0.41400    -999.25000 
   7894.50000      12.04500       2.80000       2.60000       0.13950      63.78771       0.43100    -999.25000 
   7894.00000      11.91000       2.90000       2.70000       0.15100      60.67672       0.44800    -999.25000 
   7893.50000      11.77000       2.90000       2.70000       0.15550      53.32672       0.47300    -999.25000 
   7893.00000      11.63000       2.90000       2.70000       0.16000      47.02922       0.49800    -999.25000 
   7892.50000      11.81000       3.10000       2.70000       0.16200      42.07922       0.49200    -999.25000 
   7892.00000      11.99000       3.30000       2.70000       0.16400      40.35250       0.48600    -999.25000 
   7891.50000      12.07000       3.50000       2.80000       0.15550      42.75250       0.48300    -999.25000 
   7891.00000      12.15000       3.70000       2.90000       0.14700      42.87208       0.48000    -999.25000 
