~Version Information
VERS  .          2.0                              :CWLS Log Ascii Standard - Version 2.0
WRAP  .          NO                               :One line per depth step
~Well Information Block
#MNEM.UNIT       Data Type                        Information
#---------       ---------                        -------------------------------
STRT  .F         9850.00000                       :START DEPTH
STOP  .F         1453.50000                       :STOP DEPTH
STEP  .F         -0.50000                         :INCREMENT
NULL  .          -999.25                          :NULL DATA VALUE
COMP  .          ************                     :COMPANY
WELL  .          *******                          :WELL
FLD   .          ******                           :FIELD
LOC   .                                           :LOCATION
PROV  .                                           :PROVINCE
STAT  .                                           :STATE
CNTY  .                                           :COUNTY
CTRY  .                                           :COUNTRY
DATE  .                                           :DATE
UWI   .          ********                         :UNIQUE WELL UWI
LIC   .                                           :LICENSE NUMBER
API   .                                           :API NUMBER
SRVC  .          *****                            :SERVICE COMPANY
~Parameter Information Block
#MNEM.UNIT       Value                            Description
#---------       ---------                        -------------
~Curve Information Block
#MNEM.UNIT       API Code            Curve    Description
#--------        --------------      -----    -------------------
DEPT  .F                             :0       Index
CAL   .                              :1       Calibration Curve             
GR    .GAPI                          :2       Gamma Ray                     
NPHI  .V/V                           :3       Thermal Neutron Porosity (original Ratio Method) in Selected Lithology
RESD  .                              :4       Added by gf35 using QCTool    
RESS  .OHMM                          :5       Added by conefrem using QCTool 
RHOB  .G/C3                          :6       Bulk Density                  
SP    .MV                            :7       Spontaneous Potential         
~Ascii Data Section
# ...
   8643.00000      10.24199      31.32243       0.15225     126.79990      39.96000       2.45826     -70.40000 
   8642.50000      10.09669      29.16667       0.16070     146.84990      52.16000       2.39262     -70.80000 
   8642.00000       9.96978      29.16667       0.16815     166.89990      64.36000       2.32841     -71.20000 
   8641.50000       9.91789      29.16667       0.17150     151.64990      58.00500       2.27003     -72.39999 
   8641.00000       9.87580      29.16667       0.16939     136.39990      51.65000       2.21795     -73.60000 
   8640.50000       9.86022      29.16667       0.15248     133.94989      48.12500       2.18295     -74.00000 
   8640.00000       9.84643      29.16667       0.14143     131.49989      44.60000       2.16071     -74.40000 
   8639.50000       9.83605      31.32243       0.14156     137.79990      47.19500       2.16279     -74.80000 
   8639.00000       9.83000      31.32243       0.14401     144.09990      49.79000       2.16969     -75.20000 
   8638.50000       9.83000      31.32243       0.14973     145.44989      54.25500       2.18333     -74.80000 
   8638.00000       9.83254      31.32243       0.15860     146.79990      58.72000       2.19820     -74.40000 
   8637.50000       9.83773      31.32243       0.17079     161.54990      63.36000       2.21435     -75.60001 
   8637.00000       9.84292      31.32243       0.17695     176.29990      68.00000       2.21965     -76.80000 
   8636.50000       9.84811      31.32243       0.17844     181.29990      63.36000       2.21653     -77.20000 
   8636.00000       9.85330      31.32243       0.17740     186.29990      58.72000       2.21253     -77.60000 
   8635.50000       9.85849      31.32243       0.17491     169.29990      60.38000       2.20801     -77.20000 
   8635.00000       9.85632      31.32243       0.17322     152.29990      62.04000       2.20961     -76.80000 
   8634.50000       9.85113      31.32243       0.17185     149.54990      64.40000       2.21371     -76.80000 
   8634.00000       9.85406      31.32243       0.17477     146.79990      66.76000       2.21427     -76.80000 
   8633.50000       9.85925      31.32243       0.17887     152.39990      69.30000       2.21386     -77.20000 
   8633.00000       9.86000      31.32243       0.17999     157.99989      71.84000       2.21931     -77.60000 
   8632.50000       9.86000      31.32243       0.18061     186.84990      69.92000       2.22574     -77.20000 
   8632.00000       9.86000      31.32243       0.17731     215.69991      68.00000       2.22524     -76.80000 
   8631.50000       9.86000      31.32243       0.17370     199.29990      65.02000       2.22419     -76.40000 
   8631.00000       9.86000      29.16667       0.16960     182.89990      62.04000       2.22253     -76.00000 
   8630.50000       9.86000      29.16667       0.16573     170.44989      56.37500       2.22050     -76.00000 
   8630.00000       9.86000      29.16667       0.16474     157.99989      50.71000       2.21391     -76.00000 
   8629.50000       9.86000      29.16667       0.16267     143.54990      51.18000       2.20626     -76.40000 
   8629.00000       9.86000      31.32243       0.15447     129.09990      51.65000       2.19256     -76.80000 
   8628.50000       9.86000      31.32243       0.14776     116.34995      46.55000       2.18259     -76.80000 
   8628.00000       9.86000      31.32243       0.14627     103.60000      41.45000       2.18571     -76.80000 
   8627.50000       9.86000      31.32243       0.14698     104.55000      41.07500       2.19617     -76.80000 
   8627.00000       9.86000      31.32243       0.15295     105.50000      40.70000       2.22414     -76.80000 
   8626.50000       9.86000      31.32243       0.15740     116.14995      49.71000       2.24195     -76.80000 
   8626.00000       9.86000      31.32243       0.15926     126.79990      58.72000       2.24237     -76.80000 
   8625.50000       9.86000      31.32243       0.16102     138.14990      59.26500       2.23672     -76.80000 
   8625.00000       9.86000      31.32243       0.16263     149.49989      59.81000       2.22343     -76.80000 
   8624.50000       9.86268      31.32243       0.15906     138.14990      58.73000       2.21478     -76.80000 
   8624.00000       9.86786      31.32243       0.15061     126.79990      57.65000       2.21047     -76.80000 
   8623.50000       9.86695      31.32243       0.14626     109.79995      55.12500       2.21478     -76.40000 
   8623.00000       9.86175      27.62294       0.14477      92.80000      52.60000       2.22511     -76.00000 
   8622.50000       9.88406      27.62294       0.14328      95.45000      48.60000       2.23737     -75.60000 
   8622.00000       9.92039      27.62294       0.14178      98.10000      44.60000       2.25060     -75.20000 
   8621.50000       9.93000      31.32243       0.14797      98.10000      43.41000       2.26112     -75.20000 
   8621.00000       9.93000      31.32243       0.15691      98.10000      42.22000       2.27067     -75.20000 
   8620.50000       9.93000      31.32243       0.16315     100.85000      43.41000       2.27049     -75.20000 
   8620.00000       9.93000      31.32243       0.16874     103.60000      44.60000       2.26799     -75.20000 
   8619.50000       9.91626      31.32243       0.16491     108.59995      44.19500       2.25236     -75.39999 
   8619.00000       9.90070      31.32243       0.15981     113.59990      43.79000       2.23498     -75.60000 
   8618.50000       9.91487      31.32243       0.15484     109.54995      42.24500       2.21978     -76.20000 
   8618.00000       9.92956      31.32243       0.14978     105.50000      40.70000       2.20509     -76.80000 
   8617.50000       9.91399      31.32243       0.14158     101.80000      41.46000       2.20489     -76.80000 
   8617.00000       9.90212      31.32243       0.13504      98.10000      42.22000       2.20692     -76.80000 
   8616.50000       9.92288      31.32243       0.14324      94.60000      40.72500       2.22866     -76.80000 
   8616.00000       9.94000      27.62294       0.15062      91.10000      39.23000       2.24692     -76.80000 
   8615.50000       9.94000      27.62294       0.15410      89.45000      37.51500       2.24873     -77.20000 
   8615.00000       9.94000      31.32243       0.16038      87.80000      35.80000       2.25334     -77.60000 
   8614.50000       9.94000      31.32243       0.17517      81.15000      34.84000       2.26642     -77.60000 
   8614.00000       9.93499      31.32243       0.18596      74.50000      33.88000       2.27283     -77.60000 
   8613.50000       9.91942      31.32243       0.18832      75.90000      32.68000       2.26515     -77.60000 
   8613.00000       9.92229      31.32243       0.19010      77.30000      31.48000       2.25829     -77.60000 
   8612.50000       9.95343      31.32243       0.19097      78.00000      30.10500       2.25268     -77.20000 
   8612.00000       9.97971      31.32243       0.19439      78.70000      28.73000       2.25116     -76.80000 
   8611.50000      10.00046      31.32243       0.20073      75.25000      29.26500       2.25427     -76.80000 
   8611.00000      10.01842      31.32243       0.20539      71.80000      29.80000       2.25750     -76.80000 
   8610.50000      10.03400      31.32243       0.20862      69.90000      34.16000       2.26082     -76.80000 
   8610.00000      10.04000      31.32243       0.20551      68.00000      38.52000       2.25601     -76.80000 
   8609.50000      10.04000      31.32243       0.19843      66.15000      38.17000       2.24610     -76.40000 
   8609.00000      10.04000      27.62294       0.18870      64.30000      37.82000       2.24186     -76.00000 
   8608.50000      10.04000      27.62294       0.17777      62.60000      35.24000       2.24020     -76.00000 
   8608.00000      10.04000      27.62294       0.17524      60.90000      32.66000       2.24987     -76.00000 
