~Version Information
VERS  .          2.0                              :CWLS Log Ascii Standard - Version 2.0
WRAP  .          NO                               :One line per depth step
~Well Information Block
#MNEM.UNIT       Data Type                        Information
#---------       ---------                        -------------------------------
STRT  .F         9850.00000                       :START DEPTH
STOP  .F         1453.50000                       :STOP DEPTH
STEP  .F         -0.50000                         :INCREMENT
NULL  .          -999.25                          :NULL DATA VALUE
COMP  .          ************                     :COMPANY
WELL  .          *******                          :WELL
FLD   .          ******                           :FIELD
LOC   .                                           :LOCATION
PROV  .                                           :PROVINCE
STAT  .                                           :STATE
CNTY  .                                           :COUNTY
CTRY  .                                           :COUNTRY
DATE  .                                           :DATE
UWI   .          ********                         :UNIQUE WELL UWI
LIC   .                                           :LICENSE NUMBER
API   .                                           :API NUMBER
SRVC  .          *****                            :SERVICE COMPANY
~Parameter Information Block
#MNEM.UNIT       Value                            Description
#---------       ---------                        -------------
~Curve Information Block
#MNEM.UNIT       API Code            Curve    Description
#--------        --------------      -----    -------------------
DEPT  .F                             :0       Index
CAL   .                              :1       Calibration Curve             
GR    .GAPI                          :2       Gamma Ray                     
NPHI  .V/V                           :3       Thermal Neutron Porosity (original Ratio Method) in Selected Lithology
RESD  .                              :4       Added by gf35 using QCTool    
RESS  .OHMM                          :5       Added by conefrem using QCTool 
RHOB  .G/C3                          :6       Bulk Density                  
SP    .MV                            :7       Spontaneous Potential         
~Ascii Data Section
# ...
   9104.50000      10.77031      64.67753       0.28042       5.40000       5.70000       2.59691     -82.50000 
   9104.00000      10.78531      64.67753       0.25949       5.30000       5.96000       2.60231     -82.50000 
   9103.50000      10.82438      64.67753       0.24219       5.25000       6.07000       2.59754     -82.50000 
   9103.00000      10.87438      64.67753       0.22652       5.20000       6.18000       2.58814     -82.50000 
   9102.50000      10.91058      64.67753       0.22245       5.10000       6.30000       2.58712     -82.50000 
   9102.00000      10.94056      64.67753       0.22364       5.00000       6.42000       2.58992     -82.50000 
   9101.50000      10.98770      64.67753       0.23664       4.95000       5.78500       2.59450     -82.50000 
   9101.00000      11.04270      64.67753       0.25505       4.90000       5.15000       2.59990     -82.50000 
   9100.50000      11.08399      64.67753       0.24937       4.80000       4.80000       2.60499     -80.85000 
   9100.00000      11.11899      64.67753       0.23263       4.70000       4.45000       2.60994     -79.20000 
   9099.50000      11.15399      64.67753       0.23622       4.75000       4.49000       2.61061     -79.20000 
   9099.00000      11.18899      64.67753       0.24914       4.80000       4.53000       2.60931     -79.20000 
   9098.50000      11.18972      64.67753       0.25928       4.75000       4.61500       2.61370     -79.20000 
   9098.00000      11.17472      64.67753       0.26814       4.70000       4.70000       2.62070     -79.20000 
   9097.50000      11.17684      64.67753       0.26585       4.75000       4.83500       2.61592     -79.60000 
   9097.00000      11.18683      64.67753       0.25843       4.80000       4.97000       2.60573     -80.00000 
   9096.50000      11.17633      64.67753       0.24831       4.80000       4.92500       2.59867     -79.60000 
   9096.00000      11.15633      64.67753       0.23694       4.80000       4.88000       2.59307     -79.20000 
   9095.50000      11.17050      64.67753       0.24847       4.80000       4.83500       2.59062     -79.20000 
   9095.00000      11.20050      64.67753       0.27061       4.80000       4.79000       2.58962     -79.20000 
   9094.50000      11.24075      64.67753       0.29570       4.90000       5.02000       2.59613     -79.60000 
   9094.00000      11.28575      64.67753       0.32216       5.00000       5.25000       2.60613     -80.00000 
   9093.50000      11.28975      64.67753       0.30763       5.00000       5.44500       2.60698     -80.00000 
   9093.00000      11.27475      64.67753       0.27411       5.00000       5.64000       2.60358     -80.00000 
   9092.50000      11.27000      64.67753       0.25069       5.10000       5.35000       2.60155     -80.00000 
   9092.00000      11.27000      64.67753       0.23190       5.20000       5.06000       2.60015     -80.00000 
   9091.50000      11.28022      64.67753       0.23325       5.30000       5.25000       2.59834     -80.00000 
   9091.00000      11.29522      64.67753       0.24403       5.40000       5.44000       2.59634     -80.00000 
   9090.50000      11.28978      64.67753       0.24754       5.50000       5.64500       2.59434     -80.40000 
   9090.00000      11.27478      64.67753       0.24766       5.60000       5.85000       2.59234     -80.80000 
   9089.50000      11.27000      64.67753       0.24762       5.95000       5.69500       2.59197     -81.20000 
   9089.00000      11.27000      64.67753       0.24750       6.30000       5.54000       2.59237     -81.60000 
   9088.50000      11.19847      64.67753       0.23825       6.35000       6.03500       2.58668     -82.39999 
   9088.00000      11.09347      64.67753       0.22472       6.40000       6.53000       2.57813     -83.20000 
   9087.50000      11.00221      64.67753       0.23147       6.65000       7.18500       2.57866     -82.80000 
   9087.00000      10.91727      64.67753       0.24774       6.90000       7.84000       2.58346     -82.40000 
   9086.50000      10.90358      62.94914       0.24183       7.35000       8.37500       2.58687     -82.80000 
   9086.00000      10.92358      62.94914       0.22543       7.80000       8.91000       2.58962     -83.20000 
   9085.50000      10.81794      62.94914       0.20879       8.95000       9.80500       2.58727     -83.20000 
   9085.00000      10.65294      61.28350       0.19203      10.10000      10.70000       2.58252     -83.20000 
   9084.50000      10.45738      61.28350       0.18893      10.50000      11.21000       2.56487     -83.20000 
   9084.00000      10.24738      62.94914       0.19228      10.90000      11.72000       2.54112     -83.20000 
   9083.50000      10.12567      62.94914       0.20352      10.70000      11.31000       2.51968     -83.60000 
   9083.00000      10.04567      62.94914       0.21848      10.50000      10.90000       2.49933     -84.00000 
   9082.50000       9.99628      64.67753       0.22068       9.85000      10.15500       2.50469     -84.00000 
   9082.00000       9.96130      64.67753       0.21686       9.20000       9.41000       2.52223     -84.00000 
   9081.50000       9.98047      64.67753       0.20719       8.95000       9.08000       2.54520     -83.20000 
   9081.00000      10.02547      64.67753       0.19474       8.70000       8.75000       2.57075     -82.40000 
   9080.50000      10.12802      62.94914       0.19866       8.20000       8.59500       2.58587     -82.40000 
   9080.00000      10.25802      62.94914       0.21039       7.70000       8.44000       2.59602     -82.40000 
   9079.50000      10.32370      62.94914       0.21994       7.95000       8.67500       2.59216     -82.40000 
   9079.00000      10.35870      62.94914       0.22844       8.20000       8.91000       2.58161     -82.40000 
   9078.50000      10.31245      62.94914       0.22818       8.60000       8.83000       2.57075     -83.20000 
   9078.00000      10.22745      62.94914       0.22375       9.00000       8.75000       2.55975     -84.00000 
   9077.50000      10.16284      62.94914       0.21407       8.55000       8.44000       2.54975     -83.20000 
   9077.00000      10.10787      62.94914       0.20187       8.10000       8.13000       2.54020     -82.40000 
   9076.50000      10.10350      64.67753       0.20639       7.25000       7.10000       2.54409     -81.60001 
   9076.00000      10.12350      62.94914       0.21896       6.40000       6.07000       2.55444     -80.80000 
   9075.50000      10.27175      62.94914       0.22967       6.20000       6.24500       2.56482     -80.80000 
   9075.00000      10.48175      62.94914       0.23948       6.00000       6.42000       2.57522     -80.80000 
   9074.50000      10.55675      62.94914       0.25722       6.50000       7.13000       2.57536     -81.60001 
   9074.00000      10.56675      62.94914       0.27876       7.00000       7.84000       2.57056     -82.40000 
   9073.50000      10.47550      62.94914       0.27163       7.60000       8.89500       2.55702     -82.00000 
   9073.00000      10.33550      62.94914       0.25068       8.20000       9.95000       2.53927     -81.60000 
   9072.50000      10.24285      62.94914       0.23742       8.45000       9.86000       2.53579     -82.00000 
   9072.00000      10.17290      64.67753       0.22785       8.70000       9.77000       2.53919     -82.40000 
   9071.50000      10.25767      62.94914       0.22673       8.25000       9.18000       2.55198     -83.20000 
   9071.00000      10.41767      62.94914       0.22972       7.80000       8.59000       2.56933     -84.00000 
   9070.50000      10.44645      62.94914       0.22756       8.00000       8.83500       2.57554     -83.60000 
   9070.00000      10.41145      62.94914       0.22289       8.20000       9.08000       2.57634     -83.20000 
   9069.50000      10.31925      64.67753       0.21677       8.80000       9.24500       2.57364     -82.80000 
