~VERSION INFORMATION 
VERS  .    2.0                                     :CWLS Log ASCII Standard - VERSION 2.0
WRAP  .    NO                                      :One Line per Depth step
#--------------------------------------------------
~WELL INFORMATION 
#MNEM           .UNIT                      DATA            :DESCRIPTION
#----            ------          --------------            -----------------------------
STRT            .ft                   6530.5000            :START DEPTH
STOP            .ft                   7560.0000            :STOP DEPTH
STEP            .ft                         0.5            :STEP
NULL            .                     -999.0000            :NULL VALUE
COMP            .                         PDVSA            :COMPANY
WELL            .                        Well-1            :WELL NAME
FLD             .                       GUAFITA            :FIELD NAME
SRVC            .                       UNKNOWN            :SERVICE COMPANY
DATE            .                       UNKNOWN            :LOG DATE(Composite Date for Composite LAP) (MM/DD/YYYY)
CNTY            .                       UNKNOWN            :COUNTY
STAT            .                       BARINAS            :STATE or PROVINCE
PROV            .                       BARINAS            :STATE or PROVINCE
CTRY            .                     VENEZUELA            :COUNTRY
API             .                                          :API NUMBER
UWI             .                                          :UNIQUE WELL ID
LOC             .                       GUAFITA            :FIELD LOCATION
#--------------------------------------------------
~CURVE INFORMATION
#MNEM           .UNIT                  API CODE            :DESCRIPTION
#----           -------          --------------            -----------------------------
DEPTH           .ft                                        : Depth Index
RHOB            .g/cm3                                     : Density
DTSM            .us/ft                                     : Delta-T Shear
DTCO            .us/ft                                     : Delta-T Compressional
SW              .v/v                                       : Water Saturation
NPHI            .fraction                                  : Neutron Porosity
VSH             .v/v                                       : Shale Volume
#--------------------------------------------------
~PARAMETER INFORMATION
#MNEM           .UNIT                  VALUE               :DESCRIPTION
#----           -------          --------------            -----------------------------
EKB             .ft                   481.00000            :Elevation of Depth Reference (Kelly Bushing)
EGL             .ft                   451.00000            :Elevation of Ground Level
#-------------------------------------------------------------
#  DEPTH             RHOB           DTSM           DTCO             SW              PHI            VSH
~ASCII
# ...
 7473.0000       -999.0000        163.3023         96.5682       -999.0000       -999.0000       -999.0000
 7473.2495       -999.0000        163.7891         99.0028       -999.0000       -999.0000       -999.0000
 7473.5000          2.1220        165.4526        101.6489          0.2785          0.1969          0.4317
 7473.7505       -999.0000        168.7589        104.1651       -999.0000       -999.0000       -999.0000
 7474.0000          2.0970        173.7351        106.3286          0.3130          0.2148          0.3807
 7474.2495       -999.0000        179.8875        108.0331       -999.0000       -999.0000       -999.0000
 7474.5000          2.0850        186.1978        109.2432          0.3195          0.2265          0.3703
 7474.7505       -999.0000        191.2236        109.9525       -999.0000       -999.0000       -999.0000
 7475.0000       -999.0000        194.0407        110.1607       -999.0000       -999.0000       -999.0000
 7475.0005          2.0470       -999.0000       -999.0000          0.3801          0.2674          0.2900
 7475.2495       -999.0000        194.6349        109.9037       -999.0000       -999.0000       -999.0000
 7475.5000          2.0360        193.9000        109.2704          0.4095          0.2849          0.2613
 7475.7505       -999.0000        193.1489        108.4140       -999.0000       -999.0000       -999.0000
 7476.0000          2.0260        193.3122        107.5267          0.4301          0.2823          0.2593
 7476.2495       -999.0000        194.4875        106.7937       -999.0000       -999.0000       -999.0000
 7476.5000          2.0570        195.9603        106.3579          0.4523          0.2614          0.2721
 7476.7505       -999.0000        196.8574        106.2950       -999.0000       -999.0000       -999.0000
 7476.9995          2.0770       -999.0000       -999.0000          0.4186          0.2348          0.3341
 7477.0000       -999.0000        196.7156        106.6035       -999.0000       -999.0000       -999.0000
 7477.2495       -999.0000        195.5628        107.1899       -999.0000       -999.0000       -999.0000
 7477.5000          2.1200        193.7012        107.8724          0.3795          0.1978          0.4187
 7477.7505       -999.0000        191.5811        108.4001       -999.0000       -999.0000       -999.0000
 7478.0000          2.1780        189.1398        108.4852          0.3284          0.1379          0.5876
 7478.2495       -999.0000        185.9761        107.8863       -999.0000       -999.0000       -999.0000
 7478.5000          2.2260        181.9818        106.4687          0.3423          0.0906          0.7218
 7478.7505       -999.0000        176.9467        104.2329       -999.0000       -999.0000       -999.0000
 7479.0000       -999.0000        171.3204        101.3644       -999.0000       -999.0000       -999.0000
 7479.0005          2.3010       -999.0000       -999.0000          0.3735          0.0432          0.8623
 7479.2495       -999.0000        166.1861         98.1937       -999.0000       -999.0000       -999.0000
 7479.5000          2.3780        162.3701         95.1537          0.4189          0.0064          0.9791
 7479.7505       -999.0000        160.7288         92.7728       -999.0000       -999.0000       -999.0000
 7480.0000          2.4230        161.6061         91.4806          1.0000          0.0000          1.0000
 7480.2495       -999.0000        164.5016         91.5247       -999.0000       -999.0000       -999.0000
 7480.5000          2.4520        168.7416         92.9020          1.0000          0.0000          1.0000
 7480.7505       -999.0000        173.5503         95.2590       -999.0000       -999.0000       -999.0000
 7480.9995          2.4560       -999.0000       -999.0000          1.0000          0.0000          1.0000
 7481.0000       -999.0000        178.2177         98.1171       -999.0000       -999.0000       -999.0000
 7481.2495       -999.0000        182.6067        100.9910       -999.0000       -999.0000       -999.0000
 7481.5000          2.4340        186.8062        103.5000          1.0000          0.0000          1.0000
 7481.7505       -999.0000        190.7381        105.4906       -999.0000       -999.0000       -999.0000
 7482.0000          2.4080        194.2484        106.9200          1.0000          0.0067          0.9777
 7482.2495       -999.0000        196.8306        107.8057       -999.0000       -999.0000       -999.0000
 7482.5000          2.3770        197.9141        108.1907          1.0000          0.0254          0.9160
 7482.7505       -999.0000        197.4158        108.1145       -999.0000       -999.0000       -999.0000
 7483.0000       -999.0000        195.5446        107.6643       -999.0000       -999.0000       -999.0000
 7483.0005          2.3640       -999.0000       -999.0000          1.0000          0.0437          0.8563
 7483.2495       -999.0000        192.8212        106.9933       -999.0000       -999.0000       -999.0000
 7483.5000          2.3520        189.8264        106.3035          1.0000          0.0766          0.7516
 7483.7505       -999.0000        186.8254        105.8141       -999.0000       -999.0000       -999.0000
 7484.0000          2.3270        184.0340        105.6866          1.0000          0.1138          0.6456
 7484.2495       -999.0000        181.5697        105.9736       -999.0000       -999.0000       -999.0000
 7484.5000          2.2710        179.5934        106.5994          1.0000          0.1530          0.5424
 7484.7505       -999.0000        178.4407        107.3678       -999.0000       -999.0000       -999.0000
 7484.9995          2.2280       -999.0000       -999.0000          1.0000          0.1881          0.4387
 7485.0000       -999.0000        178.3263        108.0293       -999.0000       -999.0000       -999.0000
 7485.2495       -999.0000        179.3904        108.3425       -999.0000       -999.0000       -999.0000
 7485.5000          2.1880        181.4398        108.1291          0.9379          0.2146          0.3517
 7485.7505       -999.0000        183.8647        107.3002       -999.0000       -999.0000       -999.0000
 7486.0000          2.1680        185.8438        105.8607          0.6585          0.2290          0.2987
 7486.2495       -999.0000        186.5886        103.9205       -999.0000       -999.0000       -999.0000
 7486.5000          2.1580        185.8400        101.7023          0.5844          0.2434          0.2518
 7486.7505       -999.0000        183.9843         99.5512       -999.0000       -999.0000       -999.0000
 7487.0000       -999.0000        181.9854         97.8847       -999.0000       -999.0000       -999.0000
 7487.0005          2.1700       -999.0000       -999.0000          0.5863          0.2265          0.2689
 7487.2495       -999.0000        180.8734         97.0898       -999.0000       -999.0000       -999.0000
 7487.5000          2.2190        181.2575         97.3994          0.6504          0.2046          0.3118
 7487.7505       -999.0000        183.2088         98.7973       -999.0000       -999.0000       -999.0000
 7488.0000          2.2120        186.1707        101.0176          0.7767          0.2130          0.3077
 7488.2495       -999.0000        189.3844        103.6377       -999.0000       -999.0000       -999.0000
 7488.5000          2.1750        192.1900        106.2073          0.7736          0.2261          0.3118
 7488.7505       -999.0000        194.0813        108.3512       -999.0000       -999.0000       -999.0000
 7488.9995          2.1270       -999.0000       -999.0000          0.6923          0.2508          0.2805
 7489.0000       -999.0000        194.9507        109.8223       -999.0000       -999.0000       -999.0000
 7489.2495       -999.0000        194.9284        110.4940       -999.0000       -999.0000       -999.0000
 7489.5000          2.1020        194.2827        110.3358          0.6405          0.2824          0.1996
