~Version Information
VERS  .          2.0                              :CWLS Log Ascii Standard - Version 2.0
WRAP  .          NO                               :One line per depth step
~Well Information Block
#MNEM.UNIT       Data Type                        Information
#---------       ---------                        -------------------------------
STRT  .F         9850.00000                       :START DEPTH
STOP  .F         1453.50000                       :STOP DEPTH
STEP  .F         -0.50000                         :INCREMENT
NULL  .          -999.25                          :NULL DATA VALUE
COMP  .          ************                     :COMPANY
WELL  .          *******                          :WELL
FLD   .          ******                           :FIELD
LOC   .                                           :LOCATION
PROV  .                                           :PROVINCE
STAT  .                                           :STATE
CNTY  .                                           :COUNTY
CTRY  .                                           :COUNTRY
DATE  .                                           :DATE
UWI   .          ********                         :UNIQUE WELL UWI
LIC   .                                           :LICENSE NUMBER
API   .                                           :API NUMBER
SRVC  .          *****                            :SERVICE COMPANY
~Parameter Information Block
#MNEM.UNIT       Value                            Description
#---------       ---------                        -------------
~Curve Information Block
#MNEM.UNIT       API Code            Curve    Description
#--------        --------------      -----    -------------------
DEPT  .F                             :0       Index
CAL   .                              :1       Calibration Curve             
GR    .GAPI                          :2       Gamma Ray                     
NPHI  .V/V                           :3       Thermal Neutron Porosity (original Ratio Method) in Selected Lithology
RESD  .                              :4       Added by gf35 using QCTool    
RESS  .OHMM                          :5       Added by conefrem using QCTool 
RHOB  .G/C3                          :6       Bulk Density                  
SP    .MV                            :7       Spontaneous Potential         
~Ascii Data Section
# ...
   7755.50000      11.12296      36.40455       0.33850       1.75000       1.74500       2.37629     -28.60000 
   7755.00000      11.05796      36.40455       0.34652       1.70000       1.68000       2.38084     -28.60000 
   7754.50000      11.00433      36.40455       0.35455       1.65000       1.71000       2.38551     -28.60000 
   7754.00000      11.04433      53.12208       0.36258       1.60000       1.74000       2.39111     -28.60000 
   7753.50000      11.08758      53.12208       0.37060       1.60000       1.82500       2.39788     -28.60000 
   7753.00000      11.15758      53.12208       0.37863       1.60000       1.91000       2.41428     -28.77833 
   7752.50000      11.24275      53.12208       0.38436       1.65000       2.08000       2.43158     -28.97833 
   7752.00000      11.45275      61.28350       0.37118       1.70000       2.25000       2.45633     -28.82167 
   7751.50000      11.63838      61.28350       0.35821       1.85000       2.55000       2.47816     -28.62167 
   7751.00000      11.62337      61.28350       0.34695       2.00000       2.85000       2.47596     -28.24333 
   7750.50000      11.59538      61.28350       0.33775       2.30000       3.30000       2.47231     -27.84333 
   7750.00000      11.46038      61.28350       0.34554       2.60000       3.75000       2.45671     -26.73000 
   7749.50000      11.33458      53.12208       0.35396       3.35000       4.39000       2.44021     -25.53000 
   7749.00000      11.28458      53.12208       0.36762       4.10000       5.03000       2.41626     -24.55292 
   7748.50000      11.23837      53.12208       0.38060       4.45000       5.22000       2.39527     -23.60292 
   7748.00000      11.22338      53.12208       0.38803       4.80000       5.41000       2.39867     -22.96500 
   7747.50000      11.20675      53.12208       0.39382       5.10000       5.46000       2.40213     -22.36500 
   7747.00000      11.17675      53.12208       0.38615       5.40000       5.51000       2.40613     -21.58667 
   7746.50000      11.15542      53.12208       0.37824       5.30000       5.71500       2.41002     -20.78667 
   7746.00000      11.20542      53.12208       0.36830       5.20000       5.92000       2.41302     -20.70000 
   7745.50000      11.24729      53.12208       0.35929       5.15000       6.03000       2.41568     -20.70000 
   7745.00000      11.22229      53.12208       0.35797       5.10000       6.14000       2.41548     -21.41333 
   7744.50000      11.19892      53.12208       0.35715       4.70000       5.24000       2.41647     -22.21333 
   7744.00000      11.18892      53.12208       0.36038       4.30000       4.34000       2.42727     -23.68208 
   7743.50000      11.19842      53.12208       0.36315       3.85000       4.01500       2.43967     -25.23208 
   7743.00000      11.36842      61.28350       0.36206       3.40000       3.69000       2.46527     -25.75667 
   7742.50000      11.51458      61.28350       0.35715       3.20000       3.44000       2.48810     -26.15667 
   7742.00000      11.46458      61.28350       0.32084       3.00000       3.19000       2.48810     -26.55667 
   7741.50000      11.40538      61.28350       0.28651       2.65000       2.97000       2.48332     -26.95667 
   7741.00000      11.27038      53.12208       0.26841       2.30000       2.75000       2.43922     -27.35667 
   7740.50000      11.14079      53.12208       0.25388       2.15000       2.48000       2.39592     -27.75667 
   7740.00000      11.05579      36.40455       0.26861       2.00000       2.21000       2.35922     -27.80000 
   7739.50000      10.98433      27.62294       0.28420       1.90000       2.06000       2.32289     -27.80000 
   7739.00000      11.02433      27.62294       0.30673       1.80000       1.91000       2.28954     -27.80000 
   7738.50000      11.07246      31.32243       0.32761       1.70000       1.86000       2.25978     -27.80000 
   7738.00000      11.18746      31.32243       0.33492       1.60000       1.81000       2.25958     -27.80000 
   7737.50000      11.31275      27.62294       0.34006       1.55000       1.76000       2.26347     -27.80000 
   7737.00000      11.52273      27.62294       0.32736       1.50000       1.71000       2.30101     -28.15708 
   7736.50000      11.72073      36.40455       0.31647       1.45000       1.68000       2.33827     -28.55708 
   7736.00000      11.82073      36.40455       0.32054       1.40000       1.65000       2.37337     -28.60000 
   7735.50000      11.90356      53.12208       0.32462       1.40000       1.63500       2.40851     -28.60000 
   7735.00000      11.84356      53.12208       0.32869       1.40000       1.62000       2.44406     -28.77854 
   7734.50000      11.78839      61.28350       0.33415       1.40000       1.56500       2.46974     -28.97854 
   7734.00000      11.77339      53.12208       0.35117       1.40000       1.51000       2.41324     -28.82146 
   7733.50000      11.75946      36.40455       0.36789       1.30000       1.44000       2.35496     -28.62146 
   7733.00000      11.75446      27.62294       0.38215       1.20000       1.37000       2.28191     -28.60000 
   7732.50000      11.74088      31.32243       0.39485       1.20000       1.33500       2.21092     -28.60000 
   7732.00000      11.65588      29.16667       0.39461       1.20000       1.30000       2.15707     -28.24292 
   7731.50000      11.57142    -999.25000       0.39309       1.20000       1.30000       2.10696     -27.84292 
   7731.00000      11.49142    -999.25000       0.38086       1.20000       1.30000       2.08796     -27.44292 
   7730.50000      11.41356    -999.25000       0.37027       1.20000       1.30000       2.07086     -27.04292 
   7730.00000      11.35356    -999.25000       0.37327       1.20000       1.30000       2.06951     -27.00000 
   7729.50000      11.29571    -999.25000       0.37677       1.20000       1.31500       2.06828     -27.00000 
   7729.00000      11.25571    -999.25000       0.38444       1.20000       1.33000       2.06808     -27.35708 
   7728.50000      11.21464    -999.25000       0.39100       1.25000       1.36500       2.06850     -27.75708 
   7728.00000      11.16464    -999.25000       0.38836       1.30000       1.40000       2.07405     -28.51417 
   7727.50000      11.12000    -999.25000       0.38641       1.30000       1.44000       2.07960     -29.31417 
   7727.00000      11.12000    -999.25000       0.39012       1.30000       1.48000       2.08520     -29.75708 
   7726.50000      11.12376    -999.25000       0.39367       1.35000       1.50500       2.09078     -30.15708 
   7726.00000      11.15876    -999.25000       0.39583       1.40000       1.53000       2.09618     -30.20000 
   7725.50000      11.19268    -999.25000       0.39752       1.40000       1.53000       2.10194     -30.20000 
   7725.00000      11.21768    -999.25000       0.39537       1.40000       1.53000       2.11069     -30.20000 
   7724.50000      11.24268    -999.25000       0.39284       1.40000       1.54500       2.11861     -30.20000 
   7724.00000      11.26768    -999.25000       0.38720       1.40000       1.56000       2.11961     -29.48583 
   7723.50000      11.29107    -999.25000       0.38236       1.40000       1.57500       2.11995     -28.68583 
   7723.00000      11.30107    -999.25000       0.38403       1.40000       1.59000       2.11480     -28.60000 
   7722.50000      11.31054    -999.25000       0.38629       1.45000       1.63500       2.10850     -28.60000 
   7722.00000      11.31554    -999.25000       0.39336       1.50000       1.68000       2.09270     -28.60000 
   7721.50000      11.32536    -999.25000       0.39993       1.65000       1.76000       2.07805     -28.60000 
   7721.00000      11.37536    -999.25000       0.40232       1.80000       1.84000       2.07290     -28.60000 
   7720.50000      11.42215    -999.25000       0.40466       1.85000       1.95000       2.06943     -28.60000 
