~Version Information
VERS  .          2.0                              :CWLS Log Ascii Standard - Version 2.0
WRAP  .          NO                               :One line per depth step
~Well Information Block
#MNEM.UNIT       Data Type                        Information
#---------       ---------                        -------------------------------
STRT  .F         9850.00000                       :START DEPTH
STOP  .F         1453.50000                       :STOP DEPTH
STEP  .F         -0.50000                         :INCREMENT
NULL  .          -999.25                          :NULL DATA VALUE
COMP  .          ************                     :COMPANY
WELL  .          *******                          :WELL
FLD   .          ******                           :FIELD
LOC   .                                           :LOCATION
PROV  .                                           :PROVINCE
STAT  .                                           :STATE
CNTY  .                                           :COUNTY
CTRY  .                                           :COUNTRY
DATE  .                                           :DATE
UWI   .          ********                         :UNIQUE WELL UWI
LIC   .                                           :LICENSE NUMBER
API   .                                           :API NUMBER
SRVC  .          *****                            :SERVICE COMPANY
~Parameter Information Block
#MNEM.UNIT       Value                            Description
#---------       ---------                        -------------
~Curve Information Block
#MNEM.UNIT       API Code            Curve    Description
#--------        --------------      -----    -------------------
DEPT  .F                             :0       Index
CAL   .                              :1       Calibration Curve             
GR    .GAPI                          :2       Gamma Ray                     
NPHI  .V/V                           :3       Thermal Neutron Porosity (original Ratio Method) in Selected Lithology
RESD  .                              :4       Added by gf35 using QCTool    
RESS  .OHMM                          :5       Added by conefrem using QCTool 
RHOB  .G/C3                          :6       Bulk Density                  
SP    .MV                            :7       Spontaneous Potential         
~Ascii Data Section
# ...
   8359.00000      10.98030      61.28350       0.37214       3.30000       3.68000       2.46521     -41.70000 
   8358.50000      11.06539      61.28350       0.36098       3.15000       3.55000       2.47402     -41.70000 
   8358.00000      11.12687      61.28350       0.35016       3.00000       3.42000       2.47696     -41.70000 
   8357.50000      11.18699      61.28350       0.33935       3.05000       3.27000       2.47957     -42.50000 
   8357.00000      11.25181      61.28350       0.34189       3.10000       3.12000       2.48008     -43.30000 
   8356.50000      11.31695      61.28350       0.34513       3.20000       3.18000       2.48048     -42.90000 
   8356.00000      11.38679      61.28350       0.35111       3.30000       3.24000       2.47993     -42.50000 
   8355.50000      11.45693      53.12208       0.35724       3.50000       3.30000       2.47933     -42.10000 
   8355.00000      11.44564      53.12208       0.35945       3.70000       3.36000       2.47356     -41.70000 
   8354.50000      11.43061      53.12208       0.36149       4.10000       3.73500       2.46754     -42.10000 
   8354.00000      11.42520      53.12208       0.36411       4.50000       4.11000       2.44454     -42.50000 
   8353.50000      11.42019      53.12208       0.36675       4.75000       4.22500       2.42079     -42.50000 
   8353.00000      11.39109      53.12208       0.36454       5.00000       4.34000       2.41219     -42.50000 
   8352.50000      11.36103      53.12208       0.36214       6.60000       6.45000       2.40418     -44.90000 
   8352.00000      11.26817      53.12208       0.36298       8.20000       8.56000       2.40487     -47.30000 
   8351.50000      11.17297      53.12208       0.36394       9.30000       9.33000       2.40587     -47.70000 
   8351.00000      10.95180      53.12208       0.35189      10.40000      10.10000       2.41982     -48.10000 
   8350.50000      10.72634      53.12208       0.33940      11.35000      11.58000       2.43420     -49.35000 
   8350.00000      10.58380      53.12208       0.29837      12.30000      13.06000       2.43246     -50.60000 
   8349.50000      10.44351      36.40455       0.25647      14.25000      16.85500       2.43026     -51.40000 
   8349.00000      10.35216      36.40455       0.25168      16.20000      20.65000       2.42981     -52.20000 
   8348.50000      10.26197      36.40455       0.24784      18.05000      22.06500       2.42941     -53.00000 
   8348.00000      10.17677      27.62294       0.23508      19.90000      23.48000       2.40208     -53.80000 
   8347.50000      10.09160      27.62294       0.22212      22.80000      31.00000       2.37412     -53.80000 
   8347.00000      10.07033      27.62294       0.22717      25.70000      38.52000       2.34558     -53.80000 
   8346.50000      10.05031      27.62294       0.23257      29.45000      45.56000       2.31705     -53.80000 
   8346.00000      10.03027      36.40455       0.25133      33.20000      52.60000       2.30126     -53.80000 
   8345.50000      10.01025      61.28350       0.27028      32.60000      56.20500       2.28569     -53.40000 
   8345.00000      10.04958      62.94914       0.26269      32.00000      59.81000       2.29792     -53.00000 
   8344.50000      10.08962      64.67753       0.25478      30.75000      56.69500       2.31048     -53.00000 
   8344.00000      10.22898      64.67753       0.20724      29.50000      53.58000       2.40540     -53.00000 
   8343.50000      10.36912      60.93750       0.15939      28.85000      42.24500       2.50100     -53.40000 
   8343.00000      10.48950      64.67753       0.13511      28.20000      30.91000       2.55562     -53.80000 
   8342.50000      10.60962      62.94914       0.11100      26.25000      26.77000       2.60993     -53.40000 
   8342.00000      10.57504      61.28350       0.10063      24.30000      22.63000       2.64217     -53.00000 
   8341.50000      10.54000      53.12208       0.09032      24.10000      20.91000       2.67430     -53.00000 
   8341.00000      10.35962      36.40455       0.09860      23.90000      19.19000       2.59639     -53.00000 
   8340.50000      10.17930      36.40455       0.10693      24.10000      19.55000       2.51861     -53.00000 
   8340.00000       9.95383      36.40455       0.13383      24.30000      19.91000       2.45763     -53.00000 
   8339.50000       9.72984      36.40455       0.16071      25.00000      19.91000       2.39690     -53.40000 
   8339.00000       9.70479      36.40455       0.19061      25.70000      19.91000       2.36554     -53.80000 
   8338.50000       9.68000      36.40455       0.22034      25.70000      19.37500       2.33455     -53.80000 
   8338.00000       9.68000      53.12208       0.23631      25.70000      18.84000       2.34016     -53.80000 
   8337.50000       9.68000      53.12208       0.25190      26.95000      20.13000       2.34589     -55.40000 
   8337.00000       9.68000      53.12208       0.23882      28.20000      21.42000       2.36087     -57.00000 
   8336.50000       9.68031      61.28350       0.22595      28.70000      22.23500       2.37605     -57.80000 
   8336.00000       9.70036      61.28350       0.22595      29.20000      23.05000       2.40501     -58.60000 
   8335.50000       9.72000      53.12208       0.22575      29.20000      22.43500       2.43379     -58.60000 
   8335.00000       9.72000      53.12208       0.21579      29.20000      21.82000       2.45356     -58.60000 
   8334.50000       9.71989      36.40455       0.20618      28.95000      21.23500       2.47217     -57.80000 
   8334.00000       9.71488      36.40455       0.21158      28.70000      20.65000       2.44044     -57.00000 
   8333.50000       9.71013      36.40455       0.21701      28.45000      20.46500       2.40876     -57.00000 
   8333.00000       9.71514      36.40455       0.22336      28.20000      20.28000       2.38043     -57.00000 
   8332.50000       9.72000      36.40455       0.22997      27.90000      20.65500       2.35301     -56.60000 
   8332.00000       9.72000      36.40455       0.24460      27.60000      21.03000       2.35661     -56.20000 
   8331.50000       9.72000      36.40455       0.25847      27.60000      21.62500       2.36050     -55.80000 
   8331.00000       9.72000      36.40455       0.24899      27.60000      22.22000       2.37286     -55.40000 
   8330.50000       9.72071      36.40455       0.24000      27.35000      22.63500       2.38475     -55.00000 
   8330.00000       9.74073      36.40455       0.24432      27.10000      23.05000       2.38335     -54.60000 
   8329.50000       9.76000      36.40455       0.24885      27.65000      23.93000       2.38171     -53.80000 
   8329.00000       9.76000      53.12208       0.25869      28.20000      24.81000       2.37431     -53.00000 
   8328.50000       9.76000      53.12208       0.26801      28.70000      25.51000       2.36733     -53.00000 
   8328.00000       9.76000      53.12208       0.26525      29.20000      26.21000       2.37054     -53.00000 
   8327.50000       9.76000      53.12208       0.26171      30.30000      28.56000       2.37491     -52.20000 
   8327.00000       9.76000      53.12208       0.24156      31.40000      30.91000       2.40425     -51.40000 
   8326.50000       9.76000      53.12208       0.22210      30.30000      30.08500       2.43194     -51.40000 
   8326.00000       9.76000      36.40455       0.21682      29.20000      29.26000       2.42659     -51.40000 
   8325.50000       9.76000      36.40455       0.21163      27.20000      24.95500       2.42084     -50.15000 
   8325.00000       9.76000      36.40455       0.20815      25.20000      20.65000       2.40781     -48.90000 
   8324.50000       9.76000      53.12208       0.20557      19.25000      16.62000       2.39442     -47.70000 
   8324.00000       9.76000      53.12208       0.21865      13.30000      12.59000       2.37448     -46.50000 
