~VERSION INFORMATION 
VERS  .    2.0                                     :CWLS Log ASCII Standard - VERSION 2.0
WRAP  .    NO                                      :One Line per Depth step
#--------------------------------------------------
~WELL INFORMATION 
#MNEM           .UNIT                      DATA            :DESCRIPTION
#----            ------          --------------            -----------------------------
STRT            .ft                   6530.5000            :START DEPTH
STOP            .ft                   7560.0000            :STOP DEPTH
STEP            .ft                         0.5            :STEP
NULL            .                     -999.0000            :NULL VALUE
COMP            .                         PDVSA            :COMPANY
WELL            .                        Well-1            :WELL NAME
FLD             .                       GUAFITA            :FIELD NAME
SRVC            .                       UNKNOWN            :SERVICE COMPANY
DATE            .                       UNKNOWN            :LOG DATE(Composite Date for Composite LAP) (MM/DD/YYYY)
CNTY            .                       UNKNOWN            :COUNTY
STAT            .                       BARINAS            :STATE or PROVINCE
PROV            .                       BARINAS            :STATE or PROVINCE
CTRY            .                     VENEZUELA            :COUNTRY
API             .                                          :API NUMBER
UWI             .                                          :UNIQUE WELL ID
LOC             .                       GUAFITA            :FIELD LOCATION
#--------------------------------------------------
~CURVE INFORMATION
#MNEM           .UNIT                  API CODE            :DESCRIPTION
#----           -------          --------------            -----------------------------
DEPTH           .ft                                        : Depth Index
RHOB            .g/cm3                                     : Density
DTSM            .us/ft                                     : Delta-T Shear
DTCO            .us/ft                                     : Delta-T Compressional
SW              .v/v                                       : Water Saturation
NPHI            .fraction                                  : Neutron Porosity
VSH             .v/v                                       : Shale Volume
#--------------------------------------------------
~PARAMETER INFORMATION
#MNEM           .UNIT                  VALUE               :DESCRIPTION
#----           -------          --------------            -----------------------------
EKB             .ft                   481.00000            :Elevation of Depth Reference (Kelly Bushing)
EGL             .ft                   451.00000            :Elevation of Ground Level
#-------------------------------------------------------------
#  DEPTH             RHOB           DTSM           DTCO             SW              PHI            VSH
~ASCII
# ...
 7523.0005          2.2250       -999.0000       -999.0000          1.0000          0.1000          0.6427
 7523.2495       -999.0000        170.7609        103.2447       -999.0000       -999.0000       -999.0000
 7523.5000          2.2240        171.0122        103.6276          1.0000          0.0996          0.6392
 7523.7505       -999.0000        170.8316        103.9494       -999.0000       -999.0000       -999.0000
 7524.0000          2.2500        170.2856        104.0054          1.0000          0.1101          0.5934
 7524.2495       -999.0000        169.8661        103.6481       -999.0000       -999.0000       -999.0000
 7524.5000          2.2920        170.2245        102.8138          1.0000          0.0975          0.6218
 7524.7505       -999.0000        171.1349        101.5096       -999.0000       -999.0000       -999.0000
 7524.9995          2.3600       -999.0000       -999.0000          1.0000          0.0918          0.6142
 7525.0000       -999.0000        171.3731         99.8026       -999.0000       -999.0000       -999.0000
 7525.2495       -999.0000        170.0579         97.8336       -999.0000       -999.0000       -999.0000
 7525.5000          2.4060        166.6085         95.7817          1.0000          0.0877          0.6140
 7525.7505       -999.0000        161.5298         93.8514       -999.0000       -999.0000       -999.0000
 7526.0000          2.4350        156.4768         92.2460          1.0000          0.0784          0.6371
 7526.2495       -999.0000        152.6965         91.1155       -999.0000       -999.0000       -999.0000
 7526.5000          2.4150        151.0857         90.5681          1.0000          0.0899          0.6215
 7526.7505       -999.0000        151.7451         90.6544       -999.0000       -999.0000       -999.0000
 7527.0000       -999.0000        153.8755         91.3510       -999.0000       -999.0000       -999.0000
 7527.0005          2.3540       -999.0000       -999.0000          1.0000          0.1084          0.5879
 7527.2495       -999.0000        156.6536         92.5640       -999.0000       -999.0000       -999.0000
 7527.5000          2.2840        159.0845         94.0916          1.0000          0.1220          0.5548
 7527.7505       -999.0000        160.4219         95.6245       -999.0000       -999.0000       -999.0000
 7528.0000          2.2870        160.3358         96.8086          0.7296          0.1230          0.5337
 7528.2495       -999.0000        158.6858         97.3293       -999.0000       -999.0000       -999.0000
 7528.5000          2.2940        156.0685         97.0356          0.5338          0.1273          0.5337
 7528.7505       -999.0000        153.3687         96.0441       -999.0000       -999.0000       -999.0000
 7528.9995          2.2650       -999.0000       -999.0000          0.4890          0.1285          0.5337
 7529.0000       -999.0000        151.4944         94.7206       -999.0000       -999.0000       -999.0000
 7529.2495       -999.0000        151.3507         93.5666       -999.0000       -999.0000       -999.0000
 7529.5000          2.2630        153.0351         93.0410          0.5647          0.1291          0.5337
 7529.7505       -999.0000        156.1115         93.3580       -999.0000       -999.0000       -999.0000
 7530.0000          2.2350        159.8962         94.4102          0.7189          0.1333          0.5337
 7530.2495       -999.0000        163.5074         95.8260       -999.0000       -999.0000       -999.0000
 7530.5000          2.2260        166.4241         97.1223          0.9087          0.1316          0.5337
 7530.7505       -999.0000        168.4669         97.9050       -999.0000       -999.0000       -999.0000
 7531.0000       -999.0000        169.6885         98.0001       -999.0000       -999.0000       -999.0000
 7531.0005          2.2550       -999.0000       -999.0000          1.0000          0.1273          0.5337
 7531.2495       -999.0000        170.4246         97.4831       -999.0000       -999.0000       -999.0000
 7531.5000          2.2930        171.0764         96.6117          1.0000          0.1247          0.5337
 7531.7505       -999.0000        171.9983         95.7045       -999.0000       -999.0000       -999.0000
 7532.0000          2.3140        173.2669         95.0649          1.0000          0.1187          0.5337
 7532.2495       -999.0000        174.5459         94.9363       -999.0000       -999.0000       -999.0000
 7532.5000          2.3650        175.2012         95.4564          1.0000          0.1124          0.5337
 7532.7505       -999.0000        174.3516         96.6908       -999.0000       -999.0000       -999.0000
 7532.9995          2.4100       -999.0000       -999.0000          1.0000          0.1079          0.5337
 7533.0000       -999.0000        171.7911         98.5622       -999.0000       -999.0000       -999.0000
 7533.2495       -999.0000        168.0193        100.7574       -999.0000       -999.0000       -999.0000
 7533.5000          2.4200        163.9020        102.8923          0.7508          0.1054          0.5337
 7533.7505       -999.0000        161.2602        104.5305       -999.0000       -999.0000       -999.0000
 7534.0000          2.4480        160.9432        105.3427          0.5702          0.1026          0.5337
 7534.2495       -999.0000        163.0342        105.3506       -999.0000       -999.0000       -999.0000
 7534.5000          2.4480        167.3222        104.7191          0.4652          0.1052          0.5337
 7534.7505       -999.0000        172.1288        103.7172       -999.0000       -999.0000       -999.0000
 7535.0000       -999.0000        176.4402        102.6251       -999.0000       -999.0000       -999.0000
 7535.0005          2.3950       -999.0000       -999.0000          0.4071          0.1150          0.5337
 7535.2495       -999.0000        179.6250        101.5369       -999.0000       -999.0000       -999.0000
 7535.5000          2.3280        181.3331        100.4831          0.3871          0.1246          0.5337
 7535.7505       -999.0000        182.1649         99.4763       -999.0000       -999.0000       -999.0000
 7536.0000          2.2390        182.5448         98.5090          0.3991          0.1353          0.5337
 7536.2495       -999.0000        182.8524         97.5913       -999.0000       -999.0000       -999.0000
 7536.5000          2.1810        183.3058         96.7514          0.4240          0.1384          0.5337
 7536.7505       -999.0000        183.9006         95.9985       -999.0000       -999.0000       -999.0000
 7536.9995          2.1860       -999.0000       -999.0000          0.4362          0.1398          0.5337
 7537.0000       -999.0000        184.6335         95.3383       -999.0000       -999.0000       -999.0000
 7537.2495       -999.0000        185.4211         94.8046       -999.0000       -999.0000       -999.0000
 7537.5000          2.1730        186.1830         94.4033          0.4241          0.1408          0.5337
 7537.7505       -999.0000        186.8308         94.1291       -999.0000       -999.0000       -999.0000
 7538.0000          2.1830        187.2619         93.9661          0.3880          0.1382          0.5337
 7538.2495       -999.0000        187.4967         93.8711       -999.0000       -999.0000       -999.0000
 7538.5000          2.2210        187.5772         93.8146          0.3297          0.1282          0.5337
 7538.7505       -999.0000        187.5688         93.7774       -999.0000       -999.0000       -999.0000
 7539.0000       -999.0000        187.5584         93.7489       -999.0000       -999.0000       -999.0000
 7539.0005          2.2950       -999.0000       -999.0000          0.2561          0.1148          0.5337
 7539.2495       -999.0000        187.5584         93.7276       -999.0000       -999.0000       -999.0000
 7539.5000          2.3600        187.5698         93.7110          0.1936          0.1073          0.5337
