~VERSION INFORMATION 
VERS  .    2.0                                     :CWLS Log ASCII Standard - VERSION 2.0
WRAP  .    NO                                      :One Line per Depth step
#--------------------------------------------------
~WELL INFORMATION 
#MNEM           .UNIT                      DATA            :DESCRIPTION
#----            ------          --------------            -----------------------------
STRT            .ft                   7364.0000            :START DEPTH
STOP            .ft                   8538.0000            :STOP DEPTH
STEP            .ft                         0.5            :STEP
NULL            .                     -999.0000            :NULL VALUE
COMP            .                         PDVSA            :COMPANY
WELL            .                        Well-2            :WELL NAME
FLD             .                       GUAFITA            :FIELD NAME
SRVC            .                       UNKNOWN            :SERVICE COMPANY
DATE            .                       UNKNOWN            :LOG DATE(Composite Date for Composite LAP) (MM/DD/YYYY)
CNTY            .                       UNKNOWN            :COUNTY
STAT            .                       BARINAS            :STATE or PROVINCE
PROV            .                       BARINAS            :STATE or PROVINCE
CTRY            .                     VENEZUELA            :COUNTRY
API             .                                          :API NUMBER
UWI             .                                          :UNIQUE WELL ID
LOC             .                       GUAFITA            :FIELD LOCATION
#--------------------------------------------------
~CURVE INFORMATION
#MNEM           .UNIT                  API CODE            :DESCRIPTION
#----            ------          --------------            -----------------------------
DEPTH           .ft                                        : Depth Index
RHOB            .g/cm3                                     : Density
DTSM            .us/ft                                     : Delta-T Shear
DTCO            .us/ft                                     : Delta-T Compressional
VSH             .v/v                                       : Shale Volume
SW              .v/v                                       : Water Saturation
NPHI            .fraction                                  : Neutron Porosity
#--------------------------------------------------
~PARAMETER INFORMATION
#MNEM           .UNIT                  VALUE               :DESCRIPTION
#----           -------          --------------            -----------------------------
EKB             .ft                   487.00000            :Elevation of Depth Reference (Kelly Bushing)
EGL             .ft                   457.00000            :Elevation of Ground Level
#-------------------------------------------------------------
#  DEPTH             RHOB           DTSM           DTCO             VSH             SW              PHI
~ASCII
# ...
 8414.0000          2.2932        187.6898         99.5449          0.5414          1.0000          0.1178
 8414.5000          2.2736        196.5613         98.9228          0.5038          1.0000          0.1226
 8415.0000          2.2685        192.6644         98.3220          0.4661          1.0000          0.1273
 8415.5000          2.2667        191.7868         95.8965          0.4626          0.8888          0.1238
 8416.0000          2.2555        181.5388         95.2215          0.4590          0.7775          0.1203
 8416.5000          2.2435        182.8544         96.0554          0.5094          0.6026          0.1141
 8417.0000          2.2393        189.1462         98.7227          0.5597          0.4277          0.1078
 8417.5000          2.2386        189.8569         99.9297          0.6161          0.4607          0.0991
 8418.0000          2.2354        190.4853        101.9394          0.6724          0.4937          0.0904
 8418.5000          2.2299        202.5944        102.0317          0.6672          0.4846          0.0956
 8419.0000          2.2230        205.4652        103.7776          0.6620          0.4756          0.1007
 8419.5000          2.2103        206.5840        103.6179          0.6077          0.4850          0.1159
 8420.0000          2.1929        207.2049        103.6654          0.5534          0.4944          0.1311
 8420.5000          2.1681        208.1777        104.9680          0.5035          0.5614          0.1521
 8421.0000          2.1310        218.7712        105.6841          0.4536          0.6284          0.1730
 8421.5000          2.0942        223.0156        110.3999          0.4825          0.5801          0.1689
 8422.0000          2.0820        224.5234        110.1532          0.5114          0.5318          0.1648
 8422.5000          2.1020        226.1753        110.6607          0.5698          0.5404          0.1401
 8423.0000          2.1302        226.7327        112.3195          0.6282          0.5490          0.1154
 8423.5000          2.1410        227.2750        113.2456          0.6360          0.5506          0.1114
 8424.0000          2.1356        225.9577        110.8450          0.6437          0.5522          0.1074
 8424.5000          2.1309        221.8237        110.6829          0.6436          0.5612          0.1083
 8425.0000          2.1311        219.6791        109.9060          0.6436          0.5701          0.1092
 8425.5000          2.1275        220.3994        109.7446          0.5977          0.5956          0.1296
 8426.0000          2.1109        219.8240        108.8841          0.5518          0.6211          0.1501
 8426.5000          2.0867        219.4595        111.4140          0.5211          0.6190          0.1575
 8427.0000          2.0730        207.3007        110.4449          0.4905          0.6168          0.1649
 8427.5000          2.0721        207.9867        111.8623          0.4981          0.6056          0.1623
 8428.0000          2.0673        220.5634        108.8581          0.5056          0.5944          0.1598
 8428.5000          2.0518        224.6270        108.5974          0.5201          0.5343          0.1598
 8429.0000          2.0403        225.2681        111.4527          0.5346          0.4743          0.1598
 8429.5000          2.0496        223.0898        110.9659          0.5691          0.4954          0.1570
 8430.0000          2.0694        222.3568        112.4869          0.6037          0.5165          0.1543
 8430.5000          2.0809        220.8662        111.9633          0.6014          0.5461          0.1445
 8431.0000          2.0827        220.5729        112.3757          0.5990          0.5756          0.1347
 8431.5000          2.0870        223.2080        112.9332          0.5706          0.5890          0.1356
 8432.0000          2.1042        219.8687        107.7030          0.5422          0.6025          0.1366
 8432.5000          2.1286        222.5838        109.9451          0.5624          0.7207          0.1303
 8433.0000          2.1482        220.2261        109.3158          0.5827          0.8390          0.1239
 8433.5000          2.1554        218.6161        106.9072          0.5950          0.9195          0.1230
 8434.0000          2.1545        214.9104        107.5842          0.6072          1.0000          0.1222
 8434.5000          2.1654        213.0281        106.4522          0.6116          1.0000          0.1229
 8435.0000          2.2045        211.0862        105.1652          0.6161          1.0000          0.1236
 8435.5000          2.2623        208.0335        102.4098          0.6709          1.0000          0.1034
 8436.0000          2.3133        206.5447        102.6149          0.7258          1.0000          0.0832
 8436.5000          2.3403        202.0686        102.0982          0.7433          1.0000          0.0759
 8437.0000          2.3399        201.4341        101.7046          0.7607          1.0000          0.0687
 8437.5000          2.3225        200.8888        101.5146          0.7319          1.0000          0.0784
 8438.0000          2.3074        202.2646        100.9813          0.7031          1.0000          0.0880
 8438.5000          2.3134        202.1818         98.1598          0.7175          1.0000          0.0867
 8439.0000          2.3348        200.1751         97.9976          0.7318          1.0000          0.0854
 8439.5000          2.3446        199.6513        103.2342          0.7064          1.0000          0.0901
 8440.0000          2.3282        198.2224        103.4448          0.6811          1.0000          0.0949
 8440.5000          2.2870        198.5554        104.2247          0.5982          1.0000          0.1260
 8441.0000          2.2254        199.8928        104.4288          0.5153          1.0000          0.1571
 8441.5000          2.1564        210.3897        103.3992          0.4110          1.0000          0.1957
 8442.0000          2.1015        219.7971        113.0813          0.3068          1.0000          0.2344
 8442.5000          2.0799        222.8762        113.7979          0.3386          0.8668          0.2163
 8443.0000          2.0943        224.0026        112.6620          0.3705          0.7335          0.1981
 8443.5000          2.1257        224.2884        113.8256          0.4605          0.7360          0.1679
 8444.0000          2.1466        224.2679        113.7452          0.5505          0.7385          0.1377
 8444.5000          2.1614        224.2157        113.7443          0.5653          0.7530          0.1310
 8445.0000          2.1846        224.2176        113.7783          0.5802          0.7674          0.1242
 8445.5000          2.1921        224.1427        113.8036          0.5376          0.8374          0.1422
 8446.0000          2.1688        224.2940        113.8242          0.4951          0.9074          0.1602
 8446.5000          2.1500        224.1018        113.8921          0.4902          0.8170          0.1554
 8447.0000          2.1900        224.1252        114.0459          0.4854          0.7267          0.1506
 8447.5000          2.2478        224.1366        114.0847          0.5351          0.7348          0.1353
 8448.0000          2.2539        224.1413        115.4051          0.5849          0.7429          0.1200
 8448.5000          2.1952        224.0750        115.3903          0.5130          0.7240          0.1479
 8449.0000          2.1229        224.0079        115.2440          0.4411          0.7051          0.1758
 8449.5000          2.0766        224.0262        114.9268          0.4092          0.6628          0.2041
 8450.0000          2.0602        223.9600        114.8637          0.3773          0.6205          0.2323
 8450.5000          2.0631        224.0208        114.8266          0.4234          0.6026          0.2033
 8451.0000          2.0868        223.9329        114.8277          0.4695          0.5846          0.1744
