~VERSION INFORMATION 
VERS  .    2.0                                     :CWLS Log ASCII Standard - VERSION 2.0
WRAP  .    NO                                      :One Line per Depth step
#--------------------------------------------------
~WELL INFORMATION 
#MNEM           .UNIT                      DATA            :DESCRIPTION
#----            ------          --------------            -----------------------------
STRT            .ft                   7364.0000            :START DEPTH
STOP            .ft                   8538.0000            :STOP DEPTH
STEP            .ft                         0.5            :STEP
NULL            .                     -999.0000            :NULL VALUE
COMP            .                         PDVSA            :COMPANY
WELL            .                        Well-2            :WELL NAME
FLD             .                       GUAFITA            :FIELD NAME
SRVC            .                       UNKNOWN            :SERVICE COMPANY
DATE            .                       UNKNOWN            :LOG DATE(Composite Date for Composite LAP) (MM/DD/YYYY)
CNTY            .                       UNKNOWN            :COUNTY
STAT            .                       BARINAS            :STATE or PROVINCE
PROV            .                       BARINAS            :STATE or PROVINCE
CTRY            .                     VENEZUELA            :COUNTRY
API             .                                          :API NUMBER
UWI             .                                          :UNIQUE WELL ID
LOC             .                       GUAFITA            :FIELD LOCATION
#--------------------------------------------------
~CURVE INFORMATION
#MNEM           .UNIT                  API CODE            :DESCRIPTION
#----            ------          --------------            -----------------------------
DEPTH           .ft                                        : Depth Index
RHOB            .g/cm3                                     : Density
DTSM            .us/ft                                     : Delta-T Shear
DTCO            .us/ft                                     : Delta-T Compressional
VSH             .v/v                                       : Shale Volume
SW              .v/v                                       : Water Saturation
NPHI            .fraction                                  : Neutron Porosity
#--------------------------------------------------
~PARAMETER INFORMATION
#MNEM           .UNIT                  VALUE               :DESCRIPTION
#----           -------          --------------            -----------------------------
EKB             .ft                   487.00000            :Elevation of Depth Reference (Kelly Bushing)
EGL             .ft                   457.00000            :Elevation of Ground Level
#-------------------------------------------------------------
#  DEPTH             RHOB           DTSM           DTCO             VSH             SW              PHI
~ASCII
# ...
 8076.5000          2.5215        158.5234         79.9905       -999.0000       -999.0000       -999.0000
 8076.9995          2.5284        161.2665         80.6948       -999.0000       -999.0000       -999.0000
 8077.5000          2.5254        164.4763         80.6375       -999.0000       -999.0000       -999.0000
 8078.0000          2.5355        165.7260         80.7828       -999.0000       -999.0000       -999.0000
 8078.5000          2.5620        167.9184         82.4925       -999.0000       -999.0000       -999.0000
 8079.0005          2.5849        169.8400         86.5500       -999.0000       -999.0000       -999.0000
 8079.5000          2.5856        169.9141         86.3631       -999.0000       -999.0000       -999.0000
 8080.0000          2.5615        169.8536         86.2203       -999.0000       -999.0000       -999.0000
 8080.5000          2.5236        169.5713         86.1194       -999.0000       -999.0000       -999.0000
 8080.9995          2.4915        166.8696         86.1826       -999.0000       -999.0000       -999.0000
 8081.5000          2.4811        166.0275         85.3398       -999.0000       -999.0000       -999.0000
 8082.0000          2.4889        163.8574         84.9246       -999.0000       -999.0000       -999.0000
 8082.5000          2.5003        156.4003         82.7091       -999.0000       -999.0000       -999.0000
 8083.0005          2.5021        154.1924         82.1337       -999.0000       -999.0000       -999.0000
 8083.5000          2.4911        153.2882         81.8231       -999.0000       -999.0000       -999.0000
 8084.0000          2.4917        154.5127         82.1039       -999.0000       -999.0000       -999.0000
 8084.5000          2.5235        155.2225         81.8992       -999.0000       -999.0000       -999.0000
 8084.9995          2.5552        157.4532         82.2766       -999.0000       -999.0000       -999.0000
 8085.5000          2.5586        159.2100         82.5543       -999.0000       -999.0000       -999.0000
 8086.0000          2.5431        159.4042         82.5448       -999.0000       -999.0000       -999.0000
 8086.5000          2.5316        160.0673         82.7687       -999.0000       -999.0000       -999.0000
 8087.0005          2.5305        159.1707         82.5686       -999.0000       -999.0000       -999.0000
 8087.5000          2.5567        159.9760         81.9651       -999.0000       -999.0000       -999.0000
 8088.0000          2.6178        157.7529         80.6401       -999.0000       -999.0000       -999.0000
 8088.5000          2.6558        157.9840         80.6206       -999.0000       -999.0000       -999.0000
 8088.9995          2.6333        155.4699         81.3656       -999.0000       -999.0000       -999.0000
 8089.5000          2.5772        155.3839         81.4292       -999.0000       -999.0000       -999.0000
 8090.0000          2.5511        154.9260         81.6309       -999.0000       -999.0000       -999.0000
 8090.5000          2.5471        154.5815         81.7645       -999.0000       -999.0000       -999.0000
 8091.0005          2.5374        155.7256         81.3644       -999.0000       -999.0000       -999.0000
 8091.5000          2.5181        147.9881         81.3866       -999.0000       -999.0000       -999.0000
 8092.0000          2.4991        142.4151         80.7648       -999.0000       -999.0000       -999.0000
 8092.5000          2.4902        153.6614         80.0696       -999.0000       -999.0000       -999.0000
 8092.9995          2.4931        150.2014         76.8684       -999.0000       -999.0000       -999.0000
 8093.5000          2.5041        147.6820         78.2591       -999.0000       -999.0000       -999.0000
 8094.0000          2.5172        146.8390         78.4967       -999.0000       -999.0000       -999.0000
 8094.5000          2.5199        146.3959         78.4960       -999.0000       -999.0000       -999.0000
 8095.0005          2.5058        151.0427         77.5509       -999.0000       -999.0000       -999.0000
 8095.5000          2.4878        149.2754         78.1995       -999.0000       -999.0000       -999.0000
 8096.0000          2.4858        147.7123         77.7683       -999.0000       -999.0000       -999.0000
 8096.5000          2.5012        144.4907         77.7146       -999.0000       -999.0000       -999.0000
 8096.9995          2.5178        143.5963         77.3690       -999.0000       -999.0000       -999.0000
 8097.5000          2.5207        144.7148         78.6099       -999.0000       -999.0000       -999.0000
 8098.0000          2.5108        148.9546         80.2102       -999.0000       -999.0000       -999.0000
 8098.5000          2.5001        147.4953         84.1317       -999.0000       -999.0000       -999.0000
 8099.0005          2.4906        148.7066         86.1074       -999.0000       -999.0000       -999.0000
 8099.5000          2.4753        157.3847         87.1211       -999.0000       -999.0000       -999.0000
 8100.0000          2.4551        160.3872         86.6125          0.4721          0.9095          0.0998
 8100.5000          2.4441        162.6845         87.2648          0.4568          0.8165          0.1009
 8100.9995          2.4535        165.6151         87.2032          0.4415          0.7235          0.1020
 8101.5000          2.4724        166.1401         84.2107          0.4153          0.8243          0.1174
 8102.0000          2.4795        179.5731         82.1247          0.3891          0.9251          0.1329
 8102.5000          2.5005        180.8123         80.0386          0.3938          0.9625          0.1579
 8103.0005          2.5299        188.4416         79.8197          0.3986          1.0000          0.1829
 8103.5000          2.3825        189.9455         79.8141          0.3415          0.8227          0.2865
 8104.0000          2.1137        199.2507         87.0381          0.2845          0.6455          0.3901
 8104.5000          1.8575        247.5231         92.0335          0.2986          0.7510          0.3395
 8104.9995          1.9453        243.0735         92.0408          0.3126          0.8565          0.2890
 8105.5000          2.2169        242.1666         97.3420          0.3729          0.9283          0.2515
 8106.0000          2.4000        232.1709         96.3407          0.4331          1.0000          0.2140
 8106.5000          2.4295        217.0368         95.7297          0.4441          1.0000          0.2054
 8107.0005          2.3981        190.1005         96.1056          0.4550          1.0000          0.1968
 8107.5000          2.4349        188.3829         96.4240          0.4466          1.0000          0.1901
 8108.0000          2.4629        182.6735         92.6804          0.4381          1.0000          0.1834
 8108.5000          2.4682        178.9909         90.4464          0.4346          1.0000          0.1715
 8108.9995          2.4768        178.8454         87.6759          0.4311          1.0000          0.1596
 8109.5000          2.4897        179.0373         88.5185          0.4527          1.0000          0.1621
 8110.0000          2.4952        184.9298         87.1350          0.4743          1.0000          0.1647
 8110.5000          2.4925        187.5338         90.1308          0.4993          1.0000          0.1558
 8111.0005          2.4933        188.3251         90.4727          0.5243          1.0000          0.1468
 8111.5000          2.5012        186.0499         90.9445          0.5034          1.0000          0.1445
 8112.0000          2.5034        188.2794         90.6942          0.4824          1.0000          0.1423
 8112.5000          2.5000        190.5083         90.3178          0.4712          1.0000          0.1584
 8112.9995          2.5134        189.5214         86.7753          0.4600          1.0000          0.1744
 8113.5000          2.5568        188.5841         88.3718          0.4782          1.0000          0.1776
