~Version Information
VERS  .          2.0                              :CWLS Log Ascii Standard - Version 2.0
WRAP  .          NO                               :One line per depth step
~Well Information Block
#MNEM.UNIT       Data Type                        Information
#---------       ---------                        -------------------------------
STRT  .F         9850.00000                       :START DEPTH
STOP  .F         1453.50000                       :STOP DEPTH
STEP  .F         -0.50000                         :INCREMENT
NULL  .          -999.25                          :NULL DATA VALUE
COMP  .          ************                     :COMPANY
WELL  .          *******                          :WELL
FLD   .          ******                           :FIELD
LOC   .                                           :LOCATION
PROV  .                                           :PROVINCE
STAT  .                                           :STATE
CNTY  .                                           :COUNTY
CTRY  .                                           :COUNTRY
DATE  .                                           :DATE
UWI   .          ********                         :UNIQUE WELL UWI
LIC   .                                           :LICENSE NUMBER
API   .                                           :API NUMBER
SRVC  .          *****                            :SERVICE COMPANY
~Parameter Information Block
#MNEM.UNIT       Value                            Description
#---------       ---------                        -------------
~Curve Information Block
#MNEM.UNIT       API Code            Curve    Description
#--------        --------------      -----    -------------------
DEPT  .F                             :0       Index
CAL   .                              :1       Calibration Curve             
GR    .GAPI                          :2       Gamma Ray                     
NPHI  .V/V                           :3       Thermal Neutron Porosity (original Ratio Method) in Selected Lithology
RESD  .                              :4       Added by gf35 using QCTool    
RESS  .OHMM                          :5       Added by conefrem using QCTool 
RHOB  .G/C3                          :6       Bulk Density                  
SP    .MV                            :7       Spontaneous Potential         
~Ascii Data Section
# ...
   8075.00000      11.39643      36.40455       0.33647       7.40000       4.59000       2.37285     -38.50000 
   8074.50000      11.00656      36.40455       0.31443       7.45000       6.13000       2.37574     -38.77645 
   8074.00000      10.69864      36.40455       0.28346       7.50000       7.67000       2.38427     -39.17314 
   8073.50000      10.41106      36.40455       0.25454       7.25000       7.40000       2.39189     -39.56983 
   8073.00000      10.31776      36.40455       0.24516       7.00000       7.13000       2.39077     -39.96625 
   8072.50000      10.22447      53.12208       0.23577       6.35000       6.81500       2.38965     -39.57438 
   8072.00000      10.17554      53.12208       0.25428       5.70000       6.50000       2.38787     -38.78099 
   8071.50000      10.12889      53.12208       0.27417       5.35000       5.95500       2.38605     -37.73140 
   8071.00000      10.09355      36.40455       0.28584       5.00000       5.41000       2.38823     -36.54132 
   8070.50000      10.06088      36.40455       0.29557       5.00000       5.22000       2.39136     -36.34959 
   8070.00000      10.10603      53.12208       0.30896       5.00000       5.03000       2.37948     -36.74628 
   8069.50000      10.19003      53.12208       0.32416       5.30000       5.32500       2.36012     -37.62817 
   8069.00000      10.34487      36.40455       0.34001       5.60000       5.62000       2.26699     -38.81777 
   8068.50000      10.56421      36.40455       0.35644       5.90000       7.95500       2.10678     -39.77190 
   8068.00000      10.68755      31.32243       0.36351       6.20000      10.29000       2.00739     -40.56529 
   8067.50000      10.65489    -999.25000       0.35535      14.20000      14.92000       2.00683     -40.90000 
   8067.00000      10.56991    -999.25000       0.34044      22.20000      19.55000       2.01507     -40.90000 
   8066.50000      10.31798    -999.25000       0.30399      20.00000      18.85500       2.05141     -40.45454 
   8066.00000      10.08508    -999.25000       0.26921      17.80000      18.16000       2.09147     -39.66161 
   8065.50000      10.03377    -999.25000       0.25032      14.95000      16.50500       2.16624     -39.30000 
   8065.00000       9.98246    -999.25000       0.23143      12.10000      14.85000       2.24102     -39.30000 
   8064.50000       9.94888      31.32243       0.23862      10.90000      11.95000       2.25491     -38.67273 
   8064.00000       9.91622      31.32243       0.24712       9.70000       9.05000       2.26574     -37.48264 
   8063.50000       9.90244      27.62294       0.26549       8.45000       7.23000       2.27366     -36.69752 
   8063.00000       9.89311      27.62294       0.28617       7.20000       5.41000       2.28089     -36.30083 
   8062.50000       9.94292      27.62294       0.30581       5.70000       4.80000       2.29177     -35.70826 
   8062.00000      10.02225      27.62294       0.32493       4.20000       4.19000       2.30446     -34.91527 
   8061.50000      10.11138      27.62294       0.34130       4.15000       4.19000       2.31393     -34.50000 
   8061.00000      10.20939      27.62294       0.35517       4.10000       4.19000       2.32046     -34.50000 
   8060.50000      10.28778      27.62294       0.36366       4.25000       5.06000       2.31781     -34.68223 
   8060.00000      10.33444      27.62294       0.36343       4.40000       5.93000       2.30027     -35.07893 
   8059.50000      10.38224      27.62294       0.36404       5.10000       7.24500       2.28295     -35.12438 
   8059.00000      10.43356      27.62294       0.36728       5.80000       8.56000       2.26639     -34.72769 
   8058.50000      10.47910      31.32243       0.36957       9.40000      10.46000       2.25149     -34.50000 
   8058.00000      10.46978      31.32243       0.36286      13.00000      12.36000       2.25242     -34.50000 
   8057.50000      10.46044      31.32243       0.35615      12.00000      11.32500       2.25336     -34.66198 
   8057.00000      10.35329      27.62294       0.33336      11.00000      10.29000       2.27025     -35.05868 
   8056.50000      10.24134      27.62294       0.30978       9.10000       8.98000       2.28793     -35.61074 
   8056.00000      10.18221      27.62294       0.28156       7.20000       7.67000       2.29463     -36.40413 
   8055.50000      10.13555      27.62294       0.25227       6.45000       7.08500       2.29873     -36.75124 
   8055.00000      10.16669      27.62294       0.25586       5.70000       6.50000       2.30595     -36.35455 
   8054.50000      10.23669      27.62294       0.27587       5.45000       6.11000       2.31473     -35.81599 
   8054.00000      10.32627      36.40455       0.29759       5.20000       5.72000       2.32810     -35.02314 
   8053.50000      10.43362      36.40455       0.32085       4.85000       5.15500       2.34565     -34.50000 
   8053.00000      10.48399      36.40455       0.33617       4.50000       4.59000       2.37000     -34.50000 
   8052.50000      10.44200      53.12208       0.33863       3.80000       3.69500       2.40541     -34.50000 
   8052.00000      10.40332      53.12208       0.33917       3.10000       2.80000       2.43382     -34.50000 
   8051.50000      10.37533      53.12208       0.33358       2.95000       2.75000       2.43980     -34.50000 
   8051.00000      10.35581      53.12208       0.32913       2.80000       2.70000       2.44431     -34.50000 
   8050.50000      10.41645      53.12208       0.33550       2.80000       2.80000       2.43498     -34.27025 
   8050.00000      10.47715      53.12208       0.34188       2.80000       2.90000       2.42564     -33.47686 
   8049.50000      10.58226      53.12208       0.35241       2.85000       2.98500       2.39359     -32.90000 
   8049.00000      10.68955      36.40455       0.36314       2.90000       3.07000       2.36042     -32.90000 
   8048.50000      10.78936      27.62294       0.36482       2.95000       3.18500       2.32976     -32.90000 
   8048.00000      10.88735      27.62294       0.36437       3.00000       3.30000       2.29971     -32.90000 
   8047.50000      10.97603      27.62294       0.36497       3.05000       3.39500       2.27404     -32.99495 
   8047.00000      11.06003      31.32243       0.36609       3.10000       3.49000       2.25057     -33.39132 
   8046.50000      11.08288      31.32243       0.36522       3.20000       3.55500       2.24057     -33.78802 
   8046.00000      11.05020      31.32243       0.36256       3.30000       3.62000       2.24281     -34.18471 
   8045.50000      11.02466      31.32243       0.36036       3.35000       3.68500       2.24776     -34.50000 
   8045.00000      11.01067      31.32243       0.35891       3.40000       3.75000       2.25709     -34.50000 
   8044.50000      10.99777      27.62294       0.35625       3.45000       3.82000       2.26726     -34.57479 
   8044.00000      10.98844      27.62294       0.34977       3.50000       3.89000       2.28009     -34.97149 
   8043.50000      10.97910      27.62294       0.34392       3.45000       3.85500       2.29070     -35.30000 
   8043.00000      10.96978      27.62294       0.34403       3.40000       3.82000       2.28030     -35.30000 
   8042.50000      10.96044      27.62294       0.34414       3.30000       3.65500       2.26989     -35.23884 
   8042.00000      10.92888      27.62294       0.34383       3.20000       3.49000       2.27771     -34.84215 
   8041.50000      10.89622      27.62294       0.34349       3.15000       3.36500       2.28644     -34.50000 
   8041.00000      10.85599      27.62294       0.34325       3.10000       3.24000       2.30095     -34.50000 
   8040.50000      10.81399      27.62294       0.34303       3.15000       3.27000       2.31681     -34.40413 
   8040.00000      10.78444      36.40455       0.33989       3.20000       3.30000       2.33328     -33.61084 
