~VERSION INFORMATION 
VERS  .    2.0                                     :CWLS Log ASCII Standard - VERSION 2.0
WRAP  .    NO                                      :One Line per Depth step
#--------------------------------------------------
~WELL INFORMATION 
#MNEM           .UNIT                      DATA            :DESCRIPTION
#----            ------          --------------            -----------------------------
STRT            .ft                   6530.5000            :START DEPTH
STOP            .ft                   7560.0000            :STOP DEPTH
STEP            .ft                         0.5            :STEP
NULL            .                     -999.0000            :NULL VALUE
COMP            .                         PDVSA            :COMPANY
WELL            .                        Well-1            :WELL NAME
FLD             .                       GUAFITA            :FIELD NAME
SRVC            .                       UNKNOWN            :SERVICE COMPANY
DATE            .                       UNKNOWN            :LOG DATE(Composite Date for Composite LAP) (MM/DD/YYYY)
CNTY            .                       UNKNOWN            :COUNTY
STAT            .                       BARINAS            :STATE or PROVINCE
PROV            .                       BARINAS            :STATE or PROVINCE
CTRY            .                     VENEZUELA            :COUNTRY
API             .                                          :API NUMBER
UWI             .                                          :UNIQUE WELL ID
LOC             .                       GUAFITA            :FIELD LOCATION
#--------------------------------------------------
~CURVE INFORMATION
#MNEM           .UNIT                  API CODE            :DESCRIPTION
#----           -------          --------------            -----------------------------
DEPTH           .ft                                        : Depth Index
RHOB            .g/cm3                                     : Density
DTSM            .us/ft                                     : Delta-T Shear
DTCO            .us/ft                                     : Delta-T Compressional
SW              .v/v                                       : Water Saturation
NPHI            .fraction                                  : Neutron Porosity
VSH             .v/v                                       : Shale Volume
#--------------------------------------------------
~PARAMETER INFORMATION
#MNEM           .UNIT                  VALUE               :DESCRIPTION
#----           -------          --------------            -----------------------------
EKB             .ft                   481.00000            :Elevation of Depth Reference (Kelly Bushing)
EGL             .ft                   451.00000            :Elevation of Ground Level
#-------------------------------------------------------------
#  DEPTH             RHOB           DTSM           DTCO             SW              PHI            VSH
~ASCII
# ...
 6906.5000          2.5200        169.2621         91.9286          1.0000          0.1074          0.5668
 6906.7505       -999.0000        169.0844         91.5111       -999.0000       -999.0000       -999.0000
 6907.0000       -999.0000        169.1666         91.3829       -999.0000       -999.0000       -999.0000
 6907.0005          2.4940       -999.0000       -999.0000          1.0000          0.1017          0.5940
 6907.2495       -999.0000        169.4553         91.6733       -999.0000       -999.0000       -999.0000
 6907.5000          2.4770        170.0077         92.3635          1.0000          0.1051          0.5836
 6907.7505       -999.0000        170.8894         93.2615       -999.0000       -999.0000       -999.0000
 6908.0000          2.4750        172.0344         94.0536          1.0000          0.1070          0.5830
 6908.2495       -999.0000        173.1704         94.4196       -999.0000       -999.0000       -999.0000
 6908.5000          2.4920        173.7690         94.1569          1.0000          0.1021          0.5824
 6908.7505       -999.0000        173.2861         93.2637       -999.0000       -999.0000       -999.0000
 6908.9995          2.5000       -999.0000       -999.0000          1.0000          0.1035          0.5447
 6909.0000       -999.0000        171.3388         91.9272       -999.0000       -999.0000       -999.0000
 6909.2495       -999.0000        167.9159         90.4494       -999.0000       -999.0000       -999.0000
 6909.5000          2.4840        163.5671         89.1352          1.0000          0.1104          0.4926
 6909.7505       -999.0000        159.1373         88.1813       -999.0000       -999.0000       -999.0000
 6910.0000          2.4970        155.5100         87.6445          1.0000          0.1097          0.4723
 6910.2495       -999.0000        153.3489         87.4583       -999.0000       -999.0000       -999.0000
 6910.5000          2.5070        152.7606         87.4859          1.0000          0.1161          0.4474
 6910.7505       -999.0000        153.4620         87.6100       -999.0000       -999.0000       -999.0000
 6911.0000       -999.0000        155.1713         87.7648       -999.0000       -999.0000       -999.0000
 6911.0005          2.5150       -999.0000       -999.0000          1.0000          0.1119          0.4682
 6911.2495       -999.0000        157.6587         87.9407       -999.0000       -999.0000       -999.0000
 6911.5000          2.5470        160.9615         88.1734          1.0000          0.1045          0.5077
 6911.7505       -999.0000        165.2233         88.5269       -999.0000       -999.0000       -999.0000
 6912.0000          2.5510        170.0073         89.0857          1.0000          0.1037          0.5303
 6912.2495       -999.0000        174.4830         89.9426       -999.0000       -999.0000       -999.0000
 6912.5000          2.5410        177.6871         91.1816          1.0000          0.1031          0.5517
 6912.7505       -999.0000        178.7294         92.7698       -999.0000       -999.0000       -999.0000
 6912.9995          2.5250       -999.0000       -999.0000          1.0000          0.0980          0.5795
 6913.0000       -999.0000        177.6513         94.5427       -999.0000       -999.0000       -999.0000
 6913.2495       -999.0000        175.1999         96.2518       -999.0000       -999.0000       -999.0000
 6913.5000          2.5210        172.2283         97.5985          1.0000          0.0975          0.5975
 6913.7505       -999.0000        169.5756         98.4178       -999.0000       -999.0000       -999.0000
 6914.0000          2.5120        167.5234         98.7067          1.0000          0.0943          0.6218
 6914.2495       -999.0000        165.9315         98.5554       -999.0000       -999.0000       -999.0000
 6914.5000          2.5150        164.6533         98.1241          1.0000          0.0903          0.6328
 6914.7505       -999.0000        163.5391         97.5322       -999.0000       -999.0000       -999.0000
 6915.0000       -999.0000        162.5240         96.8472       -999.0000       -999.0000       -999.0000
 6915.0005          2.5250       -999.0000       -999.0000          1.0000          0.0909          0.5986
 6915.2495       -999.0000        161.6003         96.1388       -999.0000       -999.0000       -999.0000
 6915.5000          2.5200        160.6970         95.4880          1.0000          0.0919          0.5946
 6915.7505       -999.0000        159.7154         94.9967       -999.0000       -999.0000       -999.0000
 6916.0000          2.5090        158.6460         94.7637          1.0000          0.0972          0.5650
 6916.2495       -999.0000        157.4646         94.8362       -999.0000       -999.0000       -999.0000
 6916.5000          2.5050        156.2563         95.1773          1.0000          0.1041          0.5500
 6916.7505       -999.0000        155.1067         95.6597       -999.0000       -999.0000       -999.0000
 6916.9995          2.5000       -999.0000       -999.0000          1.0000          0.1112          0.5349
 6917.0000       -999.0000        153.9731         96.0841       -999.0000       -999.0000       -999.0000
 6917.2495       -999.0000        152.8841         96.2273       -999.0000       -999.0000       -999.0000
 6917.5000          2.4980        151.6596         95.9034          1.0000          0.1196          0.5082
 6917.7505       -999.0000        150.2187         95.0116       -999.0000       -999.0000       -999.0000
 6918.0000          2.5200        148.6044         93.5716          1.0000          0.1146          0.5146
 6918.2495       -999.0000        146.8000         91.7147       -999.0000       -999.0000       -999.0000
 6918.5000          2.5330        145.0860         89.6486          1.0000          0.1075          0.4595
 6918.7505       -999.0000        143.6153         87.6136       -999.0000       -999.0000       -999.0000
 6919.0000       -999.0000        142.4817         85.8132       -999.0000       -999.0000       -999.0000
 6919.0005          2.5740       -999.0000       -999.0000          1.0000          0.0895          0.4497
 6919.2495       -999.0000        141.8447         84.3787       -999.0000       -999.0000       -999.0000
 6919.5000          2.5700        141.6377         83.3501          1.0000          0.0885          0.4178
 6919.7505       -999.0000        141.8177         82.6777       -999.0000       -999.0000       -999.0000
 6920.0000          2.5460        142.3343         82.2712          1.0000          0.0974          0.3749
 6920.2495       -999.0000        143.0839         82.0399       -999.0000       -999.0000       -999.0000
 6920.5000          2.5270        144.0466         81.9342          1.0000          0.0958          0.3900
 6920.7505       -999.0000        145.2792         81.9707       -999.0000       -999.0000       -999.0000
 6920.9995          2.5350       -999.0000       -999.0000          1.0000          0.0908          0.4230
 6921.0000       -999.0000        146.8510         82.2168       -999.0000       -999.0000       -999.0000
 6921.2495       -999.0000        148.7827         82.7570       -999.0000       -999.0000       -999.0000
 6921.5000          2.5390        151.0408         83.6474          1.0000          0.0881          0.4613
 6921.7505       -999.0000        153.4741         84.8716       -999.0000       -999.0000       -999.0000
 6922.0000          2.5400        155.9271         86.3346          1.0000          0.0893          0.5175
 6922.2495       -999.0000        158.2896         87.8790       -999.0000       -999.0000       -999.0000
 6922.5000          2.5450        160.4122         89.3317          1.0000          0.0895          0.5575
 6922.7505       -999.0000        162.1685         90.5567       -999.0000       -999.0000       -999.0000
 6923.0000       -999.0000        163.3676         91.4792       -999.0000       -999.0000       -999.0000
