~Version Information
VERS  .          2.0                              :CWLS Log Ascii Standard - Version 2.0
WRAP  .          NO                               :One line per depth step
~Well Information Block
#MNEM.UNIT       Data Type                        Information
#---------       ---------                        -------------------------------
STRT  .F         9850.00000                       :START DEPTH
STOP  .F         1453.50000                       :STOP DEPTH
STEP  .F         -0.50000                         :INCREMENT
NULL  .          -999.25                          :NULL DATA VALUE
COMP  .          ************                     :COMPANY
WELL  .          *******                          :WELL
FLD   .          ******                           :FIELD
LOC   .                                           :LOCATION
PROV  .                                           :PROVINCE
STAT  .                                           :STATE
CNTY  .                                           :COUNTY
CTRY  .                                           :COUNTRY
DATE  .                                           :DATE
UWI   .          ********                         :UNIQUE WELL UWI
LIC   .                                           :LICENSE NUMBER
API   .                                           :API NUMBER
SRVC  .          *****                            :SERVICE COMPANY
~Parameter Information Block
#MNEM.UNIT       Value                            Description
#---------       ---------                        -------------
~Curve Information Block
#MNEM.UNIT       API Code            Curve    Description
#--------        --------------      -----    -------------------
DEPT  .F                             :0       Index
CAL   .                              :1       Calibration Curve             
GR    .GAPI                          :2       Gamma Ray                     
NPHI  .V/V                           :3       Thermal Neutron Porosity (original Ratio Method) in Selected Lithology
RESD  .                              :4       Added by gf35 using QCTool    
RESS  .OHMM                          :5       Added by conefrem using QCTool 
RHOB  .G/C3                          :6       Bulk Density                  
SP    .MV                            :7       Spontaneous Potential         
~Ascii Data Section
# ...
   8217.00000      10.07552      53.12208       0.26255       5.90000       6.50000       2.46621     -44.10000 
   8216.50000      10.00326      53.12208       0.27836       5.85000       6.50000       2.45939     -43.30000 
   8216.00000       9.96950      53.12208       0.29609       5.80000       6.50000       2.45178     -42.50000 
   8215.50000       9.95403      53.12208       0.31473       5.85000       6.62500       2.44378     -42.10000 
   8215.00000       9.93473      61.28350       0.31629       5.90000       6.75000       2.43941     -41.70000 
   8214.50000       9.91409      61.28350       0.31185       6.65000       7.00500       2.43631     -41.70000 
   8214.00000       9.91000      61.28350       0.31057       7.40000       7.26000       2.43947     -41.70000 
   8213.50000       9.91000      61.28350       0.31008       7.90000       7.68500       2.44416     -42.10000 
   8213.00000       9.91000      61.28350       0.30851       8.40000       8.11000       2.45837     -42.50000 
   8212.50000       9.91000      61.28350       0.30679       9.40000      10.58500       2.47404     -42.90000 
   8212.00000       9.91000      53.12208       0.30986      10.40000      13.06000       2.47845     -43.30000 
   8211.50000       9.91000      36.40455       0.31332      10.50000      13.68500       2.48196     -42.90000 
   8211.00000       9.91510      36.40455       0.29846      10.60000      14.31000       2.46282     -42.50000 
   8210.50000       9.92026      36.40455       0.28434      10.35000      13.33500       2.44227     -42.10000 
   8210.00000       9.92542      36.40455       0.28780      10.10000      12.36000       2.40046     -41.70000 
   8209.50000       9.92884      36.40455       0.29341       9.15000      10.08500       2.36133     -40.90000 
   8209.00000       9.91852      36.40455       0.31601       8.20000       7.81000       2.34296     -40.10000 
   8208.50000       9.90729      53.12208       0.33585       7.40000       7.96000       2.33000     -39.70000 
   8208.00000       9.89181      53.12208       0.34264       6.60000       8.11000       2.34260     -39.30000 
   8207.50000       9.89959      53.12208       0.34679       6.20000       7.55500       2.36130     -38.90000 
   8207.00000       9.98211      53.12208       0.34247       5.80000       7.00000       2.39962     -38.50000 
   8206.50000      10.02148      53.12208       0.33269       5.35000       6.75000       2.42829     -37.70000 
   8206.00000       9.95955      53.12208       0.31008       4.90000       6.50000       2.43428     -36.90000 
   8205.50000       9.92560      53.12208       0.29601       4.60000       5.76500       2.43862     -36.50000 
   8205.00000       9.94108      61.28350       0.29700       4.30000       5.03000       2.44007     -36.10000 
   8204.50000      10.00683      61.28350       0.30536       3.80000       4.26000       2.44099     -35.30000 
   8204.00000      10.14095      61.28350       0.32375       3.30000       3.49000       2.44119     -34.50000 
   8203.50000      10.29518      61.28350       0.33994       3.15000       3.33500       2.45009     -34.50000 
   8203.00000      10.47067      61.28350       0.35377       3.00000       3.18000       2.46821     -34.50000 
   8202.50000      10.61787      61.28350       0.35786       3.05000       3.27000       2.47911     -34.50000 
   8202.00000      10.74174      61.28350       0.35390       3.10000       3.36000       2.48407     -34.50000 
   8201.50000      10.82777      61.28350       0.35493       3.10000       3.55500       2.48852     -34.50000 
   8201.00000      10.88968      61.28350       0.35912       3.10000       3.75000       2.49265     -34.50000 
   8200.50000      10.90653      62.94914       0.35428       3.10000       3.75000       2.49854     -34.50000 
   8200.00000      10.90137      61.28350       0.34501       3.10000       3.75000       2.50530     -34.50000 
   8199.50000      10.85831      61.28350       0.33902       3.00000       3.55500       2.51028     -34.90000 
   8199.00000      10.80153      61.28350       0.33420       2.90000       3.36000       2.51462     -35.30000 
   8198.50000      10.76124      61.28350       0.33794       2.90000       3.27000       2.50831     -35.30000 
   8198.00000      10.72512      61.28350       0.34387       2.90000       3.18000       2.49928     -35.30000 
   8197.50000      10.70671      61.28350       0.34815       3.00000       3.21000       2.49375     -35.30000 
   8197.00000      10.69123      61.28350       0.35216       3.10000       3.24000       2.48879     -35.30000 
   8196.50000      10.64247      61.28350       0.35692       3.20000       3.39500       2.48460     -35.70000 
   8196.00000      10.59086      61.28350       0.36175       3.30000       3.55000       2.48047     -36.10000 
   8195.50000      10.55451      61.28350       0.35551       3.55000       3.75500       2.47999     -36.90000 
   8195.00000      10.52162      61.28350       0.34931       3.80000       3.96000       2.47971     -37.70000 
   8194.50000      10.55775      61.28350       0.34795       4.15000       4.59000       2.48219     -38.10000 
   8194.00000      10.57837      61.28350       0.34515       4.50000       5.22000       2.48502     -38.50000 
   8193.50000      10.46998      61.28350       0.33044       4.75000       5.63000       2.49080     -38.50000 
   8193.00000      10.35549      61.28350       0.31543       5.00000       6.04000       2.49556     -38.50000 
   8192.50000      10.21110      61.28350       0.29900       5.10000       5.98500       2.49536     -37.30000 
   8192.00000      10.09045      61.28350       0.28223       5.20000       5.93000       2.49439     -36.10000 
   8191.50000      10.04916      61.28350       0.26443       5.05000       5.77500       2.49088     -35.70000 
   8191.00000      10.02455      61.28350       0.25817       4.90000       5.62000       2.48682     -35.30000 
   8190.50000      10.04003      61.28350       0.27969       4.70000       5.19000       2.48146     -35.30000 
   8190.00000      10.05551      61.28350       0.29842       4.50000       4.76000       2.47785     -35.30000 
   8189.50000      10.07098      61.28350       0.31214       3.80000       4.19000       2.47744     -35.30000 
   8189.00000      10.07353      53.12208       0.32732       3.10000       3.62000       2.47228     -35.30000 
   8188.50000      10.05805      53.12208       0.34451       3.00000       3.31500       2.46052     -35.30000 
   8188.00000      10.09461      53.12208       0.35487       2.90000       3.01000       2.44667     -35.30000 
   8187.50000      10.18752      53.12208       0.35783       2.80000       2.83000       2.43056     -34.90000 
   8187.00000      10.33073      53.12208       0.36429       2.70000       2.65000       2.42230     -34.50000 
   8186.50000      10.51645      53.12208       0.37368       2.70000       2.67500       2.42065     -34.50000 
   8186.00000      10.65237      61.28350       0.37225       2.70000       2.70000       2.42711     -34.50000 
   8185.50000      10.75559      61.28350       0.36371       2.70000       2.77500       2.43888     -34.50000 
   8185.00000      10.77280      61.28350       0.35839       2.70000       2.85000       2.45175     -34.50000 
   8184.50000      10.74699      61.28350       0.35468       2.75000       3.01500       2.46517     -34.90000 
   8184.00000      10.72120      61.28350       0.35836       2.80000       3.18000       2.46534     -35.30000 
   8183.50000      10.69540      61.28350       0.36479       2.85000       3.18000       2.46059     -35.30000 
   8183.00000      10.63695      61.28350       0.36927       2.90000       3.18000       2.45699     -35.30000 
   8182.50000      10.56985      53.12208       0.37323       3.00000       3.27000       2.45369     -34.90000 
   8182.00000      10.52918      53.12208       0.37391       3.10000       3.36000       2.44897     -34.50000 
