~VERSION INFORMATION 
VERS  .    2.0                                     :CWLS Log ASCII Standard - VERSION 2.0
WRAP  .    NO                                      :One Line per Depth step
#--------------------------------------------------
~WELL INFORMATION 
#MNEM           .UNIT                      DATA            :DESCRIPTION
#----            ------          --------------            -----------------------------
STRT            .ft                   7364.0000            :START DEPTH
STOP            .ft                   8538.0000            :STOP DEPTH
STEP            .ft                         0.5            :STEP
NULL            .                     -999.0000            :NULL VALUE
COMP            .                         PDVSA            :COMPANY
WELL            .                        Well-2            :WELL NAME
FLD             .                       GUAFITA            :FIELD NAME
SRVC            .                       UNKNOWN            :SERVICE COMPANY
DATE            .                       UNKNOWN            :LOG DATE(Composite Date for Composite LAP) (MM/DD/YYYY)
CNTY            .                       UNKNOWN            :COUNTY
STAT            .                       BARINAS            :STATE or PROVINCE
PROV            .                       BARINAS            :STATE or PROVINCE
CTRY            .                     VENEZUELA            :COUNTRY
API             .                                          :API NUMBER
UWI             .                                          :UNIQUE WELL ID
LOC             .                       GUAFITA            :FIELD LOCATION
#--------------------------------------------------
~CURVE INFORMATION
#MNEM           .UNIT                  API CODE            :DESCRIPTION
#----            ------          --------------            -----------------------------
DEPTH           .ft                                        : Depth Index
RHOB            .g/cm3                                     : Density
DTSM            .us/ft                                     : Delta-T Shear
DTCO            .us/ft                                     : Delta-T Compressional
VSH             .v/v                                       : Shale Volume
SW              .v/v                                       : Water Saturation
NPHI            .fraction                                  : Neutron Porosity
#--------------------------------------------------
~PARAMETER INFORMATION
#MNEM           .UNIT                  VALUE               :DESCRIPTION
#----           -------          --------------            -----------------------------
EKB             .ft                   487.00000            :Elevation of Depth Reference (Kelly Bushing)
EGL             .ft                   457.00000            :Elevation of Ground Level
#-------------------------------------------------------------
#  DEPTH             RHOB           DTSM           DTCO             VSH             SW              PHI
~ASCII
# ...
 7964.0000          2.4486        165.8480         87.5584       -999.0000       -999.0000       -999.0000
 7964.5000          2.4659        165.6397         86.3114       -999.0000       -999.0000       -999.0000
 7964.9995          2.5019        165.5097         85.4454       -999.0000       -999.0000       -999.0000
 7965.5000          2.5317        166.7245         85.8084       -999.0000       -999.0000       -999.0000
 7966.0000          2.5467        163.6497         80.0133       -999.0000       -999.0000       -999.0000
 7966.5000          2.5441        160.4077         79.9678       -999.0000       -999.0000       -999.0000
 7967.0005          2.5250        159.8537         80.2725       -999.0000       -999.0000       -999.0000
 7967.5000          2.5049        153.9795         80.4833       -999.0000       -999.0000       -999.0000
 7968.0000          2.5023        151.4318         80.4300       -999.0000       -999.0000       -999.0000
 7968.5000          2.5114        147.8102         81.4031       -999.0000       -999.0000       -999.0000
 7968.9995          2.5034        151.1345         82.1567       -999.0000       -999.0000       -999.0000
 7969.5000          2.4706        155.8808         82.6177       -999.0000       -999.0000       -999.0000
 7970.0000          2.4405        154.2857         83.1822       -999.0000       -999.0000       -999.0000
 7970.5000          2.4338        160.3018         84.0505       -999.0000       -999.0000       -999.0000
 7971.0005          2.4490        164.2163         85.5523       -999.0000       -999.0000       -999.0000
 7971.5000          2.4661        166.4039         86.6566       -999.0000       -999.0000       -999.0000
 7972.0000          2.4671        167.9813         89.7906       -999.0000       -999.0000       -999.0000
 7972.5000          2.4463        168.4466         91.6686       -999.0000       -999.0000       -999.0000
 7972.9995          2.4066        168.8386         92.3867       -999.0000       -999.0000       -999.0000
 7973.5000          2.3666        169.6788         91.9477       -999.0000       -999.0000       -999.0000
 7974.0000          2.3572        171.1121         91.2740       -999.0000       -999.0000       -999.0000
 7974.5000          2.3815        173.1258         90.8198       -999.0000       -999.0000       -999.0000
 7975.0005          2.4054        170.2686         91.4818       -999.0000       -999.0000       -999.0000
 7975.5000          2.4144        175.5884         88.6764       -999.0000       -999.0000       -999.0000
 7976.0000          2.4351        175.9863         89.6420       -999.0000       -999.0000       -999.0000
 7976.5000          2.4801        173.3036         88.7067       -999.0000       -999.0000       -999.0000
 7976.9995          2.5127        167.7606         88.3466       -999.0000       -999.0000       -999.0000
 7977.5000          2.5065        163.2533         88.5945       -999.0000       -999.0000       -999.0000
 7978.0000          2.4805        161.1136         88.0448       -999.0000       -999.0000       -999.0000
 7978.5000          2.4533        160.6249         87.8160       -999.0000       -999.0000       -999.0000
 7979.0005          2.4163        159.7881         87.1440       -999.0000       -999.0000       -999.0000
 7979.5000          2.3898        162.7636         85.8987       -999.0000       -999.0000       -999.0000
 7980.0000          2.4088        163.3347         85.7038       -999.0000       -999.0000       -999.0000
 7980.5000          2.4592        161.2533         84.1652       -999.0000       -999.0000       -999.0000
 7980.9995          2.4989        157.9770         82.9195       -999.0000       -999.0000       -999.0000
 7981.5000          2.5077        157.3135         82.9327       -999.0000       -999.0000       -999.0000
 7982.0000          2.5016        156.5147         83.9780       -999.0000       -999.0000       -999.0000
 7982.5000          2.4878        156.0798         85.0839       -999.0000       -999.0000       -999.0000
 7983.0005          2.4655        155.2335         84.5990       -999.0000       -999.0000       -999.0000
 7983.5000          2.4501        154.4706         85.5579       -999.0000       -999.0000       -999.0000
 7984.0000          2.4483        154.8817         82.8440       -999.0000       -999.0000       -999.0000
 7984.5000          2.4566        157.9086         82.8789       -999.0000       -999.0000       -999.0000
 7984.9995          2.4727        158.0370         81.8478       -999.0000       -999.0000       -999.0000
 7985.5000          2.4924        156.4726         81.9834       -999.0000       -999.0000       -999.0000
 7986.0000          2.5083        156.6093         81.8306       -999.0000       -999.0000       -999.0000
 7986.5000          2.5183        159.1379         81.6110       -999.0000       -999.0000       -999.0000
 7987.0005          2.5257        158.6291         81.6555       -999.0000       -999.0000       -999.0000
 7987.5000          2.5328        165.5671         82.2408       -999.0000       -999.0000       -999.0000
 7988.0000          2.5388        166.2665         82.0183       -999.0000       -999.0000       -999.0000
 7988.5000          2.5433        165.8482         81.9038       -999.0000       -999.0000       -999.0000
 7988.9995          2.5450        166.5751         82.1233       -999.0000       -999.0000       -999.0000
 7989.5000          2.5419        166.0871         82.3863       -999.0000       -999.0000       -999.0000
 7990.0000          2.5339        164.8960         82.5458       -999.0000       -999.0000       -999.0000
 7990.5000          2.5250        163.5816         82.8481       -999.0000       -999.0000       -999.0000
 7991.0005          2.5233        162.5827         85.5145       -999.0000       -999.0000       -999.0000
 7991.5000          2.5362        162.9651         85.8925       -999.0000       -999.0000       -999.0000
 7992.0000          2.5598        160.9313         82.9349       -999.0000       -999.0000       -999.0000
 7992.5000          2.5752        160.1318         82.9747       -999.0000       -999.0000       -999.0000
 7992.9995          2.5680        158.5785         82.1393       -999.0000       -999.0000       -999.0000
 7993.5000          2.5478        158.3264         81.8838       -999.0000       -999.0000       -999.0000
 7994.0000          2.5258        158.8451         81.4580       -999.0000       -999.0000       -999.0000
 7994.5000          2.5058        160.5750         83.5682       -999.0000       -999.0000       -999.0000
 7995.0005          2.4957        166.4806         83.7316       -999.0000       -999.0000       -999.0000
 7995.5000          2.5046        168.7630         84.1028       -999.0000       -999.0000       -999.0000
 7996.0000          2.5312        172.8669         85.6846       -999.0000       -999.0000       -999.0000
 7996.5000          2.5572        180.6429         86.6124       -999.0000       -999.0000       -999.0000
 7996.9995          2.5631        184.2611         89.4930       -999.0000       -999.0000       -999.0000
 7997.5000          2.5517        188.0596         89.5322       -999.0000       -999.0000       -999.0000
 7998.0000          2.5345        189.8481         90.5439       -999.0000       -999.0000       -999.0000
 7998.5000          2.5239        188.6790         91.5833       -999.0000       -999.0000       -999.0000
 7999.0005          2.5209        187.5183         90.4613       -999.0000       -999.0000       -999.0000
 7999.5000          2.5191        184.6982         90.4254       -999.0000       -999.0000       -999.0000
 8000.0000          2.5129        183.0563         90.1293       -999.0000       -999.0000       -999.0000
 8000.5000          2.5006        179.1931         90.1988       -999.0000       -999.0000       -999.0000
 8000.9995          2.4923        176.9316         90.0781       -999.0000       -999.0000       -999.0000
