~VERSION INFORMATION 
VERS  .    2.0                                     :CWLS Log ASCII Standard - VERSION 2.0
WRAP  .    NO                                      :One Line per Depth step
#--------------------------------------------------
~WELL INFORMATION 
#MNEM           .UNIT                      DATA            :DESCRIPTION
#----            ------          --------------            -----------------------------
STRT            .ft                   6530.5000            :START DEPTH
STOP            .ft                   7560.0000            :STOP DEPTH
STEP            .ft                         0.5            :STEP
NULL            .                     -999.0000            :NULL VALUE
COMP            .                         PDVSA            :COMPANY
WELL            .                        Well-1            :WELL NAME
FLD             .                       GUAFITA            :FIELD NAME
SRVC            .                       UNKNOWN            :SERVICE COMPANY
DATE            .                       UNKNOWN            :LOG DATE(Composite Date for Composite LAP) (MM/DD/YYYY)
CNTY            .                       UNKNOWN            :COUNTY
STAT            .                       BARINAS            :STATE or PROVINCE
PROV            .                       BARINAS            :STATE or PROVINCE
CTRY            .                     VENEZUELA            :COUNTRY
API             .                                          :API NUMBER
UWI             .                                          :UNIQUE WELL ID
LOC             .                       GUAFITA            :FIELD LOCATION
#--------------------------------------------------
~CURVE INFORMATION
#MNEM           .UNIT                  API CODE            :DESCRIPTION
#----           -------          --------------            -----------------------------
DEPTH           .ft                                        : Depth Index
RHOB            .g/cm3                                     : Density
DTSM            .us/ft                                     : Delta-T Shear
DTCO            .us/ft                                     : Delta-T Compressional
SW              .v/v                                       : Water Saturation
NPHI            .fraction                                  : Neutron Porosity
VSH             .v/v                                       : Shale Volume
#--------------------------------------------------
~PARAMETER INFORMATION
#MNEM           .UNIT                  VALUE               :DESCRIPTION
#----           -------          --------------            -----------------------------
EKB             .ft                   481.00000            :Elevation of Depth Reference (Kelly Bushing)
EGL             .ft                   451.00000            :Elevation of Ground Level
#-------------------------------------------------------------
#  DEPTH             RHOB           DTSM           DTCO             SW              PHI            VSH
~ASCII
# ...
 7256.5000          2.1670        160.5938        100.4888          0.5987          0.2627          0.1388
 7256.7505       -999.0000        160.6872        100.6756       -999.0000       -999.0000       -999.0000
 7256.9995          2.1580       -999.0000       -999.0000          0.7160          0.2785          0.0750
 7257.0000       -999.0000        160.3284        100.6126       -999.0000       -999.0000       -999.0000
 7257.2495       -999.0000        159.7090        100.4017       -999.0000       -999.0000       -999.0000
 7257.5000          2.1580        159.1334        100.1448          0.7441          0.2829          0.0634
 7257.7505       -999.0000        158.8904         99.9299       -999.0000       -999.0000       -999.0000
 7258.0000          2.1600        159.1303         99.8180          0.6581          0.2791          0.0938
 7258.2495       -999.0000        159.8410         99.8428       -999.0000       -999.0000       -999.0000
 7258.5000          2.1400        160.8362        100.0001          0.5794          0.2789          0.1225
 7258.7505       -999.0000        161.8128        100.2250       -999.0000       -999.0000       -999.0000
 7259.0000       -999.0000        162.4505        100.3863       -999.0000       -999.0000       -999.0000
 7259.0005          2.1310       -999.0000       -999.0000          0.5404          0.2719          0.1422
 7259.2495       -999.0000        162.4803        100.2934       -999.0000       -999.0000       -999.0000
 7259.5000          2.1470        161.7517         99.7632          0.5067          0.2582          0.1666
 7259.7505       -999.0000        160.3259         98.6857       -999.0000       -999.0000       -999.0000
 7260.0000          2.1690        158.4615         97.0964          0.5140          0.2546          0.1616
 7260.2495       -999.0000        156.5443         95.2000       -999.0000       -999.0000       -999.0000
 7260.5000          2.1800        155.0965         93.3128          0.6199          0.2552          0.1083
 7260.7505       -999.0000        154.5781         91.7962       -999.0000       -999.0000       -999.0000
 7260.9995          2.2020       -999.0000       -999.0000          0.7163          0.2563          0.0724
 7261.0000       -999.0000        155.2448         90.8937       -999.0000       -999.0000       -999.0000
 7261.2495       -999.0000        157.1833         90.6925       -999.0000       -999.0000       -999.0000
 7261.5000          2.1940        160.0442         91.1022          0.7526          0.2622          0.0596
 7261.7505       -999.0000        163.1499         91.8730       -999.0000       -999.0000       -999.0000
 7262.0000          2.1950        165.7943         92.7780          0.7937          0.2767          0.0411
 7262.2495       -999.0000        167.2267         93.6262       -999.0000       -999.0000       -999.0000
 7262.5000          2.1990        167.1881         94.3278          0.8019          0.2879          0.0295
 7262.7505       -999.0000        166.0129         94.9062       -999.0000       -999.0000       -999.0000
 7263.0000       -999.0000        164.2799         95.3943       -999.0000       -999.0000       -999.0000
 7263.0005          2.1990       -999.0000       -999.0000          0.8010          0.2966          0.0226
 7263.2495       -999.0000        162.8293         95.8318       -999.0000       -999.0000       -999.0000
 7263.5000          2.1790        162.2532         96.2238          0.7817          0.2984          0.0272
 7263.7505       -999.0000        162.6520         96.5453       -999.0000       -999.0000       -999.0000
 7264.0000          2.1720        163.9081         96.7705          0.8064          0.3121          0.0133
 7264.2495       -999.0000        165.5974         96.8946       -999.0000       -999.0000       -999.0000
 7264.5000          2.1710        167.2400         96.9474          0.7705          0.3180          0.0191
 7264.7505       -999.0000        168.5606         96.9732       -999.0000       -999.0000       -999.0000
 7264.9995          2.1440       -999.0000       -999.0000          0.6867          0.3268          0.0399
 7265.0000       -999.0000        169.3448         97.0145       -999.0000       -999.0000       -999.0000
 7265.2495       -999.0000        169.6255         97.0861       -999.0000       -999.0000       -999.0000
 7265.5000          2.1140        169.6062         97.1657          0.6695          0.3356          0.0431
 7265.7505       -999.0000        169.4252         97.2124       -999.0000       -999.0000       -999.0000
 7266.0000          2.0830        169.2362         97.1986          0.6085          0.3312          0.0680
 7266.2495       -999.0000        169.0750         97.1303       -999.0000       -999.0000       -999.0000
 7266.5000          2.0850        168.8927         97.0564          0.5243          0.3088          0.1104
 7266.7505       -999.0000        168.7790         97.0535       -999.0000       -999.0000       -999.0000
 7267.0000       -999.0000        168.8279         97.1819       -999.0000       -999.0000       -999.0000
 7267.0005          2.0950       -999.0000       -999.0000          0.4775          0.2752          0.1428
 7267.2495       -999.0000        169.1237         97.4580       -999.0000       -999.0000       -999.0000
 7267.5000          2.1760        169.7710         97.8429          0.5063          0.2682          0.1361
 7267.7505       -999.0000        170.7103         98.2471       -999.0000       -999.0000       -999.0000
 7268.0000          2.1350        171.8679         98.5663          0.5507          0.2917          0.1164
 7268.2495       -999.0000        173.1786         98.7061       -999.0000       -999.0000       -999.0000
 7268.5000          2.0750        174.4702         98.6048          0.5712          0.3172          0.0991
 7268.7505       -999.0000        175.5306         98.2438       -999.0000       -999.0000       -999.0000
 7268.9995          2.0410       -999.0000       -999.0000          0.6160          0.3424          0.0643
 7269.0000       -999.0000        176.0876         97.6343       -999.0000       -999.0000       -999.0000
 7269.2495       -999.0000        175.9074         96.8213       -999.0000       -999.0000       -999.0000
 7269.5000          2.0450        174.9584         95.8652          0.6296          0.3480          0.0533
 7269.7505       -999.0000        173.4888         94.8354       -999.0000       -999.0000       -999.0000
 7270.0000          2.0630        171.9458         93.8158          0.5876          0.3327          0.0741
 7270.2495       -999.0000        170.7966         92.8837       -999.0000       -999.0000       -999.0000
 7270.5000          2.0990        170.3416         92.1085          0.5517          0.2914          0.0996
 7270.7505       -999.0000        170.5493         91.5426       -999.0000       -999.0000       -999.0000
 7271.0000       -999.0000        171.0984         91.2089       -999.0000       -999.0000       -999.0000
 7271.0005          2.1830       -999.0000       -999.0000          0.5298          0.2465          0.1182
 7271.2495       -999.0000        171.5414         91.1055       -999.0000       -999.0000       -999.0000
 7271.5000          2.2560        171.4929         91.2135          0.4954          0.2183          0.1396
 7271.7505       -999.0000        170.8208         91.5055       -999.0000       -999.0000       -999.0000
 7272.0000          2.2500        169.7731         91.9554          0.4487          0.2145          0.1640
 7272.2495       -999.0000        168.8843         92.5466       -999.0000       -999.0000       -999.0000
 7272.5000          2.2310        168.7942         93.2623          0.4398          0.2224          0.1686
 7272.7505       -999.0000        170.0748         94.0747       -999.0000       -999.0000       -999.0000
 7272.9995          2.2190       -999.0000       -999.0000          0.4927          0.2408          0.1396
