~Version Information
VERS  .          2.0                              :CWLS Log Ascii Standard - Version 2.0
WRAP  .          NO                               :One line per depth step
~Well Information Block
#MNEM.UNIT       Data Type                        Information
#---------       ---------                        -------------------------------
STRT  .F         9346.00000                       :START DEPTH
STOP  .F         2030.00000                       :STOP DEPTH
STEP  .F         -0.50000                         :INCREMENT
NULL  .          -999.25                          :NULL DATA VALUE
COMP  .          ************                     :COMPANY
WELL  .          ********                         :WELL
FLD   .          ******                           :FIELD
LOC   .                                           :LOCATION
PROV  .                                           :PROVINCE
STAT  .                                           :STATE
CNTY  .                                           :COUNTY
CTRY  .          ************                     :COUNTRY
DATE  .                                           :DATE
UWI   .          ********                         :UNIQUE WELL UWI
LIC   .                                           :LICENSE NUMBER
API   .                                           :API NUMBER
SRVC  .          *****                            :SERVICE COMPANY
~Parameter Information Block
#MNEM.UNIT       Value                            Description
#---------       ---------                        -------------
~Curve Information Block
#MNEM.UNIT       API Code            Curve    Description
#--------        --------------      -----    -------------------
DEPT  .F                             :0       Index
CAL   .                              :1       Calibration Curve             
ASN   .OHMM                          :2       Amplified Short Normal        
I6FR  .OHMM                          :3       I6FR - Deep Induction Log - PDVSA
DPHI  .V/V                           :4       Density Porosity              
GR    .GAPI                          :5       Gamma Ray                     
NPHI  .V/V                           :6       Thermal Neutron Porosity (original Ratio Method) in Selected Lithology
SP    .MV                            :7       Spontaneous Potential         
~Ascii Data Section
# ...
   8742.50000      12.15887       7.70000       6.20000       0.13900      87.39079       0.37622    -999.25000 
   8742.00000      12.17387       7.50000       5.90000       0.13900      87.25850       0.37323    -999.25000 
   8741.50000      12.19183       7.40000       5.80000       0.13752      85.14540       0.37673    -999.25000 
   8741.00000      12.21183       7.30000       5.70000       0.13502      85.06319       0.38473    -999.25000 
   8740.50000      12.23183       7.20000       5.60000       0.13282      88.54786       0.39244    -999.25000 
   8740.00000      12.25183       7.10000       5.50000       0.13082      90.06886       0.39994    -999.25000 
   8739.50000      12.23633       6.90000       5.30000       0.13207      87.51309       0.40123    -999.25000 
   8739.00000      12.19633       6.70000       5.10000       0.13557      88.41462       0.39823    -999.25000 
   8738.50000      12.18000       6.60000       5.00000       0.13996      97.79145       0.40233    -999.25000 
   8738.00000      12.18000       6.50000       4.90000       0.14496     104.60103       0.41132    -999.25000 
   8737.50000      12.18000       6.30000       4.60000       0.14109     103.81513       0.42150    -999.25000 
   8737.00000      12.18000       6.10000       4.30000       0.13109     102.77420       0.43250    -999.25000 
   8736.50000      12.19181       6.10000       4.10000       0.12789     100.80940       0.44143    -999.25000 
   8736.00000      12.21181       6.10000       3.90000       0.12939      99.09375       0.44893    -999.25000 
   8735.50000      12.19933       6.20000       3.90000       0.13089      98.50430       0.43487    -999.25000 
   8735.00000      12.16433       6.30000       3.90000       0.13239      97.69631       0.40587    -999.25000 
   8734.50000      12.10275       7.35000       4.00000       0.12650      95.58400       0.36624    -999.25000 
   8734.00000      12.02275       8.40000       4.10000       0.11550      94.28510       0.31924    -999.25000 
   8733.50000      11.99000       8.80000       4.50000       0.11868      99.73804       0.29291    -999.25000 
   8733.00000      11.99000       9.20000       4.90000       0.13168     104.61904       0.28091    -999.25000 
   8732.50000      11.99000      11.20000       6.60000       0.15944     102.06428       0.27541    -999.25000 
   8732.00000      11.99000      13.20000       8.30000       0.19744      99.49744       0.27441    -999.25000 
   8731.50000      11.97819      15.05000       9.05000       0.22452      96.60168       0.27607    -999.25000 
   8731.00000      11.95819      16.90000       9.80000       0.24402      93.70302       0.27957    -999.25000 
   8730.50000      11.95000      19.60000      12.10000       0.26086      78.30501       0.28070    -999.25000 
   8730.00000      11.95000      22.30000      14.40000       0.27586      62.87851       0.28020    -999.25000 
   8729.50000      11.93819      23.60000      18.15000       0.28732      58.75705       0.27882    -999.25000 
   8729.00000      11.91819      24.90000      21.90000       0.29632      55.07252       0.27682    -999.25000 
   8728.50000      11.91000      25.65000      25.85000       0.30797      52.80020       0.27364    -999.25000 
   8728.00000      11.91000      26.40000      29.80000       0.32147      50.63869       0.26964    -999.25000 
   8727.50000      11.91000      29.00000      46.50000       0.32641      47.99867       0.26623    -999.25000 
   8727.00000      11.91000      31.60000      63.20000       0.32541      45.29688       0.26323    -999.25000 
   8726.50000      11.91000      32.65000      65.15000       0.32264      42.05276       0.26023    -999.25000 
   8726.00000      11.91000      33.70000      67.10000       0.31864      38.71249       0.25723    -999.25000 
   8725.50000      11.92179      35.30000      69.10000       0.31317      40.50737       0.25482    -999.25000 
   8725.00000      11.94179      36.90000      71.10000       0.30667      43.45276       0.25282    -999.25000 
   8724.50000      11.92642      40.65000      71.10000       0.29869      45.01996       0.25406    -999.25000 
   8724.00000      11.88642      44.40000      71.10000       0.28969      46.19816       0.25756    -999.25000 
   8723.50000      11.88179      45.10000      71.10000       0.28187      45.62303       0.25782    -999.25000 
   8723.00000      11.90179      45.80000      71.10000       0.27487      44.44478       0.25582    -999.25000 
   8722.50000      11.91000      45.90000      70.10000       0.27436      44.37799       0.25353    -999.25000 
   8722.00000      11.91000      46.00000      69.10000       0.27836      44.77076       0.25103    -999.25000 
   8721.50000      11.91000      46.00000      68.10000       0.27882      43.44985       0.24735    -999.25000 
   8721.00000      11.91000      46.00000      67.10000       0.27682      41.28957       0.24285    -999.25000 
   8720.50000      11.91000      45.80000      66.14999       0.27924      41.24800       0.23953    -999.25000 
   8720.00000      11.91000      45.60000      65.20000       0.28474      42.42712       0.23703    -999.25000 
   8719.50000      11.91000      45.30000      62.20000       0.28081      43.13518       0.23512    -999.25000 
   8719.00000      11.91000      45.00000      59.20000       0.27031      43.52805       0.23362    -999.25000 
   8718.50000      11.91000      44.50000      58.25000       0.27072      43.47914       0.23153    -999.25000 
   8718.00000      11.91000      44.00000      57.30000       0.27872      43.08629       0.22903    -999.25000 
   8717.50000      11.92179      43.30000      57.30000       0.28672      43.82945       0.22771    -999.25000 
   8717.00000      11.94179      42.60000      57.30000       0.29472      45.59724       0.22721    -999.25000 
   8716.50000      11.93821      42.10000      57.30000       0.29682      46.11554       0.22700    -999.25000 
   8716.00000      11.91821      41.60000      57.30000       0.29482      45.32989       0.22700    -999.25000 
   8715.50000      11.91000      41.05000      59.25000       0.29046      44.54417       0.23142    -999.25000 
   8715.00000      11.91000      40.50000      61.20000       0.28447      43.75854       0.23892    -999.25000 
   8714.50000      11.89823      39.80000      62.20000       0.27553      43.30000       0.24553    -999.25000 
   8714.00000      11.87823      39.10000      63.20000       0.26453      43.30000       0.25153    -999.25000 
   8713.50000      11.87000      38.20000      60.25000       0.25441      42.92641       0.24635    -999.25000 
   8713.00000      11.87000      37.30000      57.30000       0.24491      41.94417       0.23335    -999.25000 
   8712.50000      11.86411      35.70000      53.25000       0.23482      42.11064       0.23359    -999.25000 
   8712.00000      11.85412      34.10000      49.20000       0.22432      44.46809       0.24309    -999.25000 
   8711.50000      11.84412      32.55000      42.55000       0.22118      47.05112       0.24994    -999.25000 
   8711.00000      11.83412      31.00000      35.90000       0.22318      50.14540       0.25494    -999.25000 
   8710.50000      11.83000      29.60000      33.45000       0.22989      52.13388       0.25788    -999.25000 
   8710.00000      11.83000      28.20000      31.00000       0.23989      51.15154       0.25938    -999.25000 
   8709.50000      11.83000      27.60000      28.30000       0.24665      51.18301       0.25823    -999.25000 
   8709.00000      11.83000      27.00000      25.60000       0.25115      54.52311       0.25523    -999.25000 
   8708.50000      11.83000      26.80000      26.40000       0.24741      56.65548       0.25547    -999.25000 
   8708.00000      11.83000      26.60000      27.20000       0.23791      53.90420       0.25797    -999.25000 
   8707.50000      11.84177      26.30000      29.70000       0.22841      51.79141       0.26341    -999.25000 
