~Version Information
VERS  .          2.0                              :CWLS Log Ascii Standard - Version 2.0
WRAP  .          NO                               :One line per depth step
~Well Information Block
#MNEM.UNIT       Data Type                        Information
#---------       ---------                        -------------------------------
STRT  .F         9346.00000                       :START DEPTH
STOP  .F         2030.00000                       :STOP DEPTH
STEP  .F         -0.50000                         :INCREMENT
NULL  .          -999.25                          :NULL DATA VALUE
COMP  .          ************                     :COMPANY
WELL  .          ********                         :WELL
FLD   .          ******                           :FIELD
LOC   .                                           :LOCATION
PROV  .                                           :PROVINCE
STAT  .                                           :STATE
CNTY  .                                           :COUNTY
CTRY  .          ************                     :COUNTRY
DATE  .                                           :DATE
UWI   .          ********                         :UNIQUE WELL UWI
LIC   .                                           :LICENSE NUMBER
API   .                                           :API NUMBER
SRVC  .          *****                            :SERVICE COMPANY
~Parameter Information Block
#MNEM.UNIT       Value                            Description
#---------       ---------                        -------------
~Curve Information Block
#MNEM.UNIT       API Code            Curve    Description
#--------        --------------      -----    -------------------
DEPT  .F                             :0       Index
CAL   .                              :1       Calibration Curve             
ASN   .OHMM                          :2       Amplified Short Normal        
I6FR  .OHMM                          :3       I6FR - Deep Induction Log - PDVSA
DPHI  .V/V                           :4       Density Porosity              
GR    .GAPI                          :5       Gamma Ray                     
NPHI  .V/V                           :6       Thermal Neutron Porosity (original Ratio Method) in Selected Lithology
SP    .MV                            :7       Spontaneous Potential         
~Ascii Data Section
# ...
   8955.50000      12.01000      14.35000      10.15000       0.11305      73.59337       0.22962    -999.25000 
   8955.00000      12.01000      15.30000      10.90000       0.09505      70.01510       0.19612    -999.25000 
   8954.50000      11.99783      16.20000      12.25000       0.11537      66.48857       0.18148    -999.25000 
   8954.00000      11.97783      17.10000      13.60000       0.16037      62.75418       0.17898    -999.25000 
   8953.50000      11.97000      18.25000      15.75000       0.19412      58.88480       0.19929    -999.25000 
   8953.00000      11.97000      19.40000      17.90000       0.22062      55.87265       0.23429    -999.25000 
   8952.50000      11.98217      21.60000      21.50000       0.23952      53.51902       0.25256    -999.25000 
   8952.00000      12.00217      23.80000      25.10000       0.25352      51.88572       0.26006    -999.25000 
   8951.50000      12.01000      25.70000      26.50000       0.26143      50.90612       0.26574    -999.25000 
   8951.00000      12.01000      27.60000      27.90000       0.26543      50.02122       0.27024    -999.25000 
   8950.50000      11.99783      28.65000      32.85000       0.26852      49.23755       0.27474    -999.25000 
   8950.00000      11.97783      29.70000      37.80000       0.27102      47.17755       0.27924    -999.25000 
   8949.50000      11.95783      31.80000      41.85000       0.27413      43.50408       0.28465    -999.25000 
   8949.00000      11.93783      33.90000      45.90000       0.27763      40.98653       0.29065    -999.25000 
   8948.50000      11.93000      35.40000      61.95000       0.27596      40.20286       0.29939    -999.25000 
   8948.00000      11.93000      36.90000      78.00000       0.27096      38.92776       0.30989    -999.25000 
   8947.50000      11.91783      38.85000      88.95000       0.26109      36.77265       0.31491    -999.25000 
   8947.00000      11.89783      40.80000      99.90000       0.24809      35.54816       0.31641    -999.25000 
   8946.50000      11.90214      41.80000     118.94995       0.23663      36.33231       0.31184    -999.25000 
   8946.00000      11.92212      42.80000     137.99989       0.22613      37.22572       0.30335    -999.25000 
   8945.50000      11.94213      43.80000     150.99989       0.22715      38.40122       0.29788    -999.25000 
   8945.00000      11.96213      44.80000     163.99989       0.23565      39.99184       0.29438    -999.25000 
   8944.50000      11.95788      45.45000     155.99989       0.23991      42.93061       0.29270    -999.25000 
   8944.00000      11.93788      46.10000     147.99989       0.24141      45.51826       0.29220    -999.25000 
   8943.50000      11.93000      46.35000     132.94989       0.24533      46.64479       0.28897    -999.25000 
   8943.00000      11.93000      46.60000     117.89990       0.25083      47.83837       0.28397    -999.25000 
   8942.50000      11.91788      46.85000     107.89995       0.25391      49.40571       0.27988    -999.25000 
   8942.00000      11.89787      47.10000      97.90000       0.25541      50.61071       0.27638    -999.25000 
   8941.50000      11.89000      47.20000      96.90000       0.25691      48.89643       0.27894    -999.25000 
   8941.00000      11.89000      47.30000      95.90000       0.25841      47.01656       0.28544    -999.25000 
   8940.50000      11.89000      47.70000      97.90000       0.26082      42.89428       0.28982    -999.25000 
   8940.00000      11.89000      48.10000      99.90000       0.26382      38.96857       0.29282    -999.25000 
   8939.50000      11.89000      48.35000     102.89995       0.26379      41.31960       0.29158    -999.25000 
   8939.00000      11.89000      48.60000     105.89990       0.26179      43.67061       0.28758    -999.25000 
   8938.50000      11.90213      48.75000     106.89990       0.25433      42.92612       0.28752    -999.25000 
   8938.00000      11.92212      48.90000     107.89990       0.24333      42.14245       0.29002    -999.25000 
   8937.50000      11.93000      49.10000     107.89990       0.23415      41.35878       0.29373    -999.25000 
   8937.00000      11.93000      49.30000     107.89990       0.22615      40.57510       0.29823    -999.25000 
   8936.50000      11.93000      49.30000     106.89990       0.22664      42.98000       0.29939    -999.25000 
   8936.00000      11.93000      49.30000     105.89990       0.23264      45.72285       0.29839    -999.25000 
   8935.50000      11.93000      49.30000     102.89995       0.24137      45.76204       0.29497    -999.25000 
   8935.00000      11.93000      49.30000      99.90000       0.25187      45.37020       0.28997    -999.25000 
   8934.50000      11.93000      49.30000      98.90000       0.25721      44.33313       0.28830    -999.25000 
   8934.00000      11.93000      49.30000      97.90000       0.25921      43.15714       0.28880    -999.25000 
   8933.50000      11.93000      49.30000      94.95000       0.25636      43.20612       0.29355    -999.25000 
   8933.00000      11.93000      49.30000      92.00000       0.25036      43.59796       0.30105    -999.25000 
   8932.50000      11.94213      49.30000      89.95000       0.24467      42.03368       0.30339    -999.25000 
   8932.00000      11.96213      49.30000      87.90000       0.23917      39.78061       0.30239    -999.25000 
   8931.50000      11.97000      49.30000      87.90000       0.24276      38.07449       0.29897    -999.25000 
   8931.00000      11.97000      49.30000      87.90000       0.25226      36.60510       0.29397    -999.25000 
   8930.50000      11.97000      49.30000      87.90000       0.25479      36.87143       0.28988    -999.25000 
   8930.00000      11.97000      49.30000      87.90000       0.25279      38.04694       0.28638    -999.25000 
   8929.50000      11.97000      49.30000      90.95000       0.24958      41.48010       0.28742    -999.25000 
   8929.00000      11.97000      49.30000      94.00000       0.24557      46.32908       0.29142    -999.25000 
   8928.50000      11.97000      49.20000      96.95000       0.24279      47.97822       0.29148    -999.25000 
   8928.00000      11.97000      49.10000      99.90000       0.24079      47.24286       0.28898    -999.25000 
   8927.50000      11.97000      49.00000     102.89995       0.24030      47.00449       0.28557    -999.25000 
   8927.00000      11.97000      48.90000     105.89990       0.24080      47.20041       0.28157    -999.25000 
   8926.50000      11.97000      48.90000     112.89990       0.24039      47.85387       0.27939    -999.25000 
   8926.00000      11.97000      48.90000     119.89990       0.23939      48.98041       0.27839    -999.25000 
   8925.50000      11.98213      48.80000     124.89990       0.23567      48.74041       0.28285    -999.25000 
   8925.00000      12.00212      48.70000     129.89990       0.23017      46.83020       0.29085    -999.25000 
   8924.50000      12.01000      48.40000     136.94989       0.21709      44.90000       0.29915    -999.25000 
   8924.00000      12.01000      48.10000     143.99989       0.19909      42.94082       0.30765    -999.25000 
   8923.50000      12.01000      47.60000     132.94989       0.18291      40.98163       0.30221    -999.25000 
   8923.00000      12.01000      47.10000     121.89990       0.16791      39.02106       0.28771    -999.25000 
   8922.50000      11.98575      45.85000      99.94995       0.17018      38.14857       0.28503    -999.25000 
   8922.00000      11.94575      44.60000      78.00000       0.18368      39.52000       0.29003    -999.25000 
   8921.50000      11.93000      42.60000      67.00000       0.19658      40.33224       0.29655    -999.25000 
   8921.00000      11.93000      40.60000      56.00000       0.20908      39.74449       0.30405    -999.25000 
   8920.50000      11.93000      39.45000      53.40000       0.21400      38.82245       0.30670    -999.25000 
