~VERSION INFORMATION 
VERS  .    2.0                                     :CWLS Log ASCII Standard - VERSION 2.0
WRAP  .    NO                                      :One Line per Depth step
#--------------------------------------------------
~WELL INFORMATION 
#MNEM           .UNIT                      DATA            :DESCRIPTION
#----            ------          --------------            -----------------------------
STRT            .ft                   7364.0000            :START DEPTH
STOP            .ft                   8538.0000            :STOP DEPTH
STEP            .ft                         0.5            :STEP
NULL            .                     -999.0000            :NULL VALUE
COMP            .                         PDVSA            :COMPANY
WELL            .                        Well-2            :WELL NAME
FLD             .                       GUAFITA            :FIELD NAME
SRVC            .                       UNKNOWN            :SERVICE COMPANY
DATE            .                       UNKNOWN            :LOG DATE(Composite Date for Composite LAP) (MM/DD/YYYY)
CNTY            .                       UNKNOWN            :COUNTY
STAT            .                       BARINAS            :STATE or PROVINCE
PROV            .                       BARINAS            :STATE or PROVINCE
CTRY            .                     VENEZUELA            :COUNTRY
API             .                                          :API NUMBER
UWI             .                                          :UNIQUE WELL ID
LOC             .                       GUAFITA            :FIELD LOCATION
#--------------------------------------------------
~CURVE INFORMATION
#MNEM           .UNIT                  API CODE            :DESCRIPTION
#----            ------          --------------            -----------------------------
DEPTH           .ft                                        : Depth Index
RHOB            .g/cm3                                     : Density
DTSM            .us/ft                                     : Delta-T Shear
DTCO            .us/ft                                     : Delta-T Compressional
VSH             .v/v                                       : Shale Volume
SW              .v/v                                       : Water Saturation
NPHI            .fraction                                  : Neutron Porosity
#--------------------------------------------------
~PARAMETER INFORMATION
#MNEM           .UNIT                  VALUE               :DESCRIPTION
#----           -------          --------------            -----------------------------
EKB             .ft                   487.00000            :Elevation of Depth Reference (Kelly Bushing)
EGL             .ft                   457.00000            :Elevation of Ground Level
#-------------------------------------------------------------
#  DEPTH             RHOB           DTSM           DTCO             VSH             SW              PHI
~ASCII
# ...
 8489.0000          2.0870        224.5371        114.8035          0.3516          1.0000          0.2109
 8489.5000          2.0955        224.5371        114.8035          0.3365          1.0000          0.2147
 8490.0000          2.1405        224.5371        114.8035          0.3213          1.0000          0.2184
 8490.5000          2.2166        224.5371        114.8035       -999.0000       -999.0000       -999.0000
 8491.0000          2.2781        224.5371        114.8035       -999.0000       -999.0000       -999.0000
 8491.5000          2.2963        224.5371        114.8035       -999.0000       -999.0000       -999.0000
 8492.0000          2.2829        224.5371        114.8035       -999.0000       -999.0000       -999.0000
 8492.5000          2.2695        224.5371        114.8035       -999.0000       -999.0000       -999.0000
 8493.0000          2.2638        224.5371        114.8035       -999.0000       -999.0000       -999.0000
 8493.5000          2.2568        224.5371        114.8035       -999.0000       -999.0000       -999.0000
 8494.0000          2.2527        224.5371        114.8035       -999.0000       -999.0000       -999.0000
 8494.5000          2.2584        224.5371        114.8035       -999.0000       -999.0000       -999.0000
 8495.0000          2.2670        224.5371        114.8035       -999.0000       -999.0000       -999.0000
 8495.5000          2.2710        224.5371        114.8035       -999.0000       -999.0000       -999.0000
 8496.0000          2.2720        224.5371        114.8035       -999.0000       -999.0000       -999.0000
 8496.5000          2.2725        224.5371        114.8035       -999.0000       -999.0000       -999.0000
 8497.0000          2.2718        224.5371        114.8035       -999.0000       -999.0000       -999.0000
 8497.5000          2.2701        224.5371        114.8035       -999.0000       -999.0000       -999.0000
 8498.0000          2.2652        224.5371        114.8035       -999.0000       -999.0000       -999.0000
 8498.5000          2.2608        224.5371        114.8035       -999.0000       -999.0000       -999.0000
 8499.0000          2.2630        224.5371        114.8035       -999.0000       -999.0000       -999.0000
 8499.5000          2.2685        224.5371        114.8035       -999.0000       -999.0000       -999.0000
 8500.0000          2.2709        224.5371        114.8035       -999.0000       -999.0000       -999.0000
 8500.5000          2.2700        224.5371        114.8035       -999.0000       -999.0000       -999.0000
 8501.0000          2.2695        224.5371        114.8035       -999.0000       -999.0000       -999.0000
 8501.5000          2.2659        224.5371        114.8035       -999.0000       -999.0000       -999.0000
 8502.0000          2.2557        224.5371        114.8035       -999.0000       -999.0000       -999.0000
 8502.5000          2.2498        224.5371        114.8035       -999.0000       -999.0000       -999.0000
 8503.0000          2.2536        224.5371        114.8035       -999.0000       -999.0000       -999.0000
 8503.5000          2.2572        224.5371        114.8035       -999.0000       -999.0000       -999.0000
 8504.0000          2.2583        224.5371        114.8035       -999.0000       -999.0000       -999.0000
 8504.5000          2.2617        224.5371        114.8035       -999.0000       -999.0000       -999.0000
 8505.0000          2.2661        224.5371        114.8035       -999.0000       -999.0000       -999.0000
 8505.5000          2.2663        224.5371        114.8035       -999.0000       -999.0000       -999.0000
 8506.0000          2.2615        224.5371        114.8035       -999.0000       -999.0000       -999.0000
 8506.5000          2.2562        224.5371        114.8035       -999.0000       -999.0000       -999.0000
 8507.0000          2.2537        224.5371        114.8035       -999.0000       -999.0000       -999.0000
 8507.5000          2.2531        224.5371        114.8035       -999.0000       -999.0000       -999.0000
 8508.0000          2.2549        224.5371        114.8035       -999.0000       -999.0000       -999.0000
 8508.5000          2.2559        224.5371        114.8035       -999.0000       -999.0000       -999.0000
 8509.0000          2.2531        224.5371        114.8035       -999.0000       -999.0000       -999.0000
 8509.5000          2.2467        224.5371        114.8035       -999.0000       -999.0000       -999.0000
 8510.0000          2.2389        224.5371        114.8035       -999.0000       -999.0000       -999.0000
 8510.5000          2.2331        224.5371        114.8035       -999.0000       -999.0000       -999.0000
 8511.0000          2.2323        224.5371        114.8035       -999.0000       -999.0000       -999.0000
 8511.5000          2.2373        224.5371        114.8035       -999.0000       -999.0000       -999.0000
 8512.0000          2.2448        224.5371        114.8035       -999.0000       -999.0000       -999.0000
 8512.5000          2.2489        224.5371        114.8035       -999.0000       -999.0000       -999.0000
 8513.0000          2.2466        224.5371        114.8035       -999.0000       -999.0000       -999.0000
 8513.5000          2.2421        224.5371        114.8035       -999.0000       -999.0000       -999.0000
 8514.0000          2.2394        224.5371        114.8035       -999.0000       -999.0000       -999.0000
 8514.5000          2.2370        224.5371        114.8035       -999.0000       -999.0000       -999.0000
 8515.0000          2.2337        224.5371        114.8035       -999.0000       -999.0000       -999.0000
 8515.5000          2.2307        224.5371        114.8035       -999.0000       -999.0000       -999.0000
 8516.0000          2.2305        224.5371        114.8035       -999.0000       -999.0000       -999.0000
 8516.5000          2.2319        224.5371        114.8035       -999.0000       -999.0000       -999.0000
 8517.0000          2.2320        224.5371        114.8035       -999.0000       -999.0000       -999.0000
 8517.5000          2.2310        224.5371        114.8035       -999.0000       -999.0000       -999.0000
 8518.0000          2.2295        224.5371        114.8035       -999.0000       -999.0000       -999.0000
 8518.5000          2.2269        224.5371        114.8035       -999.0000       -999.0000       -999.0000
 8519.0000          2.2256        224.5371        114.8035       -999.0000       -999.0000       -999.0000
 8519.5000          2.2315        224.5371        114.8035       -999.0000       -999.0000       -999.0000
 8520.0000          2.2457        224.5371        114.8035       -999.0000       -999.0000       -999.0000
 8520.5000          2.2596        224.5371        114.8035       -999.0000       -999.0000       -999.0000
 8521.0000          2.2659        224.5371        114.8035       -999.0000       -999.0000       -999.0000
 8521.5000          2.2666        224.5371        114.8035       -999.0000       -999.0000       -999.0000
 8522.0000          2.2664        224.5371        114.8035       -999.0000       -999.0000       -999.0000
 8522.5000          2.2665        224.5371        114.8035       -999.0000       -999.0000       -999.0000
 8523.0000          2.2663        224.5371        114.8035       -999.0000       -999.0000       -999.0000
 8523.5000          2.2662        224.5371        114.8035       -999.0000       -999.0000       -999.0000
 8524.0000          2.2662        224.5371        114.8035       -999.0000       -999.0000       -999.0000
 8524.5000          2.2662        224.5371        114.8035       -999.0000       -999.0000       -999.0000
 8525.0000          2.2662        224.5371        114.8035       -999.0000       -999.0000       -999.0000
 8525.5000          2.2661        224.5371        114.8035       -999.0000       -999.0000       -999.0000
 8526.0000          2.2661        224.5371        114.8035       -999.0000       -999.0000       -999.0000
