~Version Information
VERS  .          2.0                              :CWLS Log Ascii Standard - Version 2.0
WRAP  .          NO                               :One line per depth step
~Well Information Block
#MNEM.UNIT       Data Type                        Information
#---------       ---------                        -------------------------------
STRT  .F         9850.00000                       :START DEPTH
STOP  .F         1453.50000                       :STOP DEPTH
STEP  .F         -0.50000                         :INCREMENT
NULL  .          -999.25                          :NULL DATA VALUE
COMP  .          ************                     :COMPANY
WELL  .          *******                          :WELL
FLD   .          ******                           :FIELD
LOC   .                                           :LOCATION
PROV  .                                           :PROVINCE
STAT  .                                           :STATE
CNTY  .                                           :COUNTY
CTRY  .                                           :COUNTRY
DATE  .                                           :DATE
UWI   .          ********                         :UNIQUE WELL UWI
LIC   .                                           :LICENSE NUMBER
API   .                                           :API NUMBER
SRVC  .          *****                            :SERVICE COMPANY
~Parameter Information Block
#MNEM.UNIT       Value                            Description
#---------       ---------                        -------------
~Curve Information Block
#MNEM.UNIT       API Code            Curve    Description
#--------        --------------      -----    -------------------
DEPT  .F                             :0       Index
CAL   .                              :1       Calibration Curve             
GR    .GAPI                          :2       Gamma Ray                     
NPHI  .V/V                           :3       Thermal Neutron Porosity (original Ratio Method) in Selected Lithology
RESD  .                              :4       Added by gf35 using QCTool    
RESS  .OHMM                          :5       Added by conefrem using QCTool 
RHOB  .G/C3                          :6       Bulk Density                  
SP    .MV                            :7       Spontaneous Potential         
~Ascii Data Section
   9850.00000    -999.25000    -999.25000    -999.25000    -999.25000    -999.25000    -999.25000    -999.25000 
   9849.50000    -999.25000    -999.25000    -999.25000    -999.25000    -999.25000    -999.25000    -999.25000 
   9849.00000    -999.25000      60.93750    -999.25000    -999.25000    -999.25000    -999.25000    -999.25000 
   9848.50000    -999.25000      60.93750    -999.25000    -999.25000    -999.25000    -999.25000    -999.25000 
   9848.00000    -999.25000      59.95066    -999.25000       5.60000       4.59000    -999.25000    -141.99989 
   9847.50000    -999.25000      59.95066    -999.25000       5.60000       4.59000    -999.25000    -141.99989 
   9847.00000    -999.25000      59.95066       0.17471       5.60000       4.59000       2.69350    -141.99989 
   9846.50000    -999.25000      59.95066       0.17100       5.60000       4.59000       2.69685    -141.99989 
   9846.00000    -999.25000      59.95066       0.16729       5.60000       4.59000       2.70020    -141.99989 
   9845.50000    -999.25000      87.18750       0.16598       5.55000       4.59000       2.70938    -141.59990 
   9845.00000    -999.25000      87.18750       0.16466       5.50000       4.59000       2.71858    -141.19991 
   9844.50000    -999.25000      87.18750       0.16048       5.55000       4.59000       2.73512    -140.79990 
   9844.00000    -999.25000      87.18750       0.15630       5.60000       4.59000       2.75167    -140.39990 
   9843.50000    -999.25000      59.95066       0.15856       5.60000       4.55000       2.76622    -139.99991 
   9843.00000    -999.25000      60.93750       0.16083       5.60000       4.51000       2.78077    -139.59990 
   9842.50000    -999.25000      64.67753       0.16406       5.55000       3.84500       2.77960    -139.19989 
   9842.00000    -999.25000      62.94914       0.16728       5.50000       3.18000       2.77840    -138.79990 
   9841.50000    -999.25000      61.28350       0.16932       5.45000       2.99000       2.72646    -138.39990 
   9841.00000    -999.25000      61.28350       0.17135       5.40000       2.80000       2.67441    -137.99989 
   9840.50000    -999.25000      61.28350       0.17171       5.05000       2.96000       2.61096    -137.99989 
   9840.00000       7.94000      61.28350       0.17207       4.70000       3.12000       2.54736    -137.99989 
   9839.50000       7.97983      62.94914       0.17434       5.45000       6.17000       2.50483    -138.39990 
   9839.00000       8.01983      64.67753       0.17661       6.20000       9.22000       2.46238    -138.79990 
   9838.50000       8.03992      60.93750       0.17841       7.95000      12.31000       2.46753    -139.59990 
   9838.00000       8.05992      59.95066       0.18020       9.70000      15.40000       2.47288    -140.39990 
   9837.50000       8.06000      59.95066       0.17902       8.25000      12.75000       2.55152    -141.59990 
   9837.00000       8.06000      87.18750       0.17782       6.80000      10.10000       2.63047    -142.79990 
   9836.50000       8.06498      59.95066       0.18115       5.80000       8.95500       2.68004    -141.59990 
   9836.00000       8.06998      59.95066       0.18450       4.80000       7.81000       2.72949    -140.39990 
   9835.50000       8.19422      64.67753       0.19331       4.05000       6.33000       2.75648    -139.19989 
   9835.00000       8.31922      62.94914       0.20216       3.30000       4.85000       2.78343    -137.99989 
   9834.50000       8.56347      62.94914       0.22859       3.00000       4.07500       2.74355    -137.99989 
   9834.00000       8.80847      61.28350       0.25514       2.70000       3.30000       2.70325    -137.99989 
   9833.50000       9.07831      61.28350       0.30225       2.70000       3.33000       2.63523    -138.39990 
   9833.00000       9.34831      61.28350       0.34949       2.70000       3.36000       2.56703    -138.79990 
   9832.50000       9.42950      62.94914       0.36488       2.75000       3.42500       2.52183    -139.59990 
   9832.00000       9.50950      62.94914       0.38007       2.80000       3.49000       2.47678    -140.39990 
   9831.50000       9.52491      64.67753       0.37564       2.90000       3.49000       2.49195    -141.19989 
   9831.00000       9.53991      64.67753       0.37110       3.00000       3.49000       2.50750    -141.99989 
   9830.50000       9.55983      64.67753       0.33893       3.05000       3.52000       2.53586    -141.99989 
   9830.00000       9.57983      64.67753       0.30652       3.10000       3.55000       2.56436    -141.99989 
   9829.50000       9.59487      64.67753       0.28906       3.35000       3.72000       2.58121    -143.19989 
   9829.00000       9.60987      62.94914       0.27172       3.60000       3.89000       2.59796    -144.39990 
   9828.50000       9.61000      62.94914       0.28082       3.85000       4.55500       2.59180    -144.59990 
   9828.00000       9.61000      64.67753       0.29015       4.10000       5.22000       2.58545    -144.79990 
   9827.50000       9.61496      64.67753       0.29877       5.40000       7.13500       2.57945    -145.39990 
   9827.00000       9.61996      64.67753       0.30738       6.70000       9.05000       2.57345    -145.99989 
   9826.50000       9.52083      64.67753       0.28112       7.40000      11.05500       2.57459    -145.59990 
   9826.00000       9.42083      64.67753       0.25457       8.10000      13.06000       2.57579    -145.19991 
   9825.50000       9.23197      62.94914       0.23021       7.00000      12.71000       2.57719    -145.59990 
   9825.00000       9.04198      62.94914       0.20581       5.90000      12.36000       2.57859    -145.99989 
   9824.50000       9.05484      62.94914       0.18698       5.35000       9.74500       2.57702    -145.99989 
   9824.00000       9.06984      62.94914       0.16820       4.80000       7.13000       2.57542    -145.99989 
   9823.50000       9.25802      62.94914       0.18694       4.10000       5.54500       2.57421    -146.39990 
   9823.00000       9.44802      62.94914       0.20608       3.40000       3.96000       2.57301    -146.79990 
   9822.50000       9.63802      62.94914       0.23835       3.35000       3.48500       2.56078    -146.79990 
   9822.00000       9.82802      64.67753       0.27076       3.30000       3.01000       2.54843    -146.79990 
   9821.50000       9.93885      64.67753       0.32163       3.35000       2.95500       2.54870    -146.39990 
   9821.00000      10.04885      64.67753       0.37269       3.40000       2.90000       2.54910    -145.99989 
   9820.50000      10.03519      64.67753       0.37488       3.40000       2.92500       2.56860    -146.39990 
   9820.00000      10.02019      64.67753       0.37655       3.40000       2.95000       2.58835    -146.79990 
   9819.50000      10.00025      64.67753       0.36004       3.40000       3.01000       2.59176    -146.79990 
   9819.00000       9.98025      64.67753       0.34330       3.40000       3.07000       2.59496    -146.79990 
   9818.50000       9.99975      64.67753       0.34616       3.40000       3.09500       2.60088    -146.39990 
   9818.00000      10.01975      64.67753       0.34927       3.40000       3.12000       2.60683    -145.99989 
   9817.50000      10.05950      64.67753       0.35001       3.40000       3.21000       2.60315    -145.99989 
   9817.00000      10.09950      64.67753       0.35073       3.40000       3.30000       2.59935    -145.99989 
   9816.50000      10.10988      64.67753       0.34755       3.40000       3.36000       2.61372    -145.99989 
   9816.00000      10.11987      62.94914       0.34432       3.40000       3.42000       2.62832    -145.99989 
   9815.50000      10.12493      62.94914       0.34204       3.40000       3.45500       2.61865    -145.59990 
   9815.00000      10.12993      62.94914       0.33977       3.40000       3.49000       2.60865    -145.19991 
