~VERSION INFORMATION 
VERS  .    2.0                                     :CWLS Log ASCII Standard - VERSION 2.0
WRAP  .    NO                                      :One Line per Depth step
#--------------------------------------------------
~WELL INFORMATION 
#MNEM           .UNIT                      DATA            :DESCRIPTION
#----            ------          --------------            -----------------------------
STRT            .ft                   6530.5000            :START DEPTH
STOP            .ft                   7560.0000            :STOP DEPTH
STEP            .ft                         0.5            :STEP
NULL            .                     -999.0000            :NULL VALUE
COMP            .                         PDVSA            :COMPANY
WELL            .                        Well-1            :WELL NAME
FLD             .                       GUAFITA            :FIELD NAME
SRVC            .                       UNKNOWN            :SERVICE COMPANY
DATE            .                       UNKNOWN            :LOG DATE(Composite Date for Composite LAP) (MM/DD/YYYY)
CNTY            .                       UNKNOWN            :COUNTY
STAT            .                       BARINAS            :STATE or PROVINCE
PROV            .                       BARINAS            :STATE or PROVINCE
CTRY            .                     VENEZUELA            :COUNTRY
API             .                                          :API NUMBER
UWI             .                                          :UNIQUE WELL ID
LOC             .                       GUAFITA            :FIELD LOCATION
#--------------------------------------------------
~CURVE INFORMATION
#MNEM           .UNIT                  API CODE            :DESCRIPTION
#----           -------          --------------            -----------------------------
DEPTH           .ft                                        : Depth Index
RHOB            .g/cm3                                     : Density
DTSM            .us/ft                                     : Delta-T Shear
DTCO            .us/ft                                     : Delta-T Compressional
SW              .v/v                                       : Water Saturation
NPHI            .fraction                                  : Neutron Porosity
VSH             .v/v                                       : Shale Volume
#--------------------------------------------------
~PARAMETER INFORMATION
#MNEM           .UNIT                  VALUE               :DESCRIPTION
#----           -------          --------------            -----------------------------
EKB             .ft                   481.00000            :Elevation of Depth Reference (Kelly Bushing)
EGL             .ft                   451.00000            :Elevation of Ground Level
#-------------------------------------------------------------
#  DEPTH             RHOB           DTSM           DTCO             SW              PHI            VSH
~ASCII
# ...
 7339.7505       -999.0000        170.3836         93.2195       -999.0000       -999.0000       -999.0000
 7340.0000          2.2690        166.0211         91.1633          0.1584          0.0699          0.7380
 7340.2495       -999.0000        161.7853         89.4243       -999.0000       -999.0000       -999.0000
 7340.5000          2.3240        158.0724         88.2107          0.1652          0.0679          0.7377
 7340.7505       -999.0000        154.9265         87.6252       -999.0000       -999.0000       -999.0000
 7340.9995          2.3160       -999.0000       -999.0000          0.1948          0.0962          0.6366
 7341.0000       -999.0000        152.4575         87.6246       -999.0000       -999.0000       -999.0000
 7341.2495       -999.0000        150.6985         88.0561       -999.0000       -999.0000       -999.0000
 7341.5000          2.2920        149.4030         88.7167          0.2338          0.1284          0.5091
 7341.7505       -999.0000        148.5988         89.3911       -999.0000       -999.0000       -999.0000
 7342.0000          2.2740        148.1465         89.9017          0.2959          0.1613          0.3726
 7342.2495       -999.0000        147.8770         90.1280       -999.0000       -999.0000       -999.0000
 7342.5000          2.2750        147.8085         90.0154          0.3369          0.1648          0.3219
 7342.7505       -999.0000        147.7823         89.5974       -999.0000       -999.0000       -999.0000
 7343.0000       -999.0000        147.7603         88.9758       -999.0000       -999.0000       -999.0000
 7343.0005          2.3170       -999.0000       -999.0000          0.3264          0.1410          0.3683
 7343.2495       -999.0000        147.7816         88.2852       -999.0000       -999.0000       -999.0000
 7343.5000          2.3470        147.9265         87.6543          0.3151          0.1168          0.4413
 7343.7505       -999.0000        148.3239         87.1532       -999.0000       -999.0000       -999.0000
 7344.0000          2.3730        149.0118         86.7851          0.3273          0.1079          0.4679
 7344.2495       -999.0000        149.9467         86.5078       -999.0000       -999.0000       -999.0000
 7344.5000          2.3860        150.8596         86.2606          0.3165          0.1026          0.4937
 7344.7505       -999.0000        151.5139         85.9977       -999.0000       -999.0000       -999.0000
 7344.9995          2.3650       -999.0000       -999.0000          0.3075          0.1042          0.4914
 7345.0000       -999.0000        151.7793         85.6926       -999.0000       -999.0000       -999.0000
 7345.2495       -999.0000        151.5858         85.3253       -999.0000       -999.0000       -999.0000
 7345.5000          2.3820        151.1677         84.8687          0.2973          0.1016          0.5056
 7345.7505       -999.0000        150.6638         84.2852       -999.0000       -999.0000       -999.0000
 7346.0000          2.3850        150.0902         83.5542          0.2711          0.0803          0.6178
 7346.2495       -999.0000        149.4427         82.7076       -999.0000       -999.0000       -999.0000
 7346.5000          2.3780        148.6845         81.8713          0.2844          0.0684          0.7033
 7346.7505       -999.0000        148.2368         81.2774       -999.0000       -999.0000       -999.0000
 7347.0000       -999.0000        148.9324         81.2171       -999.0000       -999.0000       -999.0000
 7347.0005          2.3430       -999.0000       -999.0000          0.2946          0.0586          0.7760
 7347.2495       -999.0000        151.8625         81.9576       -999.0000       -999.0000       -999.0000
 7347.5000          2.2930        157.6555         83.6294          0.3125          0.0770          0.7235
 7347.7505       -999.0000        165.9829         86.1492       -999.0000       -999.0000       -999.0000
 7348.0000          2.2300        175.6667         89.2139          0.3113          0.1104          0.6062
 7348.2495       -999.0000        184.8106         92.3786       -999.0000       -999.0000       -999.0000
 7348.5000          2.2120        192.0482         95.1879          0.3024          0.1467          0.4761
 7348.7505       -999.0000        196.8351         97.2948       -999.0000       -999.0000       -999.0000
 7348.9995          2.2120       -999.0000       -999.0000          0.2823          0.1627          0.4227
 7349.0000       -999.0000        199.3131         98.5537       -999.0000       -999.0000       -999.0000
 7349.2495       -999.0000        198.1530         99.0199       -999.0000       -999.0000       -999.0000
 7349.5000          2.2170        193.9840         98.8983          0.2725          0.1634          0.4216
 7349.7505       -999.0000        187.1877         98.4716       -999.0000       -999.0000       -999.0000
 7350.0000          2.2340        178.0162         97.9892          0.2414          0.1365          0.5085
 7350.2495       -999.0000        170.8164         97.6023       -999.0000       -999.0000       -999.0000
 7350.5000          2.2690        165.6570         97.3325          0.2549          0.1232          0.5381
 7350.7505       -999.0000        162.5929         97.0722       -999.0000       -999.0000       -999.0000
 7351.0000       -999.0000        161.6400         96.6610       -999.0000       -999.0000       -999.0000
 7351.0005          2.3170       -999.0000       -999.0000          0.2823          0.1051          0.5844
 7351.2495       -999.0000        160.6767         95.9760       -999.0000       -999.0000       -999.0000
 7351.5000          2.3300        159.7612         94.9912          0.3664          0.1061          0.5659
 7351.7505       -999.0000        159.0812         93.8187       -999.0000       -999.0000       -999.0000
 7352.0000          2.3540        158.7827         92.6700          0.4651          0.1116          0.5233
 7352.2495       -999.0000        158.9405         91.7678       -999.0000       -999.0000       -999.0000
 7352.5000          2.3690        159.5532         91.2873          0.5250          0.1265          0.4607
 7352.7505       -999.0000        160.2774         91.2897       -999.0000       -999.0000       -999.0000
 7352.9995          2.3350       -999.0000       -999.0000          0.5173          0.1461          0.4039
 7353.0000       -999.0000        160.9255         91.7120       -999.0000       -999.0000       -999.0000
 7353.2495       -999.0000        161.4306         92.4145       -999.0000       -999.0000       -999.0000
 7353.5000          2.3320        161.7106         93.2189          0.4609          0.1438          0.3938
 7353.7505       -999.0000        162.0192         93.9868       -999.0000       -999.0000       -999.0000
 7354.0000          2.3320        162.3407         94.6770          0.4110          0.1393          0.4274
 7354.2495       -999.0000        162.5783         95.3626       -999.0000       -999.0000       -999.0000
 7354.5000          2.3380        162.7941         96.2349          0.4220          0.1239          0.4790
 7354.7505       -999.0000        163.0369         97.5248       -999.0000       -999.0000       -999.0000
 7355.0000       -999.0000        163.6547         99.4245       -999.0000       -999.0000       -999.0000
 7355.0005          2.3540       -999.0000       -999.0000          0.4320          0.0948          0.6285
 7355.2495       -999.0000        164.9393        101.9607       -999.0000       -999.0000       -999.0000
 7355.5000          2.2330        166.9936        104.9345          0.4873          0.0768          0.7406
 7355.7505       -999.0000        169.6832        107.9443       -999.0000       -999.0000       -999.0000
 7356.0000          2.2020        172.4557        110.3182          0.5021          0.0631          0.8203
 7356.2495       -999.0000        174.8303        111.5013       -999.0000       -999.0000       -999.0000
