~VERSION INFORMATION 
VERS  .    2.0                                     :CWLS Log ASCII Standard - VERSION 2.0
WRAP  .    NO                                      :One Line per Depth step
#--------------------------------------------------
~WELL INFORMATION 
#MNEM           .UNIT                      DATA            :DESCRIPTION
#----            ------          --------------            -----------------------------
STRT            .ft                   7364.0000            :START DEPTH
STOP            .ft                   8538.0000            :STOP DEPTH
STEP            .ft                         0.5            :STEP
NULL            .                     -999.0000            :NULL VALUE
COMP            .                         PDVSA            :COMPANY
WELL            .                        Well-2            :WELL NAME
FLD             .                       GUAFITA            :FIELD NAME
SRVC            .                       UNKNOWN            :SERVICE COMPANY
DATE            .                       UNKNOWN            :LOG DATE(Composite Date for Composite LAP) (MM/DD/YYYY)
CNTY            .                       UNKNOWN            :COUNTY
STAT            .                       BARINAS            :STATE or PROVINCE
PROV            .                       BARINAS            :STATE or PROVINCE
CTRY            .                     VENEZUELA            :COUNTRY
API             .                                          :API NUMBER
UWI             .                                          :UNIQUE WELL ID
LOC             .                       GUAFITA            :FIELD LOCATION
#--------------------------------------------------
~CURVE INFORMATION
#MNEM           .UNIT                  API CODE            :DESCRIPTION
#----            ------          --------------            -----------------------------
DEPTH           .ft                                        : Depth Index
RHOB            .g/cm3                                     : Density
DTSM            .us/ft                                     : Delta-T Shear
DTCO            .us/ft                                     : Delta-T Compressional
VSH             .v/v                                       : Shale Volume
SW              .v/v                                       : Water Saturation
NPHI            .fraction                                  : Neutron Porosity
#--------------------------------------------------
~PARAMETER INFORMATION
#MNEM           .UNIT                  VALUE               :DESCRIPTION
#----           -------          --------------            -----------------------------
EKB             .ft                   487.00000            :Elevation of Depth Reference (Kelly Bushing)
EGL             .ft                   457.00000            :Elevation of Ground Level
#-------------------------------------------------------------
#  DEPTH             RHOB           DTSM           DTCO             VSH             SW              PHI
~ASCII
# ...
 7664.0000          2.4912        181.6133         90.6992       -999.0000       -999.0000       -999.0000
 7664.5000          2.4942        180.4708         90.1415       -999.0000       -999.0000       -999.0000
 7664.9995          2.5032        179.3840         88.4661       -999.0000       -999.0000       -999.0000
 7665.5000          2.5116        178.5039         79.9543       -999.0000       -999.0000       -999.0000
 7666.0000          2.5114        175.6022         82.9221       -999.0000       -999.0000       -999.0000
 7666.5000          2.4998        175.7506         83.2336       -999.0000       -999.0000       -999.0000
 7667.0005          2.4892        175.6604         85.0189       -999.0000       -999.0000       -999.0000
 7667.5000          2.4942        174.4223         86.9808       -999.0000       -999.0000       -999.0000
 7668.0000          2.5072        173.3383         88.6690       -999.0000       -999.0000       -999.0000
 7668.5000          2.5095        170.2895         88.2745       -999.0000       -999.0000       -999.0000
 7668.9995          2.4965        169.4475         86.2270       -999.0000       -999.0000       -999.0000
 7669.5000          2.4841        168.3441         86.1022       -999.0000       -999.0000       -999.0000
 7670.0000          2.4862        167.7736         86.3848       -999.0000       -999.0000       -999.0000
 7670.5000          2.4975        169.9788         86.1511       -999.0000       -999.0000       -999.0000
 7671.0005          2.5069        166.4709         82.8539       -999.0000       -999.0000       -999.0000
 7671.5000          2.5110        159.9124         78.7038       -999.0000       -999.0000       -999.0000
 7672.0000          2.5153        161.7165         81.3588       -999.0000       -999.0000       -999.0000
 7672.5000          2.5199        161.9242         81.4936       -999.0000       -999.0000       -999.0000
 7672.9995          2.5152        164.6451         80.8437       -999.0000       -999.0000       -999.0000
 7673.5000          2.5059        167.5592         85.0775       -999.0000       -999.0000       -999.0000
 7674.0000          2.5012        168.6970         87.8329       -999.0000       -999.0000       -999.0000
 7674.5000          2.4990        169.4412         87.9442       -999.0000       -999.0000       -999.0000
 7675.0005          2.4947        173.7729         89.7961       -999.0000       -999.0000       -999.0000
 7675.5000          2.4895        176.5842         89.3265       -999.0000       -999.0000       -999.0000
 7676.0000          2.4915        176.0971         88.6267       -999.0000       -999.0000       -999.0000
 7676.5000          2.4969        176.0213         89.8323       -999.0000       -999.0000       -999.0000
 7676.9995          2.4942        175.7480         89.4726       -999.0000       -999.0000       -999.0000
 7677.5000          2.4884        173.3932         88.9741       -999.0000       -999.0000       -999.0000
 7678.0000          2.4910        173.6696         87.7302       -999.0000       -999.0000       -999.0000
 7678.5000          2.4960        170.0317         86.6966       -999.0000       -999.0000       -999.0000
 7679.0005          2.4936        170.0459         85.7469       -999.0000       -999.0000       -999.0000
 7679.5000          2.4912        169.3646         86.0837       -999.0000       -999.0000       -999.0000
 7680.0000          2.5023        169.5696         84.1353       -999.0000       -999.0000       -999.0000
 7680.5000          2.5131        168.4173         84.3748       -999.0000       -999.0000       -999.0000
 7680.9995          2.5057        169.6834         84.9356       -999.0000       -999.0000       -999.0000
 7681.5000          2.4925        169.8619         85.4563       -999.0000       -999.0000       -999.0000
 7682.0000          2.4969        169.7901         85.9786       -999.0000       -999.0000       -999.0000
 7682.5000          2.5114        168.7436         85.6818       -999.0000       -999.0000       -999.0000
 7683.0005          2.5181        169.1620         85.5115       -999.0000       -999.0000       -999.0000
 7683.5000          2.5142        170.3054         86.1321       -999.0000       -999.0000       -999.0000
 7684.0000          2.5067        170.0245         86.3390       -999.0000       -999.0000       -999.0000
 7684.5000          2.5041        170.6318         85.9199       -999.0000       -999.0000       -999.0000
 7684.9995          2.5075        169.9952         85.4589       -999.0000       -999.0000       -999.0000
 7685.5000          2.5101        169.1156         85.1759       -999.0000       -999.0000       -999.0000
 7686.0000          2.5045        168.6584         86.5742       -999.0000       -999.0000       -999.0000
 7686.5000          2.4938        166.7899         86.1691       -999.0000       -999.0000       -999.0000
 7687.0005          2.4915        165.7988         84.7262       -999.0000       -999.0000       -999.0000
 7687.5000          2.4987        164.7226         84.2202       -999.0000       -999.0000       -999.0000
 7688.0000          2.5023        162.8569         83.1068       -999.0000       -999.0000       -999.0000
 7688.5000          2.4933        162.0302         83.1795       -999.0000       -999.0000       -999.0000
 7688.9995          2.4820        160.0951         82.7790       -999.0000       -999.0000       -999.0000
 7689.5000          2.4870        158.9654         82.1498       -999.0000       -999.0000       -999.0000
 7690.0000          2.5028        159.0896         83.2983       -999.0000       -999.0000       -999.0000
 7690.5000          2.5083        160.3996         83.7666       -999.0000       -999.0000       -999.0000
 7691.0005          2.4964        160.5098         85.2264       -999.0000       -999.0000       -999.0000
 7691.5000          2.4778        163.0305         85.7321       -999.0000       -999.0000       -999.0000
 7692.0000          2.4655        161.0195         83.7317       -999.0000       -999.0000       -999.0000
 7692.5000          2.4580        165.5427         83.3809       -999.0000       -999.0000       -999.0000
 7692.9995          2.4531        162.4164         84.1921       -999.0000       -999.0000       -999.0000
 7693.5000          2.4537        163.7667         85.6375       -999.0000       -999.0000       -999.0000
 7694.0000          2.4609        164.5745         86.3701       -999.0000       -999.0000       -999.0000
 7694.5000          2.4712        165.6632         86.9606       -999.0000       -999.0000       -999.0000
 7695.0005          2.4820        168.6672         87.1360       -999.0000       -999.0000       -999.0000
 7695.5000          2.4913        168.7645         85.6267       -999.0000       -999.0000       -999.0000
 7696.0000          2.5018        169.7397         85.8077       -999.0000       -999.0000       -999.0000
 7696.5000          2.5160        168.9264         82.5091       -999.0000       -999.0000       -999.0000
 7696.9995          2.5275        168.0116         86.9110       -999.0000       -999.0000       -999.0000
 7697.5000          2.5258        167.4498         87.1667       -999.0000       -999.0000       -999.0000
 7698.0000          2.5091        167.4082         86.7372       -999.0000       -999.0000       -999.0000
 7698.5000          2.4979        166.9821         88.1212       -999.0000       -999.0000       -999.0000
 7699.0005          2.5043        163.7035         89.0478       -999.0000       -999.0000       -999.0000
 7699.5000          2.5083        157.9759         85.4527       -999.0000       -999.0000       -999.0000
 7700.0000          2.5054        167.6532         82.8123       -999.0000       -999.0000       -999.0000
 7700.5000          2.5142        156.9346         80.5402       -999.0000       -999.0000       -999.0000
 7700.9995          2.5355        155.9827         80.4193       -999.0000       -999.0000       -999.0000
