~VERSION INFORMATION 
VERS  .    2.0                                     :CWLS Log ASCII Standard - VERSION 2.0
WRAP  .    NO                                      :One Line per Depth step
#--------------------------------------------------
~WELL INFORMATION 
#MNEM           .UNIT                      DATA            :DESCRIPTION
#----            ------          --------------            -----------------------------
STRT            .ft                   6530.5000            :START DEPTH
STOP            .ft                   7560.0000            :STOP DEPTH
STEP            .ft                         0.5            :STEP
NULL            .                     -999.0000            :NULL VALUE
COMP            .                         PDVSA            :COMPANY
WELL            .                        Well-1            :WELL NAME
FLD             .                       GUAFITA            :FIELD NAME
SRVC            .                       UNKNOWN            :SERVICE COMPANY
DATE            .                       UNKNOWN            :LOG DATE(Composite Date for Composite LAP) (MM/DD/YYYY)
CNTY            .                       UNKNOWN            :COUNTY
STAT            .                       BARINAS            :STATE or PROVINCE
PROV            .                       BARINAS            :STATE or PROVINCE
CTRY            .                     VENEZUELA            :COUNTRY
API             .                                          :API NUMBER
UWI             .                                          :UNIQUE WELL ID
LOC             .                       GUAFITA            :FIELD LOCATION
#--------------------------------------------------
~CURVE INFORMATION
#MNEM           .UNIT                  API CODE            :DESCRIPTION
#----           -------          --------------            -----------------------------
DEPTH           .ft                                        : Depth Index
RHOB            .g/cm3                                     : Density
DTSM            .us/ft                                     : Delta-T Shear
DTCO            .us/ft                                     : Delta-T Compressional
SW              .v/v                                       : Water Saturation
NPHI            .fraction                                  : Neutron Porosity
VSH             .v/v                                       : Shale Volume
#--------------------------------------------------
~PARAMETER INFORMATION
#MNEM           .UNIT                  VALUE               :DESCRIPTION
#----           -------          --------------            -----------------------------
EKB             .ft                   481.00000            :Elevation of Depth Reference (Kelly Bushing)
EGL             .ft                   451.00000            :Elevation of Ground Level
#-------------------------------------------------------------
#  DEPTH             RHOB           DTSM           DTCO             SW              PHI            VSH
~ASCII
# ...
 6856.5000          2.5130        171.5883         84.7450          1.0000          0.1087          0.5320
 6856.7505       -999.0000        174.4882         83.7526       -999.0000       -999.0000       -999.0000
 6856.9995          2.5510       -999.0000       -999.0000          1.0000          0.1003          0.5366
 6857.0000       -999.0000        177.8712         82.9443       -999.0000       -999.0000       -999.0000
 6857.2495       -999.0000        180.9848         82.3612       -999.0000       -999.0000       -999.0000
 6857.5000          2.5490        183.9551         82.0563          1.0000          0.0950          0.5175
 6857.7505       -999.0000        186.2355         82.0833       -999.0000       -999.0000       -999.0000
 6858.0000          2.5610        187.1259         82.4722          1.0000          0.0983          0.4972
 6858.2495       -999.0000        186.3870         83.2349       -999.0000       -999.0000       -999.0000
 6858.5000          2.5420        183.7951         84.3890          1.0000          0.1038          0.4868
 6858.7505       -999.0000        179.8037         85.9504       -999.0000       -999.0000       -999.0000
 6859.0000       -999.0000        175.4945         87.9427       -999.0000       -999.0000       -999.0000
 6859.0005          2.5420       -999.0000       -999.0000          1.0000          0.1076          0.4990
 6859.2495       -999.0000        172.0135         90.3273       -999.0000       -999.0000       -999.0000
 6859.5000          2.5240        170.0473         92.9366          1.0000          0.1187          0.5059
 6859.7505       -999.0000        169.8336         95.4994       -999.0000       -999.0000       -999.0000
 6860.0000          2.5080        171.3445         97.6014          1.0000          0.1226          0.5476
 6860.2495       -999.0000        173.9329         98.7995       -999.0000       -999.0000       -999.0000
 6860.5000          2.4950        177.5297         98.7835          1.0000          0.1213          0.5644
 6860.7505       -999.0000        182.1768         97.4013       -999.0000       -999.0000       -999.0000
 6860.9995          2.4860       -999.0000       -999.0000          1.0000          0.1159          0.5569
 6861.0000       -999.0000        187.0175         94.8172       -999.0000       -999.0000       -999.0000
 6861.2495       -999.0000        191.0995         91.4705       -999.0000       -999.0000       -999.0000
 6861.5000          2.4830        193.2182         87.9198          1.0000          0.1148          0.5071
 6861.7505       -999.0000        192.1687         84.7667       -999.0000       -999.0000       -999.0000
 6862.0000          2.4880        188.2073         82.4205          1.0000          0.1170          0.4358
 6862.2495       -999.0000        182.6181         81.0368       -999.0000       -999.0000       -999.0000
 6862.5000          2.4820        176.6854         80.5686          1.0000          0.1265          0.3790
 6862.7505       -999.0000        171.6934         80.7901       -999.0000       -999.0000       -999.0000
 6863.0000       -999.0000        168.3134         81.4603       -999.0000       -999.0000       -999.0000
 6863.0005          2.4620       -999.0000       -999.0000          1.0000          0.1347          0.3512
 6863.2495       -999.0000        166.3751         82.3916       -999.0000       -999.0000       -999.0000
 6863.5000          2.4390        165.7059         83.4506          1.0000          0.1317          0.3970
 6863.7505       -999.0000        166.1342         84.5832       -999.0000       -999.0000       -999.0000
 6864.0000          2.4110        167.0889         85.7581          0.9870          0.1361          0.4294
 6864.2495       -999.0000        168.2336         86.9316       -999.0000       -999.0000       -999.0000
 6864.5000          2.3900        169.2140         88.0371          0.9736          0.1462          0.4433
 6864.7505       -999.0000        169.6364         88.9771       -999.0000       -999.0000       -999.0000
 6864.9995          2.3770       -999.0000       -999.0000          0.9875          0.1505          0.4416
 6865.0000       -999.0000        169.5517         89.6354       -999.0000       -999.0000       -999.0000
 6865.2495       -999.0000        168.9728         89.9072       -999.0000       -999.0000       -999.0000
 6865.5000          2.3840        167.9714         89.7400          1.0000          0.1530          0.4219
 6865.7505       -999.0000        166.7444         89.1414       -999.0000       -999.0000       -999.0000
 6866.0000          2.3910        165.4045         88.1980          1.0000          0.1544          0.3819
 6866.2495       -999.0000        164.1838         87.0636       -999.0000       -999.0000       -999.0000
 6866.5000          2.3960        163.2991         85.9303          1.0000          0.1488          0.3402
 6866.7505       -999.0000        162.8538         85.0152       -999.0000       -999.0000       -999.0000
 6867.0000       -999.0000        162.9850         84.5106       -999.0000       -999.0000       -999.0000
 6867.0005          2.3960       -999.0000       -999.0000          1.0000          0.1464          0.2973
 6867.2495       -999.0000        163.7221         84.5418       -999.0000       -999.0000       -999.0000
 6867.5000          2.3820        165.0147         85.1252          1.0000          0.1640          0.2266
 6867.7505       -999.0000        166.7795         86.1414       -999.0000       -999.0000       -999.0000
 6868.0000          2.3470        168.7436         87.3683          1.0000          0.1853          0.1767
 6868.2495       -999.0000        170.6084         88.5459       -999.0000       -999.0000       -999.0000
 6868.5000          2.3090        172.1217         89.4585          1.0000          0.2094          0.1431
 6868.7505       -999.0000        173.1064         89.9943       -999.0000       -999.0000       -999.0000
 6868.9995          2.2550       -999.0000       -999.0000          1.0000          0.2286          0.1246
 6869.0000       -999.0000        173.5509         90.1517       -999.0000       -999.0000       -999.0000
 6869.2495       -999.0000        173.4945         90.0112       -999.0000       -999.0000       -999.0000
 6869.5000          2.2190        173.0036         89.6797          1.0000          0.2403          0.1124
 6869.7505       -999.0000        172.1559         89.2590       -999.0000       -999.0000       -999.0000
 6870.0000          2.2290        170.9957         88.8292          1.0000          0.2310          0.1135
 6870.2495       -999.0000        169.5964         88.4464       -999.0000       -999.0000       -999.0000
 6870.5000          2.2610        168.0201         88.1621          1.0000          0.2174          0.1193
 6870.7505       -999.0000        166.3219         88.0094       -999.0000       -999.0000       -999.0000
 6871.0000       -999.0000        164.6956         88.0024       -999.0000       -999.0000       -999.0000
 6871.0005          2.2700       -999.0000       -999.0000          1.0000          0.2125          0.1217
 6871.2495       -999.0000        163.3734         88.1300       -999.0000       -999.0000       -999.0000
 6871.5000          2.2830        162.6402         88.3396          1.0000          0.2092          0.1199
 6871.7505       -999.0000        162.6784         88.5637       -999.0000       -999.0000       -999.0000
 6872.0000          2.3050        163.3549         88.7316          1.0000          0.2069          0.1164
 6872.2495       -999.0000        164.3729         88.7972       -999.0000       -999.0000       -999.0000
 6872.5000          2.3090        165.2973         88.7653          1.0000          0.2106          0.1060
 6872.7505       -999.0000        165.8864         88.6805       -999.0000       -999.0000       -999.0000
 6872.9995          2.3120       -999.0000       -999.0000          1.0000          0.2117          0.1020
