~Version Information
VERS  .          2.0                              :CWLS Log Ascii Standard - Version 2.0
WRAP  .          NO                               :One line per depth step
~Well Information Block
#MNEM.UNIT       Data Type                        Information
#---------       ---------                        -------------------------------
STRT  .F         9850.00000                       :START DEPTH
STOP  .F         1453.50000                       :STOP DEPTH
STEP  .F         -0.50000                         :INCREMENT
NULL  .          -999.25                          :NULL DATA VALUE
COMP  .          ************                     :COMPANY
WELL  .          *******                          :WELL
FLD   .          ******                           :FIELD
LOC   .                                           :LOCATION
PROV  .                                           :PROVINCE
STAT  .                                           :STATE
CNTY  .                                           :COUNTY
CTRY  .                                           :COUNTRY
DATE  .                                           :DATE
UWI   .          ********                         :UNIQUE WELL UWI
LIC   .                                           :LICENSE NUMBER
API   .                                           :API NUMBER
SRVC  .          *****                            :SERVICE COMPANY
~Parameter Information Block
#MNEM.UNIT       Value                            Description
#---------       ---------                        -------------
~Curve Information Block
#MNEM.UNIT       API Code            Curve    Description
#--------        --------------      -----    -------------------
DEPT  .F                             :0       Index
CAL   .                              :1       Calibration Curve             
GR    .GAPI                          :2       Gamma Ray                     
NPHI  .V/V                           :3       Thermal Neutron Porosity (original Ratio Method) in Selected Lithology
RESD  .                              :4       Added by gf35 using QCTool    
RESS  .OHMM                          :5       Added by conefrem using QCTool 
RHOB  .G/C3                          :6       Bulk Density                  
SP    .MV                            :7       Spontaneous Potential         
~Ascii Data Section
# ...
   8501.00000      10.11519      31.32243       0.24563       8.20000       7.96000       2.21625     -54.40000 
   8500.50000      10.08514      31.32243       0.27102       8.35000       8.11000       2.20844     -54.80000 
   8500.00000      10.06503      31.32243       0.27318       8.50000       8.26000       2.20828     -55.20000 
   8499.50000      10.05502      27.62294       0.25174       9.10000       8.82500       2.21589     -55.60000 
   8499.00000      10.05000      36.40455       0.23952       9.70000       9.39000       2.22858     -56.00000 
   8498.50000      10.05000      36.40455       0.23652      14.95000      11.85000       2.24635     -56.40000 
   8498.00000      10.05000      53.12208       0.24099      20.20000      14.31000       2.27125     -56.80000 
   8497.50000      10.05000      61.28350       0.25284      29.70000      20.26000       2.30320     -57.60000 
   8497.00000      10.05000      61.28350       0.27390      39.20000      26.21000       2.34654     -58.40000 
   8496.50000      10.05000      61.28350       0.30395      58.25000      29.43500       2.40103     -58.80000 
   8496.00000      10.06783      53.12208       0.29765      77.30000      32.66000       2.44436     -59.20000 
   8495.50000      10.10288      36.40455       0.25623      74.55000      35.94500       2.47691     -60.00000 
   8495.00000      10.14563      36.40455       0.22742      71.80000      39.23000       2.47899     -60.80000 
   8494.50000      10.19570      27.62294       0.21066      71.15000      41.51000       2.45200     -60.80000 
   8494.00000      10.16586      27.62294       0.20074      70.50000      43.79000       2.41546     -60.80000 
   8493.50000      10.06069      27.62294       0.19726      73.20000      47.72000       2.36994     -60.80000 
   8493.00000      10.01259      27.62294       0.19646      75.90000      51.65000       2.32961     -60.80000 
   8492.50000      10.01760      27.62294       0.19813      74.50000      51.65000       2.29410     -62.00000 
   8492.00000      10.02783      31.32243       0.19738      73.10000      51.65000       2.27522     -63.20000 
   8491.50000      10.04285      31.32243       0.19438      69.30000      52.12500       2.27162     -63.20000 
   8491.00000      10.03950      31.32243       0.19522      65.50000      52.60000       2.26780     -63.20000 
   8490.50000      10.01946      31.32243       0.19953      69.30000      49.86500       2.26379     -64.40000 
   8490.00000      10.01000      31.32243       0.20403      73.10000      47.13000       2.25854     -65.60000 
   8489.50000      10.01000      31.32243       0.20870      75.20000      42.47500       2.25218     -66.39999 
   8489.00000      10.00734      31.32243       0.21197      77.30000      37.82000       2.24590     -67.20000 
   8488.50000      10.00233      31.32243       0.21401      75.20000      39.63500       2.23969     -67.20000 
   8488.00000       9.99465      31.32243       0.21540      73.10000      41.45000       2.23298     -67.20000 
   8487.50000       9.98463      31.32243       0.21624      69.89999      47.02500       2.22581     -67.20000 
   8487.00000       9.98000      31.32243       0.21965      66.70000      52.60000       2.22024     -67.20000 
   8486.50000       9.98000      31.32243       0.22528      66.10000      49.86500       2.21603     -67.20000 
   8486.00000       9.98000      27.62294       0.22522      65.50000      47.13000       2.21388     -67.20000 
   8485.50000       9.98000      36.40455       0.22031      59.05000      42.13000       2.21348     -67.20000 
   8485.00000       9.98000      53.12208       0.21162      52.60000      37.13000       2.22566     -67.20000 
   8484.50000       9.98000      61.28350       0.19977      51.15000      35.50500       2.24839     -67.60000 
   8484.00000       9.96905      61.28350       0.18091      49.70000      33.88000       2.29984     -68.00000 
   8483.50000       9.94902      61.28350       0.15624      49.25000      32.97500       2.37511     -68.40000 
   8483.00000       9.98405      53.12208       0.14461      48.80000      32.07000       2.43435     -68.80000 
   8482.50000      10.06418      36.40455       0.14365      48.80000      32.07000       2.48048     -69.20000 
   8482.00000      10.14153      36.40455       0.15104      48.80000      32.07000       2.48543     -69.60000 
   8481.50000      10.21665      27.62294       0.16517      47.95000      31.21000       2.45708     -69.60000 
   8481.00000      10.14977      27.62294       0.18169      47.10000      30.35000       2.41354     -69.60000 
   8480.50000       9.96948      27.62294       0.20013      48.40000      28.77000       2.35785     -68.80000 
   8480.00000       9.85640      27.62294       0.21636      49.70000      27.19000       2.32179     -68.00000 
   8479.50000       9.79630      27.62294       0.23085      48.85000      27.70000       2.30121     -67.60000 
   8479.00000       9.77000      27.62294       0.23423      48.00000      28.21000       2.28456     -67.20000 
   8478.50000       9.77000      27.62294       0.22896      46.70000      27.21000       2.27099     -66.80000 
   8478.00000       9.78134      27.62294       0.22749      45.40000      26.21000       2.26657     -66.40000 
   8477.50000       9.80137      27.62294       0.22892      43.40000      27.47000       2.26918     -65.20000 
   8477.00000       9.81000      27.62294       0.23036      41.40000      28.73000       2.27315     -64.00000 
   8476.50000       9.81000      36.40455       0.23180      39.25000      26.54500       2.27816     -63.60000 
   8476.00000       9.81860      36.40455       0.23419      37.10000      24.36000       2.29036     -63.20000 
   8475.50000       9.83362      53.12208       0.23731      30.05000      20.77500       2.30793     -62.40000 
   8475.00000       9.84576      53.12208       0.23546      23.00000      17.19000       2.33159     -61.60000 
   8474.50000       9.85578      53.12208       0.22995      22.80000      17.84500       2.35973     -60.40000 
   8474.00000       9.88028      53.12208       0.20969      22.60000      18.50000       2.39689     -59.20000 
   8473.50000       9.91533      53.12208       0.17868      22.60000      19.02500       2.44060     -58.80000 
   8473.00000      10.01155      36.40455       0.16723      22.60000      19.55000       2.45031     -58.40000 
   8472.50000      10.15175      36.40455       0.16987      22.40000      19.19500       2.43554     -57.60000 
   8472.00000      10.21293      36.40455       0.17803      22.20000      18.84000       2.41189     -56.80000 
   8471.50000      10.21794      36.40455       0.19012      19.05000      17.26500       2.38195     -55.60000 
   8471.00000      10.19056      36.40455       0.20715      15.90000      15.69000       2.36524     -54.40000 
   8470.50000      10.14049      36.40455       0.22762      14.00000      13.38000       2.35783     -54.40000 
   8470.00000      10.12592      36.40455       0.22843      12.10000      11.07000       2.36036     -54.40000 
   8469.50000      10.13593      36.40455       0.21562      11.15000      10.14500       2.36978     -54.00000 
   8469.00000      10.12215      27.62294       0.21262      10.20000       9.22000       2.36563     -53.60000 
   8468.50000      10.09209      27.62294       0.21633       8.85000       7.80500       2.35220     -52.80000 
   8468.00000      10.03810      27.62294       0.22298       7.50000       6.39000       2.33893     -52.00000 
   8467.50000       9.96799      27.62294       0.23160       6.40000       5.76000       2.32576     -51.60000 
   8467.00000       9.91894      27.62294       0.23727       5.30000       5.13000       2.31403     -51.20000 
   8466.50000       9.88388      36.40455       0.24098       4.90000       4.86000       2.30326     -50.00000 
   8466.00000       9.86093      36.40455       0.24404       4.50000       4.59000       2.30299     -48.80000 
