~VERSION INFORMATION 
VERS  .    2.0                                     :CWLS Log ASCII Standard - VERSION 2.0
WRAP  .    NO                                      :One Line per Depth step
#--------------------------------------------------
~WELL INFORMATION 
#MNEM           .UNIT                      DATA            :DESCRIPTION
#----            ------          --------------            -----------------------------
STRT            .ft                   7364.0000            :START DEPTH
STOP            .ft                   8538.0000            :STOP DEPTH
STEP            .ft                         0.5            :STEP
NULL            .                     -999.0000            :NULL VALUE
COMP            .                         PDVSA            :COMPANY
WELL            .                        Well-2            :WELL NAME
FLD             .                       GUAFITA            :FIELD NAME
SRVC            .                       UNKNOWN            :SERVICE COMPANY
DATE            .                       UNKNOWN            :LOG DATE(Composite Date for Composite LAP) (MM/DD/YYYY)
CNTY            .                       UNKNOWN            :COUNTY
STAT            .                       BARINAS            :STATE or PROVINCE
PROV            .                       BARINAS            :STATE or PROVINCE
CTRY            .                     VENEZUELA            :COUNTRY
API             .                                          :API NUMBER
UWI             .                                          :UNIQUE WELL ID
LOC             .                       GUAFITA            :FIELD LOCATION
#--------------------------------------------------
~CURVE INFORMATION
#MNEM           .UNIT                  API CODE            :DESCRIPTION
#----            ------          --------------            -----------------------------
DEPTH           .ft                                        : Depth Index
RHOB            .g/cm3                                     : Density
DTSM            .us/ft                                     : Delta-T Shear
DTCO            .us/ft                                     : Delta-T Compressional
VSH             .v/v                                       : Shale Volume
SW              .v/v                                       : Water Saturation
NPHI            .fraction                                  : Neutron Porosity
#--------------------------------------------------
~PARAMETER INFORMATION
#MNEM           .UNIT                  VALUE               :DESCRIPTION
#----           -------          --------------            -----------------------------
EKB             .ft                   487.00000            :Elevation of Depth Reference (Kelly Bushing)
EGL             .ft                   457.00000            :Elevation of Ground Level
#-------------------------------------------------------------
#  DEPTH             RHOB           DTSM           DTCO             VSH             SW              PHI
~ASCII
# ...
 7626.5000          2.5092        188.8345         92.5660       -999.0000       -999.0000       -999.0000
 7627.0005          2.5080        188.0494         89.9454       -999.0000       -999.0000       -999.0000
 7627.5000          2.4913        185.3986         89.0226       -999.0000       -999.0000       -999.0000
 7628.0000          2.4850        182.1772         87.6030       -999.0000       -999.0000       -999.0000
 7628.5000          2.4935        179.7116         86.5776       -999.0000       -999.0000       -999.0000
 7628.9995          2.4940        178.3578         85.7693       -999.0000       -999.0000       -999.0000
 7629.5000          2.4869        178.6896         86.9117       -999.0000       -999.0000       -999.0000
 7630.0000          2.4864        179.1857         88.7569       -999.0000       -999.0000       -999.0000
 7630.5000          2.4908        179.3019         89.2122       -999.0000       -999.0000       -999.0000
 7631.0005          2.4917        179.6548         91.5581       -999.0000       -999.0000       -999.0000
 7631.5000          2.4973        179.1613         90.2053       -999.0000       -999.0000       -999.0000
 7632.0000          2.5169        178.6624         91.1281       -999.0000       -999.0000       -999.0000
 7632.5000          2.5287        172.2885         89.2331       -999.0000       -999.0000       -999.0000
 7632.9995          2.5164        167.5491         85.4553       -999.0000       -999.0000       -999.0000
 7633.5000          2.4935        165.6581         84.3062       -999.0000       -999.0000       -999.0000
 7634.0000          2.4716        165.3854         81.9194       -999.0000       -999.0000       -999.0000
 7634.5000          2.4486        161.0920         81.9141       -999.0000       -999.0000       -999.0000
 7635.0005          2.4400        161.7312         82.0558       -999.0000       -999.0000       -999.0000
 7635.5000          2.4667        162.9286         82.0602       -999.0000       -999.0000       -999.0000
 7636.0000          2.5087        164.1953         82.2568       -999.0000       -999.0000       -999.0000
 7636.5000          2.5334        165.7094         82.9763       -999.0000       -999.0000       -999.0000
 7636.9995          2.5383        166.4420         82.1720       -999.0000       -999.0000       -999.0000
 7637.5000          2.5390        167.1596         81.9784       -999.0000       -999.0000       -999.0000
 7638.0000          2.5384        167.5758         82.3317       -999.0000       -999.0000       -999.0000
 7638.5000          2.5309        168.0070         83.0995       -999.0000       -999.0000       -999.0000
 7639.0005          2.5197        170.0116         84.6120       -999.0000       -999.0000       -999.0000
 7639.5000          2.5078        178.2439         85.1956       -999.0000       -999.0000       -999.0000
 7640.0000          2.4930        179.3533         88.0548       -999.0000       -999.0000       -999.0000
 7640.5000          2.4817        178.4372         90.6646       -999.0000       -999.0000       -999.0000
 7640.9995          2.4764        177.6867         90.5929       -999.0000       -999.0000       -999.0000
 7641.5000          2.4698        176.4110         90.4073       -999.0000       -999.0000       -999.0000
 7642.0000          2.4590        174.0791         82.4187       -999.0000       -999.0000       -999.0000
 7642.5000          2.4523        166.9902         82.0764       -999.0000       -999.0000       -999.0000
 7643.0005          2.4580        163.3063         82.4434       -999.0000       -999.0000       -999.0000
 7643.5000          2.4728        165.0617         82.3909       -999.0000       -999.0000       -999.0000
 7644.0000          2.4855        165.3571         82.0008       -999.0000       -999.0000       -999.0000
 7644.5000          2.4897        166.4677         82.3763       -999.0000       -999.0000       -999.0000
 7644.9995          2.4907        169.7719         82.6567       -999.0000       -999.0000       -999.0000
 7645.5000          2.4952        178.6825         84.5692       -999.0000       -999.0000       -999.0000
 7646.0000          2.5015        179.2486         89.4913       -999.0000       -999.0000       -999.0000
 7646.5000          2.5026        181.0863         88.9242       -999.0000       -999.0000       -999.0000
 7647.0005          2.5002        180.6420         91.1402       -999.0000       -999.0000       -999.0000
 7647.5000          2.5029        180.9492         92.0338       -999.0000       -999.0000       -999.0000
 7648.0000          2.5134        181.2899         84.8976       -999.0000       -999.0000       -999.0000
 7648.5000          2.5221        177.5897         85.5523       -999.0000       -999.0000       -999.0000
 7648.9995          2.5172        177.7312         86.5797       -999.0000       -999.0000       -999.0000
 7649.5000          2.5006        177.0244         86.6519       -999.0000       -999.0000       -999.0000
 7650.0000          2.4867        177.5449         87.6827       -999.0000       -999.0000       -999.0000
 7650.5000          2.4817        178.0982         87.4680       -999.0000       -999.0000       -999.0000
 7651.0005          2.4818        179.2355         88.0054       -999.0000       -999.0000       -999.0000
 7651.5000          2.4873        178.5712         87.1228       -999.0000       -999.0000       -999.0000
 7652.0000          2.4971        180.8802         88.1763       -999.0000       -999.0000       -999.0000
 7652.5000          2.5018        179.0355         88.2895       -999.0000       -999.0000       -999.0000
 7652.9995          2.4990        179.3575         89.8096       -999.0000       -999.0000       -999.0000
 7653.5000          2.4997        180.3351         88.1292       -999.0000       -999.0000       -999.0000
 7654.0000          2.5079        181.1174         88.9308       -999.0000       -999.0000       -999.0000
 7654.5000          2.5137        182.2712         90.3521       -999.0000       -999.0000       -999.0000
 7655.0005          2.5138        182.5154         90.9566       -999.0000       -999.0000       -999.0000
 7655.5000          2.5173        180.9470         90.5642       -999.0000       -999.0000       -999.0000
 7656.0000          2.5226        181.5453         88.4576       -999.0000       -999.0000       -999.0000
 7656.5000          2.5181        180.2325         87.5374       -999.0000       -999.0000       -999.0000
 7656.9995          2.5101        177.9877         85.8884       -999.0000       -999.0000       -999.0000
 7657.5000          2.5181        179.0896         85.3147       -999.0000       -999.0000       -999.0000
 7658.0000          2.5364        177.3102         84.3814       -999.0000       -999.0000       -999.0000
 7658.5000          2.5402        178.5444         88.2575       -999.0000       -999.0000       -999.0000
 7659.0005          2.5270        178.7908         84.0469       -999.0000       -999.0000       -999.0000
 7659.5000          2.5211        180.1665         83.4046       -999.0000       -999.0000       -999.0000
 7660.0000          2.5336        181.4216         86.2956       -999.0000       -999.0000       -999.0000
 7660.5000          2.5465        182.4519         87.5792       -999.0000       -999.0000       -999.0000
 7660.9995          2.5464        184.5751         88.3243       -999.0000       -999.0000       -999.0000
 7661.5000          2.5385        183.0306         88.7185       -999.0000       -999.0000       -999.0000
 7662.0000          2.5312        183.7966         89.7590       -999.0000       -999.0000       -999.0000
 7662.5000          2.5239        183.0746         89.9546       -999.0000       -999.0000       -999.0000
 7663.0005          2.5117        183.6006         92.3795       -999.0000       -999.0000       -999.0000
 7663.5000          2.4980        182.4214         92.2968       -999.0000       -999.0000       -999.0000
