~VERSION INFORMATION 
VERS  .    2.0                                     :CWLS Log ASCII Standard - VERSION 2.0
WRAP  .    NO                                      :One Line per Depth step
#--------------------------------------------------
~WELL INFORMATION 
#MNEM           .UNIT                      DATA            :DESCRIPTION
#----            ------          --------------            -----------------------------
STRT            .ft                   7364.0000            :START DEPTH
STOP            .ft                   8538.0000            :STOP DEPTH
STEP            .ft                         0.5            :STEP
NULL            .                     -999.0000            :NULL VALUE
COMP            .                         PDVSA            :COMPANY
WELL            .                        Well-2            :WELL NAME
FLD             .                       GUAFITA            :FIELD NAME
SRVC            .                       UNKNOWN            :SERVICE COMPANY
DATE            .                       UNKNOWN            :LOG DATE(Composite Date for Composite LAP) (MM/DD/YYYY)
CNTY            .                       UNKNOWN            :COUNTY
STAT            .                       BARINAS            :STATE or PROVINCE
PROV            .                       BARINAS            :STATE or PROVINCE
CTRY            .                     VENEZUELA            :COUNTRY
API             .                                          :API NUMBER
UWI             .                                          :UNIQUE WELL ID
LOC             .                       GUAFITA            :FIELD LOCATION
#--------------------------------------------------
~CURVE INFORMATION
#MNEM           .UNIT                  API CODE            :DESCRIPTION
#----            ------          --------------            -----------------------------
DEPTH           .ft                                        : Depth Index
RHOB            .g/cm3                                     : Density
DTSM            .us/ft                                     : Delta-T Shear
DTCO            .us/ft                                     : Delta-T Compressional
VSH             .v/v                                       : Shale Volume
SW              .v/v                                       : Water Saturation
NPHI            .fraction                                  : Neutron Porosity
#--------------------------------------------------
~PARAMETER INFORMATION
#MNEM           .UNIT                  VALUE               :DESCRIPTION
#----           -------          --------------            -----------------------------
EKB             .ft                   487.00000            :Elevation of Depth Reference (Kelly Bushing)
EGL             .ft                   457.00000            :Elevation of Ground Level
#-------------------------------------------------------------
#  DEPTH             RHOB           DTSM           DTCO             VSH             SW              PHI
~ASCII
# ...
 7739.0005          2.1885        177.6948         96.9553       -999.0000       -999.0000       -999.0000
 7739.5000          2.2379        177.4952         95.8706       -999.0000       -999.0000       -999.0000
 7740.0000          2.3271        171.1393         92.3082       -999.0000       -999.0000       -999.0000
 7740.5000          2.3923        168.7866         90.3681       -999.0000       -999.0000       -999.0000
 7740.9995          2.4035        167.0280         87.4932       -999.0000       -999.0000       -999.0000
 7741.5000          2.3918        165.4420         88.4688       -999.0000       -999.0000       -999.0000
 7742.0000          2.3979        166.8596         89.7655       -999.0000       -999.0000       -999.0000
 7742.5000          2.4140        167.6417         87.6133       -999.0000       -999.0000       -999.0000
 7743.0005          2.4277        167.0862         87.6402       -999.0000       -999.0000       -999.0000
 7743.5000          2.4492        164.7783         84.6669       -999.0000       -999.0000       -999.0000
 7744.0000          2.4779        161.9710         84.3847       -999.0000       -999.0000       -999.0000
 7744.5000          2.4820        158.1458         84.5604       -999.0000       -999.0000       -999.0000
 7744.9995          2.4470        156.7250         85.0073       -999.0000       -999.0000       -999.0000
 7745.5000          2.4056        160.4478         86.3946       -999.0000       -999.0000       -999.0000
 7746.0000          2.3944        162.5429         89.3967       -999.0000       -999.0000       -999.0000
 7746.5000          2.4083        163.1960         87.7254       -999.0000       -999.0000       -999.0000
 7747.0005          2.4272        164.3131         86.7327       -999.0000       -999.0000       -999.0000
 7747.5000          2.4471        164.5902         86.0108       -999.0000       -999.0000       -999.0000
 7748.0000          2.4673        164.9637         85.3585       -999.0000       -999.0000       -999.0000
 7748.5000          2.4789        159.7421         83.4111       -999.0000       -999.0000       -999.0000
 7748.9995          2.4778        159.6801         82.4671       -999.0000       -999.0000       -999.0000
 7749.5000          2.4754        166.3120         85.3938       -999.0000       -999.0000       -999.0000
 7750.0000          2.4830        179.6606         87.9654       -999.0000       -999.0000       -999.0000
 7750.5000          2.4915        186.9410         89.7816       -999.0000       -999.0000       -999.0000
 7751.0005          2.4838        198.1098         95.7973       -999.0000       -999.0000       -999.0000
 7751.5000          2.4660        208.2154         98.8153       -999.0000       -999.0000       -999.0000
 7752.0000          2.4532        215.2192        100.3334       -999.0000       -999.0000       -999.0000
 7752.5000          2.4534        218.8572        101.5846       -999.0000       -999.0000       -999.0000
 7752.9995          2.4655        223.2220         98.6482       -999.0000       -999.0000       -999.0000
 7753.5000          2.4815        223.7049        101.4962       -999.0000       -999.0000       -999.0000
 7754.0000          2.4926        222.7242         97.9633       -999.0000       -999.0000       -999.0000
 7754.5000          2.4922        221.6817         97.3639       -999.0000       -999.0000       -999.0000
 7755.0005          2.4864        211.5041        100.1164       -999.0000       -999.0000       -999.0000
 7755.5000          2.4899        193.5234         90.1328       -999.0000       -999.0000       -999.0000
 7756.0000          2.4965        186.8501         86.8856       -999.0000       -999.0000       -999.0000
 7756.5000          2.4928        178.2588         86.4569       -999.0000       -999.0000       -999.0000
 7756.9995          2.4792        175.6074         84.4382       -999.0000       -999.0000       -999.0000
 7757.5000          2.4663        176.0404         83.2319       -999.0000       -999.0000       -999.0000
 7758.0000          2.4667        170.3290         84.5818       -999.0000       -999.0000       -999.0000
 7758.5000          2.4839        171.2628         86.5287       -999.0000       -999.0000       -999.0000
 7759.0005          2.5087        174.2174         88.1275       -999.0000       -999.0000       -999.0000
 7759.5000          2.5211        176.6261         90.0323       -999.0000       -999.0000       -999.0000
 7760.0000          2.5085        178.4235         88.0084       -999.0000       -999.0000       -999.0000
 7760.5000          2.4877        178.2035         87.8073       -999.0000       -999.0000       -999.0000
 7760.9995          2.4851        178.1624         88.1300       -999.0000       -999.0000       -999.0000
 7761.5000          2.5012        180.5500         88.1911       -999.0000       -999.0000       -999.0000
 7762.0000          2.5145        178.5102         88.7457       -999.0000       -999.0000       -999.0000
 7762.5000          2.5124        178.1323         89.2164       -999.0000       -999.0000       -999.0000
 7763.0005          2.5035        179.1485         90.5834       -999.0000       -999.0000       -999.0000
 7763.5000          2.5068        179.1399         90.4538       -999.0000       -999.0000       -999.0000
 7764.0000          2.5191        180.0754         91.8835       -999.0000       -999.0000       -999.0000
 7764.5000          2.5316        180.9308         91.9589       -999.0000       -999.0000       -999.0000
 7764.9995          2.5433        180.5252         91.7587       -999.0000       -999.0000       -999.0000
 7765.5000          2.5476        180.9055         88.1785       -999.0000       -999.0000       -999.0000
 7766.0000          2.5387        178.6369         89.6510       -999.0000       -999.0000       -999.0000
 7766.5000          2.5188        175.3085         85.9806       -999.0000       -999.0000       -999.0000
 7767.0005          2.5021        171.4500         86.2057       -999.0000       -999.0000       -999.0000
 7767.5000          2.5018        170.7045         86.0152       -999.0000       -999.0000       -999.0000
 7768.0000          2.5078        170.6564         86.6264       -999.0000       -999.0000       -999.0000
 7768.5000          2.5066        176.3431         88.3238       -999.0000       -999.0000       -999.0000
 7768.9995          2.4968        179.6493         88.9182       -999.0000       -999.0000       -999.0000
 7769.5000          2.4890        180.5954         88.2303       -999.0000       -999.0000       -999.0000
 7770.0000          2.4984        188.7529         88.8330       -999.0000       -999.0000       -999.0000
 7770.5000          2.5216        194.0291         93.2345       -999.0000       -999.0000       -999.0000
 7771.0005          2.5414        194.8858         95.5124       -999.0000       -999.0000       -999.0000
 7771.5000          2.5528        190.6987         92.7525       -999.0000       -999.0000       -999.0000
 7772.0000          2.5590        192.8746         92.4594       -999.0000       -999.0000       -999.0000
 7772.5000          2.5549        194.9787         94.0647       -999.0000       -999.0000       -999.0000
 7772.9995          2.5346        197.7060         93.2930       -999.0000       -999.0000       -999.0000
 7773.5000          2.5139        198.5212         93.3446       -999.0000       -999.0000       -999.0000
 7774.0000          2.5174        207.5560         97.0552       -999.0000       -999.0000       -999.0000
 7774.5000          2.5357        218.6014         97.8065       -999.0000       -999.0000       -999.0000
 7775.0005          2.5403        218.7206         96.9714       -999.0000       -999.0000       -999.0000
 7775.5000          2.5257        213.8950         96.5347       -999.0000       -999.0000       -999.0000
 7776.0000          2.5111        209.3790         96.1250       -999.0000       -999.0000       -999.0000
