~Version Information
VERS  .          2.0                              :CWLS Log Ascii Standard - Version 2.0
WRAP  .          NO                               :One line per depth step
~Well Information Block
#MNEM.UNIT       Data Type                        Information
#---------       ---------                        -------------------------------
STRT  .F         9346.00000                       :START DEPTH
STOP  .F         2030.00000                       :STOP DEPTH
STEP  .F         -0.50000                         :INCREMENT
NULL  .          -999.25                          :NULL DATA VALUE
COMP  .          ************                     :COMPANY
WELL  .          ********                         :WELL
FLD   .          ******                           :FIELD
LOC   .                                           :LOCATION
PROV  .                                           :PROVINCE
STAT  .                                           :STATE
CNTY  .                                           :COUNTY
CTRY  .          ************                     :COUNTRY
DATE  .                                           :DATE
UWI   .          ********                         :UNIQUE WELL UWI
LIC   .                                           :LICENSE NUMBER
API   .                                           :API NUMBER
SRVC  .          *****                            :SERVICE COMPANY
~Parameter Information Block
#MNEM.UNIT       Value                            Description
#---------       ---------                        -------------
~Curve Information Block
#MNEM.UNIT       API Code            Curve    Description
#--------        --------------      -----    -------------------
DEPT  .F                             :0       Index
CAL   .                              :1       Calibration Curve             
ASN   .OHMM                          :2       Amplified Short Normal        
I6FR  .OHMM                          :3       I6FR - Deep Induction Log - PDVSA
DPHI  .V/V                           :4       Density Porosity              
GR    .GAPI                          :5       Gamma Ray                     
NPHI  .V/V                           :6       Thermal Neutron Porosity (original Ratio Method) in Selected Lithology
SP    .MV                            :7       Spontaneous Potential         
~Ascii Data Section
# ...
   9239.50000      12.25000       8.00000       6.90000       0.11700      77.12750       0.31016    -999.25000 
   9239.00000      12.25000       8.10000       7.30000       0.11700      77.52750       0.29616    -999.25000 
   9238.50000      12.23737       8.40000       7.50000       0.10974      78.95125       0.29226    -999.25000 
   9238.00000      12.21740       8.70000       7.70000       0.09826      81.15125       0.29426    -999.25000 
   9237.50000      12.19742       9.10000       7.90000       0.08708      82.21375       0.29437    -999.25000 
   9237.00000      12.17742       9.50000       8.10000       0.07608      82.41375       0.29337    -999.25000 
   9236.50000      12.18258       9.50000       8.20000       0.07798      80.56625       0.30055    -999.25000 
   9236.00000      12.20258       9.50000       8.30000       0.08748      77.16624       0.31255    -999.25000 
   9235.50000      12.21000       9.50000       8.50000       0.09698      76.83749       0.30945    -999.25000 
   9235.00000      12.21000       9.50000       8.70000       0.10648      78.83749       0.29745    -999.25000 
   9234.50000      12.21000       9.50000       8.60000       0.10717      79.35875       0.29269    -999.25000 
   9234.00000      12.21000       9.50000       8.50000       0.10267      78.75875       0.29219    -999.25000 
   9233.50000      12.32010       9.50000       8.50000       0.10666      79.18250       0.29452    -999.25000 
   9233.00000      12.49510       9.50000       8.50000       0.11566      80.38250       0.29852    -999.25000 
   9232.50000      12.70785       9.30000       8.20000       0.11554      81.58250       0.30566    -999.25000 
   9232.00000      12.94285       9.10000       7.90000       0.11004      82.78250       0.31466    -999.25000 
   9231.50000      12.94506       9.00000       7.60000       0.14040      82.04875       0.33467    -999.25000 
   9231.00000      12.81006       8.90000       7.30000       0.19190      79.84875       0.36117    -999.25000 
   9230.50000      12.63731       8.60000       6.70000       0.21478      79.92375       0.39459    -999.25000 
   9230.00000      12.44231       8.30000       6.10000       0.22077      81.72375       0.43209    -999.25000 
   9229.50000      12.28192       7.80000       5.00000       0.21576      85.54281       0.44474    -999.25000 
   9229.00000      12.14192       7.30000       3.90000       0.20426      90.89281       0.44274    -999.25000 
   9228.50000      12.07742       7.20000       3.70000       0.19025      93.65500       0.41872    -999.25000 
   9228.00000      12.05742       7.10000       3.50000       0.17475      94.45500       0.38172    -999.25000 
   9227.50000      12.05000       7.70000       4.10000       0.17309      92.75250       0.35290    -999.25000 
   9227.00000      12.05000       8.30000       4.70000       0.17959      89.15250       0.32890    -999.25000 
   9226.50000      12.07517       8.90000       5.60000       0.18924      86.91750       0.31214    -999.25000 
   9226.00000      12.11517       9.50000       6.50000       0.20074      85.71750       0.29964    -999.25000 
   9225.50000      12.13000      10.30000       8.70000       0.19965      82.72594       0.29626    -999.25000 
   9225.00000      12.13000      11.10000      10.90000       0.19115      78.37594       0.29826    -999.25000 
   9224.50000      12.13000      12.80000      13.50000       0.18454      74.45676       0.30089    -999.25000 
   9224.00000      12.13000      14.50000      16.10000       0.17904      70.86000       0.30389    -999.25000 
   9223.50000      12.19292      15.00000      18.70000       0.18707      70.88667       0.31066    -999.25000 
   9223.00000      12.29292      15.50000      21.30000       0.20307      73.68667       0.31966    -999.25000 
   9222.50000      12.24192      16.40000      23.25000       0.20931      71.61333       0.32048    -999.25000 
   9222.00000      12.10192      17.30000      25.20000       0.20981      65.81333       0.31648    -999.25000 
   9221.50000      12.03742      17.80000      25.05000       0.21252      62.19500       0.31280    -999.25000 
   9221.00000      12.01742      18.30000      24.90000       0.21652      60.24500       0.30930    -999.25000 
   9220.50000      12.01000      18.50000      24.20000       0.21139      58.60667       0.30611    -999.25000 
   9220.00000      12.01000      18.70000      23.50000       0.20089      57.20667       0.30311    -999.25000 
   9219.50000      12.01000      19.00000      23.80000       0.19731      56.60000       0.30074    -999.25000 
   9219.00000      12.01000      19.30000      24.10000       0.19781      56.60000       0.29874    -999.25000 
   9218.50000      12.02258      19.80000      23.60000       0.20492      55.35333       0.29800    -999.25000 
   9218.00000      12.04258      20.30000      23.10000       0.21592      53.15334       0.29800    -999.25000 
   9217.50000      12.05000      20.90000      24.35000       0.22252      51.18000       0.29800    -999.25000 
   9217.00000      12.05000      21.50000      25.60000       0.22652      49.38000       0.29800    -999.25000 
   9216.50000      12.05000      22.40000      27.40000       0.22454      49.39333       0.29517    -999.25000 
   9216.00000      12.05000      23.30000      29.20000       0.21904      50.79333       0.29067    -999.25000 
   9215.50000      12.03742      23.90000      30.30000       0.21039      49.47334       0.28869    -999.25000 
   9215.00000      12.01742      24.50000      31.40000       0.19989      46.07333       0.28819    -999.25000 
   9214.50000      12.01000      24.95000      34.10000       0.18939      46.64000       0.28989    -999.25000 
   9214.00000      12.01000      25.40000      36.80000       0.17889      50.24000       0.29289    -999.25000 
   9213.50000      12.02258      25.60000      37.90000       0.17972      50.10000       0.29306    -999.25000 
   9213.00000      12.04258      25.80000      39.00000       0.18722      47.10000       0.29156    -999.25000 
   9212.50000      12.05000      25.80000      40.00000       0.19063      45.34666       0.29226    -999.25000 
   9212.00000      12.05000      25.80000      41.00000       0.19163      44.54667       0.29426    -999.25000 
   9211.50000      12.05000      25.70000      41.30000       0.19074      45.78667       0.30002    -999.25000 
   9211.00000      12.05000      25.60000      41.60000       0.18875      48.58667       0.30802    -999.25000 
   9210.50000      12.03746      25.25000      41.90000       0.17765      51.04667       0.31821    -999.25000 
   9210.00000      12.01746      24.90000      42.20000       0.16115      53.24667       0.32971    -999.25000 
   9209.50000      12.02254      24.50000      40.30000       0.16064      56.77834       0.33118    -999.25000 
   9209.00000      12.04254      24.10000      38.40000       0.16964      61.32833       0.32668    -999.25000 
   9208.50000      12.05000      23.50000      33.60000       0.17425      61.85500       0.31842    -999.25000 
   9208.00000      12.05000      22.90000      28.80000       0.17625      59.30500       0.30792    -999.25000 
   9207.50000      12.05000      22.60000      26.55000       0.18045      58.96500       0.30024    -999.25000 
   9207.00000      12.05000      22.30000      24.30000       0.18595      60.31500       0.29424    -999.25000 
   9206.50000      12.05000      23.20000      24.20000       0.19176      60.47500       0.29482    -999.25000 
   9206.00000      12.05000      24.10000      24.10000       0.19776      59.72500       0.29932    -999.25000 
   9205.50000      12.05000      24.50000      24.20000       0.19718      59.93833       0.29975    -999.25000 
   9205.00000      12.05000      24.90000      24.30000       0.19268      60.88833       0.29775    -999.25000 
   9204.50000      12.06254      25.35000      24.65000       0.18661      60.08167       0.29637    -999.25000 
