~Version Information
VERS  .          2.0                              :CWLS Log Ascii Standard - Version 2.0
WRAP  .          NO                               :One line per depth step
~Well Information Block
#MNEM.UNIT       Data Type                        Information
#---------       ---------                        -------------------------------
STRT  .F         9850.00000                       :START DEPTH
STOP  .F         1453.50000                       :STOP DEPTH
STEP  .F         -0.50000                         :INCREMENT
NULL  .          -999.25                          :NULL DATA VALUE
COMP  .          ************                     :COMPANY
WELL  .          *******                          :WELL
FLD   .          ******                           :FIELD
LOC   .                                           :LOCATION
PROV  .                                           :PROVINCE
STAT  .                                           :STATE
CNTY  .                                           :COUNTY
CTRY  .                                           :COUNTRY
DATE  .                                           :DATE
UWI   .          ********                         :UNIQUE WELL UWI
LIC   .                                           :LICENSE NUMBER
API   .                                           :API NUMBER
SRVC  .          *****                            :SERVICE COMPANY
~Parameter Information Block
#MNEM.UNIT       Value                            Description
#---------       ---------                        -------------
~Curve Information Block
#MNEM.UNIT       API Code            Curve    Description
#--------        --------------      -----    -------------------
DEPT  .F                             :0       Index
CAL   .                              :1       Calibration Curve             
GR    .GAPI                          :2       Gamma Ray                     
NPHI  .V/V                           :3       Thermal Neutron Porosity (original Ratio Method) in Selected Lithology
RESD  .                              :4       Added by gf35 using QCTool    
RESS  .OHMM                          :5       Added by conefrem using QCTool 
RHOB  .G/C3                          :6       Bulk Density                  
SP    .MV                            :7       Spontaneous Potential         
~Ascii Data Section
# ...
   9708.00000       9.26000      36.40455       0.22804       9.20000       9.22000       2.33384    -143.59990 
   9707.50000       9.26000      36.40455       0.23356       9.45000       9.22000       2.33094    -143.19989 
   9707.00000       9.26000      36.40455       0.23978       9.70000       9.22000       2.32854    -142.79990 
   9706.50000       9.29289      36.40455       0.23609       9.90000       9.30500       2.33305    -142.79990 
   9706.00000       9.32789      36.40455       0.23179      10.10000       9.39000       2.33800    -142.79990 
   9705.50000       9.30181      36.40455       0.23096      10.25000       9.56500       2.34356    -142.79990 
   9705.00000       9.27181      36.40455       0.23037      10.40000       9.74000       2.34916    -142.79990 
   9704.50000       9.27000      36.40455       0.22988      12.60000      12.16000       2.34518    -142.39990 
   9704.00000       9.27000      36.40455       0.22940      14.80000      14.58000       2.34058    -141.99989 
   9703.50000       9.25591      36.40455       0.23533      14.80000      15.28000       2.33790    -141.99989 
   9703.00000       9.24091      36.40455       0.24167      14.80000      15.98000       2.33535    -141.99989 
   9702.50000       9.24000      36.40455       0.24026      14.15000      15.01500       2.33722    -141.99989 
   9702.00000       9.24000      36.40455       0.23834      13.50000      14.05000       2.33937    -141.99989 
   9701.50000       9.24000      36.40455       0.23318      13.00000      13.55500       2.34419    -142.39990 
   9701.00000       9.24000      36.40455       0.22779      12.50000      13.06000       2.34919    -142.79990 
   9700.50000       9.24000      36.40455       0.21927      12.20000      12.71000       2.34706    -142.79990 
   9700.00000       9.24000      27.62294       0.21054      11.90000      12.36000       2.34446    -142.79990 
   9699.50000       9.24000      27.62294       0.21414      11.05000      11.82000       2.33966    -143.19989 
   9699.00000       9.24000      27.62294       0.21857      10.20000      11.28000       2.33471    -143.59990 
   9698.50000       9.24000      27.62294       0.22658       9.70000      10.60000       2.32803    -143.99991 
   9698.00000       9.24000      27.62294       0.23484       9.20000       9.92000       2.32123    -144.39990 
   9697.50000       9.24000      27.62294       0.23300       9.20000       9.57000       2.31968    -144.79990 
   9697.00000       9.24000      27.62294       0.23049       9.20000       9.22000       2.31848    -145.19991 
   9696.50000       9.24000      27.62294       0.22776       9.20000       9.30500       2.30904    -145.19991 
   9696.00000       9.24000      27.62294       0.22500       9.20000       9.39000       2.29905    -145.19991 
   9695.50000       9.24000      27.62294       0.22091       9.25000       9.47500       2.29508    -145.19991 
   9695.00000       9.24000      27.62294       0.21672       9.30000       9.56000       2.29153    -145.19991 
   9694.50000       9.24000      27.62294       0.21723       9.75000      10.42000       2.29462    -144.79990 
   9694.00000       9.24000      27.62294       0.21807      10.20000      11.28000       2.29817    -144.39990 
   9693.50000       9.25403      36.40455       0.21947      10.40000      13.20000       2.30420    -144.39990 
   9693.00000       9.26903      36.40455       0.22090      10.60000      15.12000       2.31040    -144.39990 
   9692.50000       9.25597      36.40455       0.22402      12.30000      16.15500       2.31604    -143.99991 
   9692.00000       9.24097      36.40455       0.22725      14.00000      17.19000       2.32164    -143.59990 
   9691.50000       9.25400      36.40455       0.24242      13.90000      16.73000       2.33203    -143.59990 
   9691.00000       9.26900      36.40455       0.25845      13.80000      16.27000       2.34278    -143.59990 
   9690.50000       9.30267      36.40455       0.27371      13.15000      15.42500       2.35003    -143.19989 
   9690.00000       9.33767      36.40455       0.28890      12.50000      14.58000       2.35703    -142.79990 
   9689.50000       9.33067      36.40455       0.28031      11.85000      13.14000       2.35470    -142.79990 
   9689.00000       9.32067      27.62294       0.27002      11.20000      11.70000       2.35170    -142.79990 
   9688.50000       9.30133      27.62294       0.24488      10.65000      11.18500       2.34478    -142.39990 
   9688.00000       9.28133      27.62294       0.21868      10.10000      10.67000       2.33758    -141.99989 
   9687.50000       9.31733      36.40455       0.21280       9.55000       9.46500       2.32464    -141.19989 
   9687.00000       9.35725      36.40455       0.20838       9.00000       8.26000       2.31132    -140.39990 
   9686.50000       9.37862      36.40455       0.21755       8.45000       8.03500       2.31673    -139.19989 
   9686.00000       9.39862      36.40455       0.22772       7.90000       7.81000       2.32353    -137.99989 
   9685.50000       9.40000      27.62294       0.24747       7.45000       7.40500       2.33662    -138.39990 
   9685.00000       9.40000      27.62294       0.26793       7.00000       7.00000       2.35017    -138.79990 
   9684.50000       9.40000      27.62294       0.26811       6.80000       6.75000       2.34644    -139.59990 
   9684.00000       9.40000      27.62294       0.26679       6.60000       6.50000       2.34144    -140.39990 
   9683.50000       9.40000      27.62294       0.25679       6.70000       6.68500       2.31773    -140.79990 
   9683.00000       9.40000      27.62294       0.24614       6.80000       6.87000       2.29263    -141.19991 
   9682.50000       9.40466      27.62294       0.24084       6.90000       7.00000       2.28624    -141.19991 
   9682.00000       9.40965      27.62294       0.23594       7.00000       7.13000       2.28125    -141.19991 
   9681.50000       9.41465      27.62294       0.24471       7.20000       7.26500       2.28796    -141.19991 
   9681.00000       9.41965      36.40455       0.25452       7.40000       7.40000       2.29556    -141.19991 
   9680.50000       9.41071      36.40455       0.24944       7.40000       7.60500       2.30590    -141.19991 
   9680.00000       9.40071      36.40455       0.24321       7.40000       7.81000       2.31645    -141.19991 
   9679.50000       9.40929      36.40455       0.24188       7.05000       7.40500       2.32315    -141.19991 
   9679.00000       9.41929      36.40455       0.24093       6.70000       7.00000       2.32955    -141.19991 
   9678.50000       9.42465      36.40455       0.23597       6.60000       6.81000       2.33019    -140.79990 
   9678.00000       9.42965      27.62294       0.23070       6.50000       6.62000       2.33039    -140.39990 
   9677.50000       9.41606      27.62294       0.23100       6.40000       6.44500       2.32910    -140.39990 
   9677.00000       9.40109      36.40455       0.23171       6.30000       6.27000       2.32770    -140.39990 
   9676.50000       9.41391      27.62294       0.22555       6.30000       6.10000       2.32519    -140.39990 
   9676.00000       9.42891      27.62294       0.21885       6.30000       5.93000       2.32259    -140.39990 
   9675.50000       9.41609      27.62294       0.21726       6.40000       5.96000       2.32407    -140.39990 
   9675.00000       9.40109      27.62294       0.21606       6.50000       5.99000       2.32587    -140.39990 
   9674.50000       9.40000      27.62294       0.21786       6.35000       6.01500       2.32433    -140.39990 
   9674.00000       9.40000      27.62294       0.21989       6.20000       6.04000       2.32253    -140.39990 
   9673.50000       9.41391      27.62294       0.22159       6.20000       6.07000       2.31776    -140.39990 
   9673.00000       9.42891      27.62294       0.22327       6.20000       6.10000       2.31276    -140.39990 
