~VERSION INFORMATION 
VERS  .    2.0                                     :CWLS Log ASCII Standard - VERSION 2.0
WRAP  .    NO                                      :One Line per Depth step
#--------------------------------------------------
~WELL INFORMATION 
#MNEM           .UNIT                      DATA            :DESCRIPTION
#----            ------          --------------            -----------------------------
STRT            .ft                   7364.0000            :START DEPTH
STOP            .ft                   8538.0000            :STOP DEPTH
STEP            .ft                         0.5            :STEP
NULL            .                     -999.0000            :NULL VALUE
COMP            .                         PDVSA            :COMPANY
WELL            .                        Well-2            :WELL NAME
FLD             .                       GUAFITA            :FIELD NAME
SRVC            .                       UNKNOWN            :SERVICE COMPANY
DATE            .                       UNKNOWN            :LOG DATE(Composite Date for Composite LAP) (MM/DD/YYYY)
CNTY            .                       UNKNOWN            :COUNTY
STAT            .                       BARINAS            :STATE or PROVINCE
PROV            .                       BARINAS            :STATE or PROVINCE
CTRY            .                     VENEZUELA            :COUNTRY
API             .                                          :API NUMBER
UWI             .                                          :UNIQUE WELL ID
LOC             .                       GUAFITA            :FIELD LOCATION
#--------------------------------------------------
~CURVE INFORMATION
#MNEM           .UNIT                  API CODE            :DESCRIPTION
#----            ------          --------------            -----------------------------
DEPTH           .ft                                        : Depth Index
RHOB            .g/cm3                                     : Density
DTSM            .us/ft                                     : Delta-T Shear
DTCO            .us/ft                                     : Delta-T Compressional
VSH             .v/v                                       : Shale Volume
SW              .v/v                                       : Water Saturation
NPHI            .fraction                                  : Neutron Porosity
#--------------------------------------------------
~PARAMETER INFORMATION
#MNEM           .UNIT                  VALUE               :DESCRIPTION
#----           -------          --------------            -----------------------------
EKB             .ft                   487.00000            :Elevation of Depth Reference (Kelly Bushing)
EGL             .ft                   457.00000            :Elevation of Ground Level
#-------------------------------------------------------------
#  DEPTH             RHOB           DTSM           DTCO             VSH             SW              PHI
~ASCII
# ...
 8226.5000          2.1397        179.3679         95.4779          0.0537          0.8342          0.2245
 8227.0000          2.1320        179.8073         94.1097          0.0357          0.8289          0.2333
 8227.5000          2.1207        180.0999         97.9293          0.0415          0.8297          0.2389
 8228.0000          2.1139        180.7403         96.7189          0.0474          0.8305          0.2445
 8228.5000          2.1165        181.3740         96.6700          0.0432          0.7465          0.2490
 8229.0000          2.1259        181.8971         97.5537          0.0389          0.6624          0.2535
 8229.5000          2.1330        182.1416         97.3136          0.0477          0.5649          0.2447
 8230.0000          2.1312        181.7366         97.9713          0.0566          0.4674          0.2360
 8230.5000          2.1223        180.6900         95.8210          0.0589          0.4654          0.2429
 8231.0000          2.1122        179.1793         95.0816          0.0613          0.4634          0.2498
 8231.5000          2.1079        179.0231         97.3342          0.0648          0.5110          0.2560
 8232.0000          2.1084        179.9079         96.3158          0.0682          0.5585          0.2623
 8232.5000          2.1063        182.2144         98.1003          0.0678          0.7793          0.2515
 8233.0000          2.1026        183.4515         97.2638          0.0674          1.0000          0.2408
 8233.5000          2.1074        185.2593         96.4667          0.0691          0.9755          0.2336
 8234.0000          2.1212        188.8010         98.5923          0.0708          0.9510          0.2265
 8234.5000          2.1329        188.3030         97.6099          0.0754          0.9755          0.2178
 8235.0000          2.1327        182.2486         98.3710          0.0800          1.0000          0.2091
 8235.5000          2.1208        183.8137         94.1996          0.0984          0.9992          0.2231
 8236.0000          2.1243        191.7240         93.8926          0.1168          0.9984          0.2372
 8236.5000          2.2003        192.1201         95.2496          0.2937          0.9992          0.2021
 8237.0000          2.3770        197.7351         96.2060          0.4707          1.0000          0.1669
 8237.5000          2.5394        195.8596         95.6380          0.7109          0.9994          0.0937
 8238.0000          2.5992        196.2616         99.7338          0.9511          0.9988          0.0205
 8238.5000          2.5610        190.9317         96.3063          0.9755          0.9994          0.0103
 8239.0000          2.5232        184.6745         92.9288          1.0000          1.0000          0.0000
 8239.5000          2.5083        176.4008         89.5513          0.9479          0.8014          0.0183
 8240.0000          2.4906        165.0111         90.8231          0.8958          0.6028          0.0367
 8240.5000          2.4596        160.6189         90.5549          0.7287          0.7492          0.0686
 8241.0000          2.4133        159.9851         91.5472          0.5617          0.8957          0.1006
 8241.5000          2.3646        157.8808         91.7427          0.4565          0.7243          0.1040
 8242.0000          2.3474        156.5585         85.8520          0.3513          0.5528          0.1074
 8242.5000          2.3814        153.1914         82.0583          0.4678          0.5003          0.1001
 8243.0000          2.4380        150.5304         76.5118          0.5842          0.4479          0.0927
 8243.5000          2.4776        148.7880         76.6623          0.6655          0.4766          0.0819
 8244.0000          2.4905        145.4532         78.0035          0.7468          0.5054          0.0711
 8244.5000          2.4909        145.2806         77.8144          0.7950          0.4451          0.0571
 8245.0000          2.4942        145.5538         77.9352          0.8431          0.3847          0.0432
 8245.5000          2.5035        144.5477         77.8453          0.8559          0.3598          0.0382
 8246.0000          2.5019        143.5514         77.6716          0.8688          0.3348          0.0333
 8246.5000          2.4844        141.4475         76.9692          0.8308          0.3352          0.0432
 8247.0000          2.4664        142.2099         75.5876          0.7928          0.3357          0.0531
 8247.5000          2.4586        139.7621         76.3254          0.7380          0.3004          0.0647
 8248.0000          2.4511        142.3835         77.5105          0.6832          0.2652          0.0763
 8248.5000          2.4338        142.7639         80.8882          0.6342          0.2872          0.0910
 8249.0000          2.4146        142.1475         81.8178          0.5853          0.3092          0.1057
 8249.5000          2.3935        142.5851         84.0869          0.4974          0.2785          0.1250
 8250.0000          2.3459        142.8933         86.7401          0.4094          0.2477          0.1443
 8250.5000          2.2698        148.6541         86.7991          0.2891          0.3869          0.1675
 8251.0000          2.1999        154.0339         90.3516          0.1687          0.5261          0.1908
 8251.5000          2.1693        164.8706         92.1997          0.1204          0.6490          0.2011
 8252.0000          2.1681        164.6614         94.5132          0.0720          0.7719          0.2114
 8252.5000          2.1690        173.3729         97.3762          0.0636          0.7749          0.2145
 8253.0000          2.1625        177.4820         96.8199          0.0552          0.7778          0.2175
 8253.5000          2.1535        172.2326         95.9392          0.0681          0.7431          0.2209
 8254.0000          2.1472        178.2412         97.4385          0.0810          0.7084          0.2243
 8254.5000          2.1430        179.0517         96.9531          0.0976          0.6974          0.2251
 8255.0000          2.1390        179.3171         97.1080          0.1143          0.6863          0.2259
 8255.5000          2.1355        179.9705         98.3251          0.0900          0.6989          0.2242
 8256.0000          2.1349        180.2211         97.8055          0.0656          0.7116          0.2224
 8256.5000          2.1432        179.5418         96.8594          0.0686          0.7226          0.2214
 8257.0000          2.1599        177.5232         96.3801          0.0717          0.7337          0.2204
 8257.5000          2.1749        177.2298         96.2554          0.0772          0.7200          0.2213
 8258.0000          2.1809        179.3882         96.1757          0.0828          0.7062          0.2223
 8258.5000          2.1765        176.9899         94.1218          0.0772          0.7403          0.2112
 8259.0000          2.1648        177.1962         94.2134          0.0717          0.7744          0.2001
 8259.5000          2.1582        177.7697         92.5616          0.0742          0.7756          0.2048
 8260.0000          2.1724        175.7598         90.5927          0.0767          0.7767          0.2095
 8260.5000          2.2010        170.5234         88.7805          0.0859          0.7007          0.2031
 8261.0000          2.2139        168.2062         89.3326          0.0951          0.6248          0.1967
 8261.5000          2.2017        167.2185         91.3555          0.0882          0.6643          0.2121
 8262.0000          2.1822        167.2439         91.4695          0.0812          0.7039          0.2276
 8262.5000          2.1717        166.8108         93.4420          0.1183          0.5963          0.2201
 8263.0000          2.1624        166.5532         93.5262          0.1555          0.4887          0.2126
 8263.5000          2.1445        169.2380         91.5860          0.1750          0.4623          0.2173
