~VERSION INFORMATION 
VERS  .    2.0                                     :CWLS Log ASCII Standard - VERSION 2.0
WRAP  .    NO                                      :One Line per Depth step
#--------------------------------------------------
~WELL INFORMATION 
#MNEM           .UNIT                      DATA            :DESCRIPTION
#----            ------          --------------            -----------------------------
STRT            .ft                   7364.0000            :START DEPTH
STOP            .ft                   8538.0000            :STOP DEPTH
STEP            .ft                         0.5            :STEP
NULL            .                     -999.0000            :NULL VALUE
COMP            .                         PDVSA            :COMPANY
WELL            .                        Well-2            :WELL NAME
FLD             .                       GUAFITA            :FIELD NAME
SRVC            .                       UNKNOWN            :SERVICE COMPANY
DATE            .                       UNKNOWN            :LOG DATE(Composite Date for Composite LAP) (MM/DD/YYYY)
CNTY            .                       UNKNOWN            :COUNTY
STAT            .                       BARINAS            :STATE or PROVINCE
PROV            .                       BARINAS            :STATE or PROVINCE
CTRY            .                     VENEZUELA            :COUNTRY
API             .                                          :API NUMBER
UWI             .                                          :UNIQUE WELL ID
LOC             .                       GUAFITA            :FIELD LOCATION
#--------------------------------------------------
~CURVE INFORMATION
#MNEM           .UNIT                  API CODE            :DESCRIPTION
#----            ------          --------------            -----------------------------
DEPTH           .ft                                        : Depth Index
RHOB            .g/cm3                                     : Density
DTSM            .us/ft                                     : Delta-T Shear
DTCO            .us/ft                                     : Delta-T Compressional
VSH             .v/v                                       : Shale Volume
SW              .v/v                                       : Water Saturation
NPHI            .fraction                                  : Neutron Porosity
#--------------------------------------------------
~PARAMETER INFORMATION
#MNEM           .UNIT                  VALUE               :DESCRIPTION
#----           -------          --------------            -----------------------------
EKB             .ft                   487.00000            :Elevation of Depth Reference (Kelly Bushing)
EGL             .ft                   457.00000            :Elevation of Ground Level
#-------------------------------------------------------------
#  DEPTH             RHOB           DTSM           DTCO             VSH             SW              PHI
~ASCII
# ...
 8339.0000          2.1006        184.9380         97.4392          0.0991          0.4862          0.2473
 8339.5000          2.1140        180.0200         97.9192          0.1129          0.3866          0.2437
 8340.0000          2.1184        179.1675         92.4542          0.1268          0.2871          0.2400
 8340.5000          2.1203        176.8472         92.7980          0.1907          0.2537          0.2173
 8341.0000          2.1347        175.8918         93.9394          0.2546          0.2203          0.1946
 8341.5000          2.1635        175.7833         94.0068          0.3288          0.2421          0.1805
 8342.0000          2.1953        172.0713         93.2029          0.4029          0.2638          0.1663
 8342.5000          2.2301        167.9755         91.0921          0.4878          0.2549          0.1364
 8343.0000          2.2807        166.8922         90.7405          0.5727          0.2461          0.1066
 8343.5000          2.3413        160.3445         89.7316          0.6349          0.2177          0.0891
 8344.0000          2.3894        155.0294         80.1984          0.6970          0.1893          0.0716
 8344.5000          2.4183        153.0463         80.5153          0.6741          0.2653          0.0753
 8345.0000          2.4293        152.1965         81.5741          0.6513          0.3413          0.0790
 8345.5000          2.4242        152.2374         81.5553          0.7531          0.3668          0.0627
 8346.0000          2.4203        153.6398         81.9857          0.8548          0.3924          0.0464
 8346.5000          2.4400        153.7986         87.5930          0.9060          0.3988          0.0304
 8347.0000          2.4686        157.3451         88.0373          0.9572          0.4051          0.0145
 8347.5000          2.4689        159.2154         88.0069          0.9337          0.4976          0.0261
 8348.0000          2.4418        161.9975         87.6291          0.9101          0.5901          0.0377
 8348.5000          2.4211        159.4937         87.0485          0.9550          0.7951          0.0189
 8349.0000          2.4186        157.9418         85.7232          1.0000          1.0000          0.0000
 8349.5000          2.4318        159.4207         85.6460          0.9241          0.6819          0.0252
 8350.0000          2.4361        158.0508         85.9370          0.8483          0.3637          0.0504
 8350.5000          2.3842        157.2155         88.2008          0.6077          0.3968          0.1115
 8351.0000          2.2776        164.1929         91.3204          0.3672          0.4298          0.1726
 8351.5000          2.1723        165.8618         94.3233          0.2369          0.4733          0.1958
 8352.0000          2.1293        178.6260         98.0039          0.1067          0.5167          0.2191
 8352.5000          2.1285        177.4729         97.8922          0.0984          0.4761          0.2203
 8353.0000          2.1312        180.4863         97.1755          0.0900          0.4355          0.2215
 8353.5000          2.1245        176.8673         98.2386          0.1455          0.4502          0.2113
 8354.0000          2.1234        178.8877         95.4118          0.2010          0.4648          0.2010
 8354.5000          2.1578        172.3271         95.1120          0.3380          0.3586          0.1658
 8355.0000          2.2523        170.6166         88.9066          0.4750          0.2524          0.1306
 8355.5000          2.3763        167.8366         86.7134          0.5649          0.3516          0.1123
 8356.0000          2.4675        164.9473         84.7170          0.6548          0.4507          0.0940
 8356.5000          2.5029        162.4165         82.7280          0.6437          0.5812          0.1010
 8357.0000          2.5103        154.7182         81.0554          0.6326          0.7117          0.1080
 8357.5000          2.5199        154.9928         82.4243          0.5822          0.7437          0.1093
 8358.0000          2.5233        150.7719         82.1614          0.5318          0.7756          0.1106
 8358.5000          2.5127        146.8187         81.9872          0.4633          0.8083          0.1183
 8359.0000          2.5007        147.0916         80.9990          0.3947          0.8409          0.1260
 8359.5000          2.4848        148.7384         82.1023          0.3138          0.9204          0.1392
 8360.0000          2.4355        155.0138         86.4964          0.2329          1.0000          0.1525
 8360.5000          2.3534        156.4623         87.9638          0.2055          0.9147          0.1664
 8361.0000          2.2873        163.6993         89.9740          0.1781          0.8295          0.1803
 8361.5000          2.2781        167.0332         93.1177          0.1635          0.8687          0.1728
 8362.0000          2.2933        165.5200         92.9379          0.1488          0.9078          0.1653
 8362.5000          2.2942        170.3026         90.4168          0.1430          0.9118          0.1685
 8363.0000          2.2850        179.2192         90.1971          0.1372          0.9157          0.1717
 8363.5000          2.2803        164.3680         90.4601          0.1479          0.9428          0.1680
 8364.0000          2.2728        166.3551         89.9718          0.1586          0.9700          0.1643
 8364.5000          2.2617        173.9093         90.6379          0.1530          0.9308          0.1699
 8365.0000          2.2579        175.2062         90.7247          0.1473          0.8916          0.1755
 8365.5000          2.2668        174.7878         92.2267          0.1478          0.9458          0.1696
 8366.0000          2.2872        171.0665         92.3362          0.1483          1.0000          0.1637
 8366.5000          2.3203        173.5890         88.8759          0.1703          0.9788          0.1510
 8367.0000          2.3562        164.8211         89.2310          0.1923          0.9576          0.1383
 8367.5000          2.3722        167.2893         87.0952          0.1961          0.9788          0.1391
 8368.0000          2.3651        165.3869         86.2245          0.1998          1.0000          0.1399
 8368.5000          2.3545        163.6103         85.5747          0.2337          0.8889          0.1323
 8369.0000          2.3553        165.0284         86.1266          0.2676          0.7778          0.1248
 8369.5000          2.3728        162.4784         86.2169          0.3345          0.7091          0.1151
 8370.0000          2.4096        159.9209         84.6880          0.4014          0.6404          0.1053
 8370.5000          2.4589        154.6151         82.8744          0.4471          0.5936          0.0998
 8371.0000          2.4881        144.5271         83.3585          0.4928          0.5469          0.0943
 8371.5000          2.4599        141.6481         82.5012          0.4606          0.4430          0.1094
 8372.0000          2.3867        147.3416         84.4033          0.4285          0.3390          0.1244
 8372.5000          2.3162        154.5408         89.7996          0.4005          0.4467          0.1778
 8373.0000          2.2425        164.3474         89.0642          0.3725          0.5545          0.2312
 8373.5000          2.1065        213.2657         94.0141          0.3984          0.4447          0.2763
 8374.0000          1.9059        226.1831        112.1990          0.4244          0.3349          0.3213
 8374.5000          1.7335        237.0546        111.1444          0.5177          0.4460          0.2659
 8375.0000          1.7125        252.8513        118.2510          0.6110          0.5572          0.2104
 8375.5000          1.8884        256.9308        121.0964          0.7542          0.7786          0.1247
 8376.0000          2.1515        234.0123        118.6692          0.8974          1.0000          0.0390
