~VERSION INFORMATION 
VERS  .    2.0                                     :CWLS Log ASCII Standard - VERSION 2.0
WRAP  .    NO                                      :One Line per Depth step
#--------------------------------------------------
~WELL INFORMATION 
#MNEM           .UNIT                      DATA            :DESCRIPTION
#----            ------          --------------            -----------------------------
STRT            .ft                   7364.0000            :START DEPTH
STOP            .ft                   8538.0000            :STOP DEPTH
STEP            .ft                         0.5            :STEP
NULL            .                     -999.0000            :NULL VALUE
COMP            .                         PDVSA            :COMPANY
WELL            .                        Well-2            :WELL NAME
FLD             .                       GUAFITA            :FIELD NAME
SRVC            .                       UNKNOWN            :SERVICE COMPANY
DATE            .                       UNKNOWN            :LOG DATE(Composite Date for Composite LAP) (MM/DD/YYYY)
CNTY            .                       UNKNOWN            :COUNTY
STAT            .                       BARINAS            :STATE or PROVINCE
PROV            .                       BARINAS            :STATE or PROVINCE
CTRY            .                     VENEZUELA            :COUNTRY
API             .                                          :API NUMBER
UWI             .                                          :UNIQUE WELL ID
LOC             .                       GUAFITA            :FIELD LOCATION
#--------------------------------------------------
~CURVE INFORMATION
#MNEM           .UNIT                  API CODE            :DESCRIPTION
#----            ------          --------------            -----------------------------
DEPTH           .ft                                        : Depth Index
RHOB            .g/cm3                                     : Density
DTSM            .us/ft                                     : Delta-T Shear
DTCO            .us/ft                                     : Delta-T Compressional
VSH             .v/v                                       : Shale Volume
SW              .v/v                                       : Water Saturation
NPHI            .fraction                                  : Neutron Porosity
#--------------------------------------------------
~PARAMETER INFORMATION
#MNEM           .UNIT                  VALUE               :DESCRIPTION
#----           -------          --------------            -----------------------------
EKB             .ft                   487.00000            :Elevation of Depth Reference (Kelly Bushing)
EGL             .ft                   457.00000            :Elevation of Ground Level
#-------------------------------------------------------------
#  DEPTH             RHOB           DTSM           DTCO             VSH             SW              PHI
~ASCII
# ...
 8151.5000          2.4440        179.2596         89.5949          0.6550          1.0000          0.1248
 8152.0000          2.4149        183.1095         92.8047          0.6539          1.0000          0.1360
 8152.5000          2.3891        187.9706         95.7884          0.6344          1.0000          0.1519
 8152.9995          2.3594        199.4164         98.0575          0.6148          1.0000          0.1678
 8153.5000          2.3395        204.5717        100.4253          0.6177          1.0000          0.1707
 8154.0000          2.3512        209.5829        101.3719          0.6207          1.0000          0.1735
 8154.5000          2.3816        203.0070        101.3792          0.6004          1.0000          0.1548
 8155.0005          2.4161        206.4379         91.9861          0.5800          1.0000          0.1360
 8155.5000          2.4562        188.6670         90.1237          0.5487          1.0000          0.1252
 8156.0000          2.4947        189.1718         91.5607          0.5173          1.0000          0.1144
 8156.5000          2.5091        192.1362         92.3356          0.5658          1.0000          0.1212
 8156.9995          2.4959        195.5112         92.4128          0.6142          1.0000          0.1280
 8157.5000          2.4936        196.9768         94.3221          0.6529          1.0000          0.1198
 8158.0000          2.5467        204.4540         97.0141          0.6917          1.0000          0.1115
 8158.5000          2.6516        204.3931         98.5482          0.6885          1.0000          0.1121
 8159.0005          2.7190        204.2932         98.5061          0.6854          1.0000          0.1128
 8159.5000          2.6723        204.5829         99.4493          0.7653          1.0000          0.0909
 8160.0000          2.5505        204.7941        102.4421          0.8452          1.0000          0.0690
 8160.5000          2.4456        206.1364        108.1685          0.8721          0.9315          0.0590
 8160.9995          2.4015        203.9994        106.1085          0.8990          0.8629          0.0490
 8161.5000          2.3739        202.9578        107.9150          0.8906          0.7493          0.0497
 8162.0000          2.3403        198.7056        108.4066          0.8823          0.6357          0.0504
 8162.5000          2.3225        195.4715        102.4911          0.8527          0.6126          0.0640
 8163.0005          2.3308        191.3158        102.5700          0.8231          0.5894          0.0777
 8163.5000          2.3491        187.6844        102.3936          0.8084          0.5296          0.0838
 8164.0000          2.3632        186.1685        101.4342          0.7936          0.4697          0.0899
 8164.5000          2.3721        182.5539        101.1921          0.8200          0.4383          0.0776
 8164.9995          2.3820        180.9611         98.6512          0.8464          0.4068          0.0652
 8165.5000          2.3910        180.9192         97.4657          0.8383          0.5142          0.0677
 8166.0000          2.3958        180.7035         94.7580          0.8303          0.6215          0.0702
 8166.5000          2.3984        180.0420         94.6258          0.7732          0.5656          0.0897
 8167.0005          2.3957        177.6082         94.3681          0.7162          0.5096          0.1092
 8167.5000          2.3986        169.1380         92.7549          0.5897          0.5262          0.1395
 8168.0000          2.4193        167.0193         90.2410          0.4632          0.5428          0.1698
 8168.5000          2.4175        164.3232         89.8493          0.3280          0.6460          0.1858
 8168.9995          2.3559        161.4112         89.6271          0.1928          0.7493          0.2019
 8169.5000          2.2601        161.3969         90.1529          0.1656          0.6429          0.1961
 8170.0000          2.1985        165.7596         91.2318          0.1385          0.5365          0.1902
 8170.5000          2.1861        169.2481         94.3643          0.1236          0.5421          0.1995
 8171.0005          2.1822        180.8019         94.9041          0.1087          0.5476          0.2088
 8171.5000          2.1684        183.0796         95.6074          0.1044          0.6285          0.2089
 8172.0000          2.1539        182.4538         94.4054          0.1001          0.7094          0.2091
 8172.5000          2.1499        178.6178         93.8953          0.0947          0.7369          0.2143
 8172.9995          2.1594        178.2064         94.7847          0.0892          0.7643          0.2195
 8173.5000          2.1725        177.1145         94.8259          0.0944          0.7150          0.2184
 8174.0000          2.1749        177.3512         94.8854          0.0995          0.6658          0.2173
 8174.5000          2.1638        177.0434         95.9354          0.1103          0.6147          0.2151
 8175.0005          2.1466        181.2822         96.2476          0.1212          0.5636          0.2130
 8175.5000          2.1356        181.7579         96.3028          0.1120          0.5935          0.2083
 8176.0000          2.1409        180.0806         96.1201          0.1027          0.6234          0.2035
 8176.5000          2.1552        178.6471         95.6869          0.0855          0.6705          0.2158
 8176.9995          2.1542        176.7378         95.8885          0.0683          0.7176          0.2282
 8177.5000          2.1278        179.4739         95.7966          0.0633          0.7721          0.2467
 8178.0000          2.1085        180.6898         96.7178          0.0584          0.8266          0.2652
 8178.5000          2.1266        181.6716         96.4836          0.0935          0.6726          0.2402
 8179.0005          2.1647        180.4242         96.5835          0.1287          0.5186          0.2152
 8179.5000          2.1895        181.2033         95.7004          0.1512          0.5006          0.2062
 8180.0000          2.1957        179.4919         94.3814          0.1737          0.4826          0.1973
 8180.5000          2.1904        178.6432         95.5526          0.1831          0.4812          0.1957
 8180.9995          2.1765        178.3725         96.0463          0.1924          0.4797          0.1942
 8181.5000          2.1637        177.2995         95.9712          0.1928          0.4396          0.1918
 8182.0000          2.1667        177.8176         96.4153          0.1932          0.3996          0.1893
 8182.5000          2.1793        181.2219         96.4318          0.1969          0.4120          0.1845
 8183.0005          2.1840        178.8224         96.2380          0.2005          0.4244          0.1797
 8183.5000          2.1793        178.6125         97.3456          0.1691          0.4920          0.1857
 8184.0000          2.1760        178.1375         96.7407          0.1377          0.5595          0.1916
 8184.5000          2.1768        177.0264         97.1572          0.1281          0.5556          0.1926
 8184.9995          2.1737        177.4114         96.7235          0.1185          0.5518          0.1935
 8185.5000          2.1601        176.8911         97.3070          0.1183          0.5457          0.2071
 8186.0000          2.1417        177.0078         97.2855          0.1182          0.5396          0.2207
 8186.5000          2.1299        177.3754         97.4001          0.1063          0.6362          0.2234
 8187.0005          2.1302        181.7327         97.8184          0.0943          0.7328          0.2261
 8187.5000          2.1314        180.6385         98.4161          0.1041          0.6471          0.2233
 8188.0000          2.1294        180.8677         99.3210          0.1138          0.5614          0.2204
 8188.5000          2.1342        181.2471         99.6500          0.1205          0.5447          0.2183
