~VERSION INFORMATION 
VERS  .    2.0                                     :CWLS Log ASCII Standard - VERSION 2.0
WRAP  .    NO                                      :One Line per Depth step
#--------------------------------------------------
~WELL INFORMATION 
#MNEM           .UNIT                      DATA            :DESCRIPTION
#----            ------          --------------            -----------------------------
STRT            .ft                   7364.0000            :START DEPTH
STOP            .ft                   8538.0000            :STOP DEPTH
STEP            .ft                         0.5            :STEP
NULL            .                     -999.0000            :NULL VALUE
COMP            .                         PDVSA            :COMPANY
WELL            .                        Well-2            :WELL NAME
FLD             .                       GUAFITA            :FIELD NAME
SRVC            .                       UNKNOWN            :SERVICE COMPANY
DATE            .                       UNKNOWN            :LOG DATE(Composite Date for Composite LAP) (MM/DD/YYYY)
CNTY            .                       UNKNOWN            :COUNTY
STAT            .                       BARINAS            :STATE or PROVINCE
PROV            .                       BARINAS            :STATE or PROVINCE
CTRY            .                     VENEZUELA            :COUNTRY
API             .                                          :API NUMBER
UWI             .                                          :UNIQUE WELL ID
LOC             .                       GUAFITA            :FIELD LOCATION
#--------------------------------------------------
~CURVE INFORMATION
#MNEM           .UNIT                  API CODE            :DESCRIPTION
#----            ------          --------------            -----------------------------
DEPTH           .ft                                        : Depth Index
RHOB            .g/cm3                                     : Density
DTSM            .us/ft                                     : Delta-T Shear
DTCO            .us/ft                                     : Delta-T Compressional
VSH             .v/v                                       : Shale Volume
SW              .v/v                                       : Water Saturation
NPHI            .fraction                                  : Neutron Porosity
#--------------------------------------------------
~PARAMETER INFORMATION
#MNEM           .UNIT                  VALUE               :DESCRIPTION
#----           -------          --------------            -----------------------------
EKB             .ft                   487.00000            :Elevation of Depth Reference (Kelly Bushing)
EGL             .ft                   457.00000            :Elevation of Ground Level
#-------------------------------------------------------------
#  DEPTH             RHOB           DTSM           DTCO             VSH             SW              PHI
~ASCII
# ...
 7401.5000          2.0953        182.5584         97.6931       -999.0000       -999.0000       -999.0000
 7402.0000          2.0952        187.7571         98.5563       -999.0000       -999.0000       -999.0000
 7402.5000          2.0953        189.1889        100.2220       -999.0000       -999.0000       -999.0000
 7403.0005          2.1031        189.7025         99.5000       -999.0000       -999.0000       -999.0000
 7403.5000          2.1200        189.0471        102.1255       -999.0000       -999.0000       -999.0000
 7404.0000          2.1388        187.9484        107.6638       -999.0000       -999.0000       -999.0000
 7404.5000          2.1493        186.5997        103.3141       -999.0000       -999.0000       -999.0000
 7404.9995          2.1520        190.4617        102.9144       -999.0000       -999.0000       -999.0000
 7405.5000          2.1635        190.5522        103.3676       -999.0000       -999.0000       -999.0000
 7406.0000          2.2089        195.2332        103.5542       -999.0000       -999.0000       -999.0000
 7406.5000          2.2952        192.8674         96.9450       -999.0000       -999.0000       -999.0000
 7407.0005          2.3859        181.8287         87.8526       -999.0000       -999.0000       -999.0000
 7407.5000          2.4366        179.3411         84.3999       -999.0000       -999.0000       -999.0000
 7408.0000          2.4445        165.1558         83.5964       -999.0000       -999.0000       -999.0000
 7408.5000          2.4446        164.2346         90.5439       -999.0000       -999.0000       -999.0000
 7408.9995          2.4531        170.2156         90.4591       -999.0000       -999.0000       -999.0000
 7409.5000          2.4644        170.7394         91.5078       -999.0000       -999.0000       -999.0000
 7410.0000          2.4702        183.9661         93.7851       -999.0000       -999.0000       -999.0000
 7410.5000          2.4707        189.7938         95.2802       -999.0000       -999.0000       -999.0000
 7411.0005          2.4711        197.8621         96.2646       -999.0000       -999.0000       -999.0000
 7411.5000          2.4748        198.7972         96.1093       -999.0000       -999.0000       -999.0000
 7412.0000          2.4845        202.6446         96.1706       -999.0000       -999.0000       -999.0000
 7412.5000          2.4985        206.8265         97.1338       -999.0000       -999.0000       -999.0000
 7412.9995          2.5133        208.6750         98.1907       -999.0000       -999.0000       -999.0000
 7413.5000          2.5268        210.7922         97.0072       -999.0000       -999.0000       -999.0000
 7414.0000          2.5333        214.0163         98.3784       -999.0000       -999.0000       -999.0000
 7414.5000          2.5295        219.4672        100.3391       -999.0000       -999.0000       -999.0000
 7415.0005          2.5190        218.1458         96.6849       -999.0000       -999.0000       -999.0000
 7415.5000          2.4964        216.8614         95.9706       -999.0000       -999.0000       -999.0000
 7416.0000          2.4560        209.9238         95.8676       -999.0000       -999.0000       -999.0000
 7416.5000          2.4112        217.2222         94.3859       -999.0000       -999.0000       -999.0000
 7416.9995          2.3871        220.3727         96.9187       -999.0000       -999.0000       -999.0000
 7417.5000          2.3905        217.1640         97.7830       -999.0000       -999.0000       -999.0000
 7418.0000          2.4068        211.4328        100.4861       -999.0000       -999.0000       -999.0000
 7418.5000          2.4177        214.2667        103.1892       -999.0000       -999.0000       -999.0000
 7419.0005          2.4174        224.8399         99.6433       -999.0000       -999.0000       -999.0000
 7419.5000          2.4135        229.2416        100.5969       -999.0000       -999.0000       -999.0000
 7420.0000          2.4270        218.6240         95.9353       -999.0000       -999.0000       -999.0000
 7420.5000          2.4627        209.8663         94.1164       -999.0000       -999.0000       -999.0000
 7420.9995          2.4937        207.5790         90.9915       -999.0000       -999.0000       -999.0000
 7421.5000          2.5028        196.1422         88.4221       -999.0000       -999.0000       -999.0000
 7422.0000          2.4863        189.5876         89.2812       -999.0000       -999.0000       -999.0000
 7422.5000          2.4492        191.4692         90.3872       -999.0000       -999.0000       -999.0000
 7423.0005          2.4095        197.5074         90.6168       -999.0000       -999.0000       -999.0000
 7423.5000          2.3935        208.4920         89.9228       -999.0000       -999.0000       -999.0000
 7424.0000          2.4059        215.0585         93.4004       -999.0000       -999.0000       -999.0000
 7424.5000          2.4200        218.4322         99.3658       -999.0000       -999.0000       -999.0000
 7424.9995          2.4287        212.3690         98.0159       -999.0000       -999.0000       -999.0000
 7425.5000          2.4455        191.7540         97.3444       -999.0000       -999.0000       -999.0000
 7426.0000          2.4623        182.9132         93.8559       -999.0000       -999.0000       -999.0000
 7426.5000          2.4629        169.3797         88.4467       -999.0000       -999.0000       -999.0000
 7427.0005          2.4627        167.6389         87.1690       -999.0000       -999.0000       -999.0000
 7427.5000          2.4861        165.7266         86.0091       -999.0000       -999.0000       -999.0000
 7428.0000          2.5140        163.5746         84.5093       -999.0000       -999.0000       -999.0000
 7428.5000          2.5108        162.7769         83.7339       -999.0000       -999.0000       -999.0000
 7428.9995          2.4692        165.2369         89.9665       -999.0000       -999.0000       -999.0000
 7429.5000          2.4142        196.8050         92.9495       -999.0000       -999.0000       -999.0000
 7430.0000          2.3725        225.5245         96.7086       -999.0000       -999.0000       -999.0000
 7430.5000          2.3436        229.2938        102.3110       -999.0000       -999.0000       -999.0000
 7431.0005          2.3198        241.3272        104.6197       -999.0000       -999.0000       -999.0000
 7431.5000          2.3084        251.4869        112.2910       -999.0000       -999.0000       -999.0000
 7432.0000          2.3153        265.6565        118.2395       -999.0000       -999.0000       -999.0000
 7432.5000          2.3144        275.7114        122.1654       -999.0000       -999.0000       -999.0000
 7432.9995          2.2905        259.3589        123.0073       -999.0000       -999.0000       -999.0000
 7433.5000          2.2695        250.0085        118.9814       -999.0000       -999.0000       -999.0000
 7434.0000          2.3016        225.5607        117.2855       -999.0000       -999.0000       -999.0000
 7434.5000          2.3763        218.9690        105.4717       -999.0000       -999.0000       -999.0000
 7435.0005          2.4340        189.0783         86.6631       -999.0000       -999.0000       -999.0000
 7435.5000          2.4463        184.8862         91.2153       -999.0000       -999.0000       -999.0000
 7436.0000          2.4346        182.8838         91.5542       -999.0000       -999.0000       -999.0000
 7436.5000          2.4359        183.2803         92.0074       -999.0000       -999.0000       -999.0000
 7436.9995          2.4526        181.9321         92.3873       -999.0000       -999.0000       -999.0000
 7437.5000          2.4642        181.7701         92.3100       -999.0000       -999.0000       -999.0000
 7438.0000          2.4648        180.2444         91.0754       -999.0000       -999.0000       -999.0000
 7438.5000          2.4589        177.0577         89.5858       -999.0000       -999.0000       -999.0000
